{"type":"FeatureCollection","features":[{"type":"Feature","properties":{"marker-color":"#ff0000","marker-size":"small","marker-symbol":"","name":"Лобня","route":"Савёловское направление","type":null,"distance":26.1},"geometry":{"type":"Point","coordinates":[37.4868295,56.0278925]}},{"type":"Feature","properties":{"marker-color":"#ff0000","marker-size":"small","marker-symbol":"","name":"Икша","route":"Савёловское направление","type":null,"distance":44.9},"geometry":{"type":"Point","coordinates":[37.510275,56.171879]}},{"type":"Feature","properties":{"marker-color":"#ff0000","marker-size":"small","marker-symbol":"","name":"Вербилки","route":"Савёловское направление","type":null,"distance":88.9},"geometry":{"type":"Point","coordinates":[37.560902,56.539774]}},{"type":"Feature","properties":{"marker-color":"#ff0000","marker-size":"small","marker-symbol":"","name":"Дмитров","route":"Савёловское направление","type":null,"distance":64.5},"geometry":{"type":"Point","coordinates":[37.5110011,56.337567]}},{"type":"Feature","properties":{"marker-color":"#ff0000","marker-size":"small","marker-symbol":"","name":"Каналстрой","route":"Савёловское направление","type":null,"distance":69.9},"geometry":{"type":"Point","coordinates":[37.5160179,56.383847]}},{"type":"Feature","properties":{"marker-color":"#ff0000","marker-size":"small","marker-symbol":"","name":"Яхрома","route":"Савёловское направление","type":null,"distance":58.5},"geometry":{"type":"Point","coordinates":[37.502728,56.286544]}},{"type":"Feature","properties":{"marker-color":"#ff0000","marker-size":"small","marker-symbol":"","name":"Катуар","route":"Савёловское направление","type":null,"distance":35.1},"geometry":{"type":"Point","coordinates":[37.503899,56.090008]}},{"type":"Feature","properties":{"marker-color":"#ff0000","marker-size":"small","marker-symbol":"","name":"Новодачная","route":"Савёловское направление","type":"платформа","distance":15.9},"geometry":{"type":"Point","coordinates":[37.5276548,55.924435]}},{"type":"Feature","properties":{"marker-color":"#ff0000","marker-size":"small","marker-symbol":"","name":"Долгопрудная","route":"Савёловское направление","type":"платформа","distance":17.5},"geometry":{"type":"Point","coordinates":[37.5206242,55.9384746]}},{"type":"Feature","properties":{"marker-color":"#ff0000","marker-size":"small","marker-symbol":"","name":"Водники","route":"Савёловское направление","type":"платформа","distance":19.3},"geometry":{"type":"Point","coordinates":[37.5111654,55.953359]}},{"type":"Feature","properties":{"marker-color":"#ff0000","marker-size":"small","marker-symbol":"","name":"Хлебниково","route":"Савёловское направление","type":"платформа","distance":21.2},"geometry":{"type":"Point","coordinates":[37.5045442,55.970619]}},{"type":"Feature","properties":{"marker-color":"#ff0000","marker-size":"small","marker-symbol":"","name":"Шереметьевская","route":"Савёловское направление","type":"платформа","distance":22.8},"geometry":{"type":"Point","coordinates":[37.4986609,55.9838866]}},{"type":"Feature","properties":{"marker-color":"#ff0000","marker-size":"small","marker-symbol":"","name":"Луговая","route":"Савёловское направление","type":"платформа","distance":30.2},"geometry":{"type":"Point","coordinates":[37.4924727,56.048901]}},{"type":"Feature","properties":{"marker-color":"#ff0000","marker-size":"small","marker-symbol":"","name":"Некрасовская","route":"Савёловское направление","type":"платформа","distance":33.4},"geometry":{"type":"Point","coordinates":[37.4961449,56.074864]}},{"type":"Feature","properties":{"marker-color":"#ff0000","marker-size":"small","marker-symbol":"","name":"Трудовая","route":"Савёловское направление","type":"платформа","distance":38.1},"geometry":{"type":"Point","coordinates":[37.5149268,56.12088]}},{"type":"Feature","properties":{"marker-color":"#ff0000","marker-size":"small","marker-symbol":"","name":"Морозки","route":"Савёловское направление","type":"платформа","distance":49.1},"geometry":{"type":"Point","coordinates":[37.526844,56.207375]}},{"type":"Feature","properties":{"marker-color":"#ff0000","marker-size":"small","marker-symbol":"","name":"Турист","route":"Савёловское направление","type":"платформа","distance":53.3},"geometry":{"type":"Point","coordinates":[37.5124527,56.243512]}},{"type":"Feature","properties":{"marker-color":"#ff0000","marker-size":"small","marker-symbol":"","name":"75 км","route":"Савёловское направление","type":"платформа","distance":null},"geometry":{"type":"Point","coordinates":[37.498019,56.418056]}},{"type":"Feature","properties":{"marker-color":"#ff0000","marker-size":"small","marker-symbol":"","name":"Орудьево","route":"Савёловское направление","type":"платформа","distance":77.5},"geometry":{"type":"Point","coordinates":[37.516045,56.443623]}},{"type":"Feature","properties":{"marker-color":"#ff0000","marker-size":"small","marker-symbol":"","name":"94 км","route":"Савёловское направление","type":"платформа","distance":93.5},"geometry":{"type":"Point","coordinates":[37.567741,56.580265]}},{"type":"Feature","properties":{"marker-color":"#ff0000","marker-size":"small","marker-symbol":"","name":"Власово","route":"Савёловское направление","type":"платформа","distance":100.2},"geometry":{"type":"Point","coordinates":[37.5622091,56.639414]}},{"type":"Feature","properties":{"marker-color":"#ff0000","marker-size":"small","marker-symbol":"","name":"Талдом","route":"Савёловское направление","type":"станция","distance":null},"geometry":{"type":"Point","coordinates":[37.517472,56.7268599]}},{"type":"Feature","properties":{"marker-color":"#ff0000","marker-size":"small","marker-symbol":"","name":"Лебзино","route":"Савёловское направление","type":"платформа","distance":118.6},"geometry":{"type":"Point","coordinates":[37.418632,56.769569]}},{"type":"Feature","properties":{"marker-color":"#ff0000","marker-size":"small","marker-symbol":"","name":"Аэропорт Шереметьево","route":"Савёловское направление","type":null,"distance":null},"geometry":{"type":"Point","coordinates":[37.4179037,55.9642064]}},{"type":"Feature","properties":{"marker-color":"#ff0000","marker-size":"small","marker-symbol":"","name":"Депо","route":"Савёловское направление","type":"платформа","distance":27.7},"geometry":{"type":"Point","coordinates":[37.7284049,55.674248]}},{"type":"Feature","properties":{"marker-color":"#ff0000","marker-size":"small","marker-symbol":"","name":"Пристань Дмитров","route":"Савёловское направление","type":null,"distance":null},"geometry":{"type":"Point","coordinates":[37.5110011,56.337567]}},{"type":"Feature","properties":{"marker-color":"#ff0000","marker-size":"small","marker-symbol":"","name":"им. Барсученко","route":"Савёловское направление","type":"платформа","distance":74.3},"geometry":{"type":"Point","coordinates":[37.498019,56.418056]}},{"type":"Feature","properties":{"marker-color":"#ff0000","marker-size":"small","marker-symbol":"","name":"Соревнование","route":"Савёловское направление","type":"Разъезд","distance":97.8},"geometry":{"type":"Point","coordinates":[37.428547,56.529091]}},{"type":"Feature","properties":{"marker-color":"#ff0000","marker-size":"small","marker-symbol":"","name":"Запрудная","route":"Савёловское направление","type":"платформа","distance":102.3},"geometry":{"type":"Point","coordinates":[37.3931231,56.5604663]}},{"type":"Feature","properties":{"marker-color":"#ff0000","marker-size":"small","marker-symbol":"","name":"Темпы","route":"Савёловское направление","type":"платформа","distance":112.5},"geometry":{"type":"Point","coordinates":[37.297398,56.635313]}},{"type":"Feature","properties":{"marker-color":"#ff0000","marker-size":"small","marker-symbol":"","name":"Мельдино","route":"Савёловское направление","type":"платформа","distance":115.2},"geometry":{"type":"Point","coordinates":[37.2613101,56.65896]}},{"type":"Feature","properties":{"marker-color":"#ff0000","marker-size":"small","marker-symbol":"","name":"119 км","route":"Савёловское направление","type":"платформа","distance":118.9},"geometry":{"type":"Point","coordinates":[38,55]}},{"type":"Feature","properties":{"marker-color":"#ff0000","marker-size":"small","marker-symbol":"","name":"122 км(Карманово)","route":"Савёловское направление","type":"платформа","distance":122},"geometry":{"type":"Point","coordinates":[38,55]}},{"type":"Feature","properties":{"marker-color":"#ff0000","marker-size":"small","marker-symbol":"","name":"Большая Волга","route":"Савёловское направление","type":null,"distance":126.9},"geometry":{"type":"Point","coordinates":[37.1372353,56.7271955]}},{"type":"Feature","properties":{"marker-color":"#ff0000","marker-size":"small","marker-symbol":"","name":"Дубна","route":"Савёловское направление","type":null,"distance":132.1},"geometry":{"type":"Point","coordinates":[37.2006389,56.746061]}},{"type":"Feature","properties":{"marker-color":"#ff0000","marker-size":"small","marker-symbol":"","name":"Талдом-Савёловский","route":"Савёловское направление","type":null,"distance":110.1},"geometry":{"type":"Point","coordinates":[38,55]}},{"type":"Feature","properties":{"marker-color":"#ff0000","marker-size":"small","marker-symbol":"","name":"Бескудниково","route":"Савёловское направление","type":"null","distance":"null"},"geometry":{"type":"Point","coordinates":[37.5677763,55.882782]}},{"type":"Feature","properties":{"marker-color":"#ff0000","marker-size":"small","marker-symbol":"","name":"Марк","route":"Савёловское направление","type":"null","distance":"null"},"geometry":{"type":"Point","coordinates":[37.5382527,55.9045015]}},{"type":"Feature","properties":{"marker-color":"#ff0000","marker-size":"small","marker-symbol":"","name":"Москва-Бутырская","route":"Савёловское направление","type":"null","distance":null},"geometry":{"type":"Point","coordinates":[37.5887086,55.7953011]}},{"type":"Feature","properties":{"marker-color":"#ff0000","marker-size":"small","marker-symbol":"","name":"Савёлово","route":"Савёловское направление","type":"null","distance":"null"},"geometry":{"type":"Point","coordinates":[37.3768455,56.8557375]}},{"type":"Feature","properties":{"marker-color":"#ff0000","marker-size":"small","marker-symbol":"","name":"Тимирязевская","route":"Савёловское направление","type":"","distance":null},"geometry":{"type":"Point","coordinates":[37.576160430908196,55.819271234697005]}},{"type":"Feature","properties":{"marker-color":"#ff0000","marker-size":"small","marker-symbol":"","name":"Окружная","route":"Савёловское направление","type":"","distance":null},"geometry":{"type":"Point","coordinates":[37.57444381713867,55.84659039373429]}},{"type":"Feature","properties":{"marker-color":"#ce00ff","marker-size":"small","marker-symbol":"","name":"Железнодорожная","route":"Горьковское направление","type":null,"distance":23.6},"geometry":{"type":"Point","coordinates":[38.0082967,55.7513003]}},{"type":"Feature","properties":{"marker-color":"#ce00ff","marker-size":"small","marker-symbol":"","name":"Электроугли","route":"Горьковское направление","type":null,"distance":36.4},"geometry":{"type":"Point","coordinates":[38.202324,55.730179]}},{"type":"Feature","properties":{"marker-color":"#ce00ff","marker-size":"small","marker-symbol":"","name":"Фрязево","route":"Горьковское направление","type":null,"distance":53.4},"geometry":{"type":"Point","coordinates":[38.465485,55.73233]}},{"type":"Feature","properties":{"marker-color":"#ce00ff","marker-size":"small","marker-symbol":"","name":"Павловский Посад","route":"Горьковское направление","type":null,"distance":67.4},"geometry":{"type":"Point","coordinates":[38.6746033,55.7759753]}},{"type":"Feature","properties":{"marker-color":"#ce00ff","marker-size":"small","marker-symbol":"","name":"Дрезна","route":"Горьковское направление","type":null,"distance":79.1},"geometry":{"type":"Point","coordinates":[38.853085,55.748123]}},{"type":"Feature","properties":{"marker-color":"#ce00ff","marker-size":"small","marker-symbol":"","name":"Купавна","route":"Горьковское направление","type":null,"distance":30.7},"geometry":{"type":"Point","coordinates":[38.121248,55.753251]}},{"type":"Feature","properties":{"marker-color":"#ce00ff","marker-size":"small","marker-symbol":"","name":"Реутово","route":"Горьковское направление","type":null,"distance":14.1},"geometry":{"type":"Point","coordinates":[37.8613701,55.7530144]}},{"type":"Feature","properties":{"marker-color":"#ce00ff","marker-size":"small","marker-symbol":"","name":"Никольское","route":"Горьковское направление","type":"платформа","distance":16.5},"geometry":{"type":"Point","coordinates":[37.8977427,55.7596515]}},{"type":"Feature","properties":{"marker-color":"#ce00ff","marker-size":"small","marker-symbol":"","name":"Салтыковская","route":"Горьковское направление","type":"платформа","distance":18.1},"geometry":{"type":"Point","coordinates":[37.9223177,55.7579099]}},{"type":"Feature","properties":{"marker-color":"#ce00ff","marker-size":"small","marker-symbol":"","name":"Кучино","route":"Горьковское направление","type":"платформа","distance":20.2},"geometry":{"type":"Point","coordinates":[37.9542967,55.751313]}},{"type":"Feature","properties":{"marker-color":"#ce00ff","marker-size":"small","marker-symbol":"","name":"Чёрное","route":"Горьковское направление","type":"платформа","distance":26.9},"geometry":{"type":"Point","coordinates":[38.0602273,55.753123]}},{"type":"Feature","properties":{"marker-color":"#ce00ff","marker-size":"small","marker-symbol":"","name":"Заря","route":"Горьковское направление","type":"платформа","distance":null},"geometry":{"type":"Point","coordinates":[38.08321,55.7536864]}},{"type":"Feature","properties":{"marker-color":"#ce00ff","marker-size":"small","marker-symbol":"","name":"33 км","route":"Горьковское направление","type":"платформа","distance":32.9},"geometry":{"type":"Point","coordinates":[38.1531261,55.743984]}},{"type":"Feature","properties":{"marker-color":"#ce00ff","marker-size":"small","marker-symbol":"","name":"Храпуново","route":"Горьковское направление","type":null,"distance":45.8},"geometry":{"type":"Point","coordinates":[38.3474219,55.721055]}},{"type":"Feature","properties":{"marker-color":"#ce00ff","marker-size":"small","marker-symbol":"","name":"Есино","route":"Горьковское направление","type":"платформа","distance":47.7},"geometry":{"type":"Point","coordinates":[38.378376,55.720295]}},{"type":"Feature","properties":{"marker-color":"#ce00ff","marker-size":"small","marker-symbol":"","name":"Казанское","route":"Горьковское направление","type":"платформа","distance":60.6},"geometry":{"type":"Point","coordinates":[38,55]}},{"type":"Feature","properties":{"marker-color":"#ce00ff","marker-size":"small","marker-symbol":"","name":"Вохна","route":"Горьковское направление","type":"платформа","distance":64.5},"geometry":{"type":"Point","coordinates":[38.630572,55.769461]}},{"type":"Feature","properties":{"marker-color":"#ce00ff","marker-size":"small","marker-symbol":"","name":"Назарьево","route":"Горьковское направление","type":"платформа","distance":74.3},"geometry":{"type":"Point","coordinates":[38.7777545,55.7558705]}},{"type":"Feature","properties":{"marker-color":"#ce00ff","marker-size":"small","marker-symbol":"","name":"Кабаново","route":"Горьковское направление","type":"платформа","distance":84.4},"geometry":{"type":"Point","coordinates":[38.9315299,55.7612524]}},{"type":"Feature","properties":{"marker-color":"#ce00ff","marker-size":"small","marker-symbol":"","name":"87 км","route":"Горьковское направление","type":"платформа","distance":87},"geometry":{"type":"Point","coordinates":[38.95634,55.773554]}},{"type":"Feature","properties":{"marker-color":"#ce00ff","marker-size":"small","marker-symbol":"","name":"Крутое","route":"Горьковское направление","type":"платформа","distance":91.9},"geometry":{"type":"Point","coordinates":[39.0058871,55.811062]}},{"type":"Feature","properties":{"marker-color":"#ce00ff","marker-size":"small","marker-symbol":"","name":"Воиново","route":"Горьковское направление","type":"платформа","distance":97.1},"geometry":{"type":"Point","coordinates":[38,55]}},{"type":"Feature","properties":{"marker-color":"#ce00ff","marker-size":"small","marker-symbol":"","name":"Стройка","route":"Горьковское направление","type":null,"distance":18.1},"geometry":{"type":"Point","coordinates":[37.8623362,55.7807988]}},{"type":"Feature","properties":{"marker-color":"#ce00ff","marker-size":"small","marker-symbol":"","name":"Горенки","route":"Горьковское направление","type":"платформа","distance":24},"geometry":{"type":"Point","coordinates":[37.919596,55.805761]}},{"type":"Feature","properties":{"marker-color":"#ce00ff","marker-size":"small","marker-symbol":"","name":"Балашиха","route":"Горьковское направление","type":null,"distance":26},"geometry":{"type":"Point","coordinates":[37.949475,55.8097906]}},{"type":"Feature","properties":{"marker-color":"#ce00ff","marker-size":"small","marker-symbol":"","name":"30 км","route":"Горьковское направление","type":"платформа","distance":29.7},"geometry":{"type":"Point","coordinates":[38,55]}},{"type":"Feature","properties":{"marker-color":"#ce00ff","marker-size":"small","marker-symbol":"","name":"43 км","route":"Горьковское направление","type":"платформа","distance":42.2},"geometry":{"type":"Point","coordinates":[38.291435,55.722221]}},{"type":"Feature","properties":{"marker-color":"#ce00ff","marker-size":"small","marker-symbol":"","name":"Металлург","route":"Горьковское направление","type":"платформа","distance":58.4},"geometry":{"type":"Point","coordinates":[38,55]}},{"type":"Feature","properties":{"marker-color":"#ce00ff","marker-size":"small","marker-symbol":"","name":"Электросталь","route":"Горьковское направление","type":null,"distance":59.4},"geometry":{"type":"Point","coordinates":[38.460945,55.786449]}},{"type":"Feature","properties":{"marker-color":"#ce00ff","marker-size":"small","marker-symbol":"","name":"Машиностроитель","route":"Горьковское направление","type":"платформа","distance":62.5},"geometry":{"type":"Point","coordinates":[38.454758,55.800797]}},{"type":"Feature","properties":{"marker-color":"#ce00ff","marker-size":"small","marker-symbol":"","name":"Ногинск","route":"Горьковское направление","type":null,"distance":67.4},"geometry":{"type":"Point","coordinates":[38.4433917,55.85093]}},{"type":"Feature","properties":{"marker-color":"#ce00ff","marker-size":"small","marker-symbol":"","name":"Захарово","route":"Горьковское направление","type":"платформа","distance":70.4},"geometry":{"type":"Point","coordinates":[38.46777,55.872774]}},{"type":"Feature","properties":{"marker-color":"#ce00ff","marker-size":"small","marker-symbol":"","name":"Центральная станция Ногинского ППЖТ","route":"Горьковское направление","type":null,"distance":null},"geometry":{"type":"Point","coordinates":[38.4433917,55.85093]}},{"type":"Feature","properties":{"marker-color":"#ce00ff","marker-size":"small","marker-symbol":"","name":"Рузино","route":"Горьковское направление","type":null,"distance":null},"geometry":{"type":"Point","coordinates":[37.6611133,55.7574935]}},{"type":"Feature","properties":{"marker-color":"#ce00ff","marker-size":"small","marker-symbol":"","name":"Починки","route":"Горьковское направление","type":null,"distance":null},"geometry":{"type":"Point","coordinates":[38,55]}},{"type":"Feature","properties":{"marker-color":"#ce00ff","marker-size":"small","marker-symbol":"","name":"Чёрноголовка","route":"Горьковское направление","type":null,"distance":null},"geometry":{"type":"Point","coordinates":[38.46777,55.872774]}},{"type":"Feature","properties":{"marker-color":"#ce00ff","marker-size":"small","marker-symbol":"","name":"Ленская","route":"Горьковское направление","type":"платформа","distance":2},"geometry":{"type":"Point","coordinates":[38.6998641,55.774272]}},{"type":"Feature","properties":{"marker-color":"#ce00ff","marker-size":"small","marker-symbol":"","name":"Ковригино","route":"Горьковское направление","type":"платформа","distance":5},"geometry":{"type":"Point","coordinates":[38.719359,55.793397]}},{"type":"Feature","properties":{"marker-color":"#ce00ff","marker-size":"small","marker-symbol":"","name":"14 км","route":"Горьковское направление","type":"платформа","distance":14.4},"geometry":{"type":"Point","coordinates":[38.782928,55.864357]}},{"type":"Feature","properties":{"marker-color":"#ce00ff","marker-size":"small","marker-symbol":"","name":"Электрогорск","route":"Горьковское направление","type":null,"distance":16},"geometry":{"type":"Point","coordinates":[38.7868801,55.882797]}},{"type":"Feature","properties":{"marker-color":"#ce00ff","marker-size":"small","marker-symbol":"","name":"Орехово-Зуево","route":"Горьковское направление","type":null,"distance":89.4},"geometry":{"type":"Point","coordinates":[38.9752345,55.7954164]}},{"type":"Feature","properties":{"marker-color":"#ce00ff","marker-size":"small","marker-symbol":"","name":"Пост 97 км","route":"Горьковское направление","type":null,"distance":null},"geometry":{"type":"Point","coordinates":[38,55]}},{"type":"Feature","properties":{"marker-color":"#ce00ff","marker-size":"small","marker-symbol":"","name":"Усад","route":"Горьковское направление","type":"null","distance":"null"},"geometry":{"type":"Point","coordinates":[39.1034164,55.8691048]}},{"type":"Feature","properties":{"marker-color":"#ce00ff","marker-size":"small","marker-symbol":"","name":"Покров","route":"Горьковское направление","type":"null","distance":"null"},"geometry":{"type":"Point","coordinates":[39.217645,55.8919929]}},{"type":"Feature","properties":{"marker-color":"#ce00ff","marker-size":"small","marker-symbol":"","name":"Болдино","route":"Горьковское направление","type":"null","distance":"null"},"geometry":{"type":"Point","coordinates":[39.7376989,55.9531071]}},{"type":"Feature","properties":{"marker-color":"#ce00ff","marker-size":"small","marker-symbol":"","name":"Петушки","route":"Горьковское направление","type":"null","distance":"null"},"geometry":{"type":"Point","coordinates":[39.4628359,55.9247749]}},{"type":"Feature","properties":{"marker-color":"#ce00ff","marker-size":"small","marker-symbol":"","name":"Костерёво","route":"Горьковское направление","type":"null","distance":"null"},"geometry":{"type":"Point","coordinates":[39.6213908,55.9301712]}},{"type":"Feature","properties":{"marker-color":"#ce00ff","marker-size":"small","marker-symbol":"","name":"Ундол","route":"Горьковское направление","type":"null","distance":"null"},"geometry":{"type":"Point","coordinates":[39.9829798,56.0201091]}},{"type":"Feature","properties":{"marker-color":"#ce00ff","marker-size":"small","marker-symbol":"","name":"Колокша","route":"Горьковское направление","type":"null","distance":"null"},"geometry":{"type":"Point","coordinates":[40.1840938,56.0617788]}},{"type":"Feature","properties":{"marker-color":"#ce00ff","marker-size":"small","marker-symbol":"","name":"Юрьевец","route":"Горьковское направление","type":"null","distance":"null"},"geometry":{"type":"Point","coordinates":[40.2800576,56.0927744]}},{"type":"Feature","properties":{"marker-color":"#ce00ff","marker-size":"small","marker-symbol":"","name":"Владимир","route":"Горьковское направление","type":"null","distance":"null"},"geometry":{"type":"Point","coordinates":[40.4203306,56.1298974]}},{"type":"Feature","properties":{"marker-color":"#4e00ff","marker-size":"small","marker-symbol":"","name":"Голицыно","route":"Смоленское направление","type":null,"distance":44},"geometry":{"type":"Point","coordinates":[36.9872903,55.61572]}},{"type":"Feature","properties":{"marker-color":"#4e00ff","marker-size":"small","marker-symbol":"","name":"Дорохово","route":"Смоленское направление","type":null,"distance":86.6},"geometry":{"type":"Point","coordinates":[36.371792,55.54642]}},{"type":"Feature","properties":{"marker-color":"#4e00ff","marker-size":"small","marker-symbol":"","name":"Бородино","route":"Смоленское направление","type":null,"distance":121.4},"geometry":{"type":"Point","coordinates":[35.86122,55.495412]}},{"type":"Feature","properties":{"marker-color":"#4e00ff","marker-size":"small","marker-symbol":"","name":"Петелино","route":"Смоленское направление","type":null,"distance":54.7},"geometry":{"type":"Point","coordinates":[36.823327,55.602599]}},{"type":"Feature","properties":{"marker-color":"#4e00ff","marker-size":"small","marker-symbol":"","name":"Тучково","route":"Смоленское направление","type":null,"distance":78},"geometry":{"type":"Point","coordinates":[36.469085,55.597621]}},{"type":"Feature","properties":{"marker-color":"#4e00ff","marker-size":"small","marker-symbol":"","name":"Кубинка I","route":"Смоленское направление","type":null,"distance":63.3},"geometry":{"type":"Point","coordinates":[36.691617,55.579274]}},{"type":"Feature","properties":{"marker-color":"#4e00ff","marker-size":"small","marker-symbol":"","name":"Уваровка","route":"Смоленское направление","type":null,"distance":138.8},"geometry":{"type":"Point","coordinates":[35.609825,55.532536]}},{"type":"Feature","properties":{"marker-color":"#4e00ff","marker-size":"small","marker-symbol":"","name":"Можайск","route":"Смоленское направление","type":null,"distance":110.2},"geometry":{"type":"Point","coordinates":[36.0322519,55.4943524]}},{"type":"Feature","properties":{"marker-color":"#4e00ff","marker-size":"small","marker-symbol":"","name":"Пионерская","route":"Смоленское направление","type":"платформа","distance":28.7},"geometry":{"type":"Point","coordinates":[37.212103,55.665262]}},{"type":"Feature","properties":{"marker-color":"#4e00ff","marker-size":"small","marker-symbol":"","name":"Одинцово","route":"Смоленское направление","type":null,"distance":24.1},"geometry":{"type":"Point","coordinates":[37.2815413,55.672194]}},{"type":"Feature","properties":{"marker-color":"#4e00ff","marker-size":"small","marker-symbol":"","name":"Немчиновка","route":"Смоленское направление","type":"платформа","distance":16.3},"geometry":{"type":"Point","coordinates":[37.3748821,55.7157135]}},{"type":"Feature","properties":{"marker-color":"#4e00ff","marker-size":"small","marker-symbol":"","name":"Трёхгорка","route":"Смоленское направление","type":"платформа","distance":null},"geometry":{"type":"Point","coordinates":[37.3425569,55.7000099]}},{"type":"Feature","properties":{"marker-color":"#4e00ff","marker-size":"small","marker-symbol":"","name":"Баковка","route":"Смоленское направление","type":"платформа","distance":21.5},"geometry":{"type":"Point","coordinates":[37.3149155,55.6827723]}},{"type":"Feature","properties":{"marker-color":"#4e00ff","marker-size":"small","marker-symbol":"","name":"Отрадное","route":"Смоленское направление","type":"платформа","distance":26.2},"geometry":{"type":"Point","coordinates":[37.2506341,55.667783]}},{"type":"Feature","properties":{"marker-color":"#4e00ff","marker-size":"small","marker-symbol":"","name":"Перхушково","route":"Смоленское направление","type":"платформа","distance":30.4},"geometry":{"type":"Point","coordinates":[37.1836881,55.661263]}},{"type":"Feature","properties":{"marker-color":"#4e00ff","marker-size":"small","marker-symbol":"","name":"Здравница","route":"Смоленское направление","type":"платформа","distance":32.8},"geometry":{"type":"Point","coordinates":[37.151525,55.650164]}},{"type":"Feature","properties":{"marker-color":"#4e00ff","marker-size":"small","marker-symbol":"","name":"Жаворонки","route":"Смоленское направление","type":"платформа","distance":36.4},"geometry":{"type":"Point","coordinates":[37.0987296,55.6419184]}},{"type":"Feature","properties":{"marker-color":"#4e00ff","marker-size":"small","marker-symbol":"","name":"Дачное","route":"Смоленское направление","type":"платформа","distance":39.5},"geometry":{"type":"Point","coordinates":[37.0667481,55.635962]}},{"type":"Feature","properties":{"marker-color":"#4e00ff","marker-size":"small","marker-symbol":"","name":"Малые Вязёмы","route":"Смоленское направление","type":"платформа","distance":null},"geometry":{"type":"Point","coordinates":[37.029567,55.626397]}},{"type":"Feature","properties":{"marker-color":"#4e00ff","marker-size":"small","marker-symbol":"","name":"Сушкинская","route":"Смоленское направление","type":"платформа","distance":51.4},"geometry":{"type":"Point","coordinates":[36.8724129,55.610992]}},{"type":"Feature","properties":{"marker-color":"#4e00ff","marker-size":"small","marker-symbol":"","name":"Часцовская","route":"Смоленское направление","type":"платформа","distance":56.5},"geometry":{"type":"Point","coordinates":[36.787673,55.596217]}},{"type":"Feature","properties":{"marker-color":"#4e00ff","marker-size":"small","marker-symbol":"","name":"Портновская","route":"Смоленское направление","type":"платформа","distance":59.8},"geometry":{"type":"Point","coordinates":[36.7455019,55.58897]}},{"type":"Feature","properties":{"marker-color":"#4e00ff","marker-size":"small","marker-symbol":"","name":"Чапаевка","route":"Смоленское направление","type":"платформа","distance":66.9},"geometry":{"type":"Point","coordinates":[36.635369,55.579036]}},{"type":"Feature","properties":{"marker-color":"#4e00ff","marker-size":"small","marker-symbol":"","name":"Полушкино","route":"Смоленское направление","type":"платформа","distance":71.4},"geometry":{"type":"Point","coordinates":[36.568353,55.585213]}},{"type":"Feature","properties":{"marker-color":"#4e00ff","marker-size":"small","marker-symbol":"","name":"Санаторная","route":"Смоленское направление","type":"платформа","distance":73.8},"geometry":{"type":"Point","coordinates":[36.534357,55.590755]}},{"type":"Feature","properties":{"marker-color":"#4e00ff","marker-size":"small","marker-symbol":"","name":"Театральная","route":"Смоленское направление","type":"платформа","distance":79.8},"geometry":{"type":"Point","coordinates":[36.448056,55.584809]}},{"type":"Feature","properties":{"marker-color":"#4e00ff","marker-size":"small","marker-symbol":"","name":"Садовая","route":"Смоленское направление","type":"платформа","distance":84.3},"geometry":{"type":"Point","coordinates":[38,55]}},{"type":"Feature","properties":{"marker-color":"#4e00ff","marker-size":"small","marker-symbol":"","name":"Партизанская","route":"Смоленское направление","type":"платформа","distance":91.1},"geometry":{"type":"Point","coordinates":[36.3096439,55.537735]}},{"type":"Feature","properties":{"marker-color":"#4e00ff","marker-size":"small","marker-symbol":"","name":"Шаликово","route":"Смоленское направление","type":"платформа","distance":98.1},"geometry":{"type":"Point","coordinates":[36.2196309,55.511833]}},{"type":"Feature","properties":{"marker-color":"#4e00ff","marker-size":"small","marker-symbol":"","name":"Кукаринская","route":"Смоленское направление","type":"платформа","distance":104.3},"geometry":{"type":"Point","coordinates":[36.126707,55.499664]}},{"type":"Feature","properties":{"marker-color":"#4e00ff","marker-size":"small","marker-symbol":"","name":"109 км","route":"Смоленское направление","type":"платформа","distance":108.2},"geometry":{"type":"Point","coordinates":[36.066543,55.494296]}},{"type":"Feature","properties":{"marker-color":"#4e00ff","marker-size":"small","marker-symbol":"","name":"Колочь","route":"Смоленское направление","type":"платформа","distance":129.7},"geometry":{"type":"Point","coordinates":[35.737329,55.499464]}},{"type":"Feature","properties":{"marker-color":"#4e00ff","marker-size":"small","marker-symbol":"","name":"144 км","route":"Смоленское направление","type":"платформа","distance":144.6},"geometry":{"type":"Point","coordinates":[35.539233,55.529643]}},{"type":"Feature","properties":{"marker-color":"#4e00ff","marker-size":"small","marker-symbol":"","name":"147 км","route":"Смоленское направление","type":"платформа","distance":null},"geometry":{"type":"Point","coordinates":[35.4901659,55.520615]}},{"type":"Feature","properties":{"marker-color":"#4e00ff","marker-size":"small","marker-symbol":"","name":"Дровнино","route":"Смоленское направление","type":"платформа","distance":154.1},"geometry":{"type":"Point","coordinates":[35.381104,55.512942]}},{"type":"Feature","properties":{"marker-color":"#4e00ff","marker-size":"small","marker-symbol":"","name":"Кунцево II","route":"Смоленское направление","type":null,"distance":4},"geometry":{"type":"Point","coordinates":[37.3924879,55.7297909]}},{"type":"Feature","properties":{"marker-color":"#4e00ff","marker-size":"small","marker-symbol":"","name":"Ромашково","route":"Смоленское направление","type":"платформа","distance":6.8},"geometry":{"type":"Point","coordinates":[37.347384,55.734437]}},{"type":"Feature","properties":{"marker-color":"#4e00ff","marker-size":"small","marker-symbol":"","name":"Раздоры","route":"Смоленское направление","type":"платформа","distance":10},"geometry":{"type":"Point","coordinates":[37.2946471,55.738903]}},{"type":"Feature","properties":{"marker-color":"#4e00ff","marker-size":"small","marker-symbol":"","name":"Барвиха","route":"Смоленское направление","type":"платформа","distance":12},"geometry":{"type":"Point","coordinates":[37.262677,55.737499]}},{"type":"Feature","properties":{"marker-color":"#4e00ff","marker-size":"small","marker-symbol":"","name":"Ильинское","route":"Смоленское направление","type":"платформа","distance":14},"geometry":{"type":"Point","coordinates":[38,55]}},{"type":"Feature","properties":{"marker-color":"#4e00ff","marker-size":"small","marker-symbol":"","name":"Усово","route":"Смоленское направление","type":null,"distance":17.2},"geometry":{"type":"Point","coordinates":[37.2087046,55.7291393]}},{"type":"Feature","properties":{"marker-color":"#4e00ff","marker-size":"small","marker-symbol":"","name":"Усово-2","route":"Смоленское направление","type":"платформа","distance":17.8},"geometry":{"type":"Point","coordinates":[37.2084789,55.737023]}},{"type":"Feature","properties":{"marker-color":"#4e00ff","marker-size":"small","marker-symbol":"","name":"Инновационный центр Сколково","route":"Смоленское направление","type":"платформа","distance":null},"geometry":{"type":"Point","coordinates":[37.358155,55.6981853]}},{"type":"Feature","properties":{"marker-color":"#4e00ff","marker-size":"small","marker-symbol":"","name":"Малая Вязёма","route":"Смоленское направление","type":"платформа","distance":41.9},"geometry":{"type":"Point","coordinates":[37.029567,55.626397]}},{"type":"Feature","properties":{"marker-color":"#4e00ff","marker-size":"small","marker-symbol":"","name":"Захарово","route":"Смоленское направление","type":"платформа","distance":4.6},"geometry":{"type":"Point","coordinates":[38.46777,55.872774]}},{"type":"Feature","properties":{"marker-color":"#4e00ff","marker-size":"small","marker-symbol":"","name":"Хлюпино","route":"Смоленское направление","type":"платформа","distance":7.8},"geometry":{"type":"Point","coordinates":[36.9625671,55.670427]}},{"type":"Feature","properties":{"marker-color":"#4e00ff","marker-size":"small","marker-symbol":"","name":"Скоротово","route":"Смоленское направление","type":"платформа","distance":11.1},"geometry":{"type":"Point","coordinates":[36.911924,55.678859]}},{"type":"Feature","properties":{"marker-color":"#4e00ff","marker-size":"small","marker-symbol":"","name":"Звенигород","route":"Смоленское направление","type":null,"distance":15.7},"geometry":{"type":"Point","coordinates":[36.8788859,55.700149]}},{"type":"Feature","properties":{"marker-color":"#4e00ff","marker-size":"small","marker-symbol":"","name":"ОКНСМ","route":"Смоленское направление","type":null,"distance":null},"geometry":{"type":"Point","coordinates":[36.4668485,55.6810077]}},{"type":"Feature","properties":{"marker-color":"#4e00ff","marker-size":"small","marker-symbol":"","name":"Вязьма","route":"Смоленское направление","type":"null","distance":"null"},"geometry":{"type":"Point","coordinates":[34.3176239,55.1975149]}},{"type":"Feature","properties":{"marker-color":"#4e00ff","marker-size":"small","marker-symbol":"","name":"Гагарин","route":"Смоленское направление","type":"null","distance":"null"},"geometry":{"type":"Point","coordinates":[34.9853956,55.5436927]}},{"type":"Feature","properties":{"marker-color":"#4e00ff","marker-size":"small","marker-symbol":"","name":"Мещёрская","route":"Смоленское направление","type":"null","distance":"null"},"geometry":{"type":"Point","coordinates":[34.4525583,55.3476042]}},{"type":"Feature","properties":{"marker-color":"#4e00ff","marker-size":"small","marker-symbol":"","name":"Туманово","route":"Смоленское направление","type":"null","distance":"null"},"geometry":{"type":"Point","coordinates":[34.644162,55.425516]}},{"type":"Feature","properties":{"marker-color":"#104888","marker-size":"small","marker-symbol":"","name":"Москва III","route":"Ярославское направление","type":"платформа","distance":2.78},"geometry":{"type":"Point","coordinates":[37.651619,55.80186]}},{"type":"Feature","properties":{"marker-color":"#104888","marker-size":"small","marker-symbol":"","name":"Маленковская","route":"Ярославское направление","type":"платформа","distance":4.34},"geometry":{"type":"Point","coordinates":[37.663009,55.8143]}},{"type":"Feature","properties":{"marker-color":"#104888","marker-size":"small","marker-symbol":"","name":"Яуза","route":"Ярославское направление","type":"платформа","distance":6.11},"geometry":{"type":"Point","coordinates":[37.671175,55.829365]}},{"type":"Feature","properties":{"marker-color":"#104888","marker-size":"small","marker-symbol":"","name":"Северянин","route":"Ярославское направление","type":"платформа","distance":7.43},"geometry":{"type":"Point","coordinates":[37.669935,55.84121]}},{"type":"Feature","properties":{"marker-color":"#104888","marker-size":"small","marker-symbol":"","name":"Лосиноостровская","route":"Ярославское направление","type":"платформа","distance":10},"geometry":{"type":"Point","coordinates":[37.6832963,55.8626483]}},{"type":"Feature","properties":{"marker-color":"#104888","marker-size":"small","marker-symbol":"","name":"Лось","route":"Ярославское направление","type":"платформа","distance":12.7},"geometry":{"type":"Point","coordinates":[37.711231,55.880455]}},{"type":"Feature","properties":{"marker-color":"#104888","marker-size":"small","marker-symbol":"","name":"Фрязино-Товарная","route":"Ярославское направление","type":null,"distance":null},"geometry":{"type":"Point","coordinates":[38.0304884,55.96335]}},{"type":"Feature","properties":{"marker-color":"#104888","marker-size":"small","marker-symbol":"","name":"Ивантеевка","route":"Ярославское направление","type":null,"distance":null},"geometry":{"type":"Point","coordinates":[37.9392583,55.9647907]}},{"type":"Feature","properties":{"marker-color":"#104888","marker-size":"small","marker-symbol":"","name":"Подлипки-Дачные","route":"Ярославское направление","type":"станция","distance":21.6},"geometry":{"type":"Point","coordinates":[37.8164469,55.9254758]}},{"type":"Feature","properties":{"marker-color":"#104888","marker-size":"small","marker-symbol":"","name":"Болшево","route":"Ярославское направление","type":"платформа","distance":24.6},"geometry":{"type":"Point","coordinates":[37.857575,55.930746]}},{"type":"Feature","properties":{"marker-color":"#104888","marker-size":"small","marker-symbol":"","name":"Валентиновка","route":"Ярославское направление","type":"платформа","distance":26.4},"geometry":{"type":"Point","coordinates":[37.891909,55.924941]}},{"type":"Feature","properties":{"marker-color":"#104888","marker-size":"small","marker-symbol":"","name":"Загорянская","route":"Ярославское направление","type":"платформа","distance":27.9},"geometry":{"type":"Point","coordinates":[37.916208,55.926459]}},{"type":"Feature","properties":{"marker-color":"#104888","marker-size":"small","marker-symbol":"","name":"Соколовская","route":"Ярославское направление","type":"станция","distance":29.8},"geometry":{"type":"Point","coordinates":[37.94579,55.927155]}},{"type":"Feature","properties":{"marker-color":"#104888","marker-size":"small","marker-symbol":"","name":"Воронок","route":"Ярославское направление","type":"платформа","distance":31.7},"geometry":{"type":"Point","coordinates":[37.973925,55.919115]}},{"type":"Feature","properties":{"marker-color":"#104888","marker-size":"small","marker-symbol":"","name":"Щёлково","route":"Ярославское направление","type":"станция","distance":34.3},"geometry":{"type":"Point","coordinates":[38.0093451,55.909255]}},{"type":"Feature","properties":{"marker-color":"#104888","marker-size":"small","marker-symbol":"","name":"Гагаринская","route":"Ярославское направление","type":"платформа","distance":36.1},"geometry":{"type":"Point","coordinates":[38.036259,55.906325]}},{"type":"Feature","properties":{"marker-color":"#104888","marker-size":"small","marker-symbol":"","name":"Чкаловская","route":"Ярославское направление","type":"станция","distance":38},"geometry":{"type":"Point","coordinates":[38.06311,55.897155]}},{"type":"Feature","properties":{"marker-color":"#104888","marker-size":"small","marker-symbol":"","name":"Циолковская","route":"Ярославское направление","type":"платформа","distance":42},"geometry":{"type":"Point","coordinates":[38.103094,55.870309]}},{"type":"Feature","properties":{"marker-color":"#104888","marker-size":"small","marker-symbol":"","name":"Бахчиванджи","route":"Ярославское направление","type":"платформа","distance":40.1},"geometry":{"type":"Point","coordinates":[38.0836,55.882636]}},{"type":"Feature","properties":{"marker-color":"#104888","marker-size":"small","marker-symbol":"","name":"Осеевская","route":"Ярославское направление","type":"платформа","distance":44.2},"geometry":{"type":"Point","coordinates":[38.135137,55.861348]}},{"type":"Feature","properties":{"marker-color":"#104888","marker-size":"small","marker-symbol":"","name":"Монино","route":"Ярославское направление","type":"станция","distance":48.6},"geometry":{"type":"Point","coordinates":[38.197588,55.843636]}},{"type":"Feature","properties":{"marker-color":"#104888","marker-size":"small","marker-symbol":"","name":"Бужаниново","route":"Ярославское направление","type":null,"distance":85.3},"geometry":{"type":"Point","coordinates":[38.307919,56.391888]}},{"type":"Feature","properties":{"marker-color":"#104888","marker-size":"small","marker-symbol":"","name":"Сергиев Посад","route":"Ярославское направление","type":null,"distance":70},"geometry":{"type":"Point","coordinates":[38.1364504,56.3019242]}},{"type":"Feature","properties":{"marker-color":"#104888","marker-size":"small","marker-symbol":"","name":"Пушкино","route":"Ярославское направление","type":null,"distance":29.7},"geometry":{"type":"Point","coordinates":[37.839503,56.0117969]}},{"type":"Feature","properties":{"marker-color":"#104888","marker-size":"small","marker-symbol":"","name":"Мытищи","route":"Ярославское направление","type":"станция","distance":17.8},"geometry":{"type":"Point","coordinates":[37.761518,55.914756]}},{"type":"Feature","properties":{"marker-color":"#104888","marker-size":"small","marker-symbol":"","name":"Хотьково","route":"Ярославское направление","type":null,"distance":59.1},"geometry":{"type":"Point","coordinates":[37.996779,56.256668]}},{"type":"Feature","properties":{"marker-color":"#104888","marker-size":"small","marker-symbol":"","name":"Софрино","route":"Ярославское направление","type":null,"distance":44.7},"geometry":{"type":"Point","coordinates":[37.9293982,56.1352064]}},{"type":"Feature","properties":{"marker-color":"#104888","marker-size":"small","marker-symbol":"","name":"43 км","route":"Ярославское направление","type":"платформа","distance":42.6},"geometry":{"type":"Point","coordinates":[38,55]}},{"type":"Feature","properties":{"marker-color":"#104888","marker-size":"small","marker-symbol":"","name":"90 км","route":"Ярославское направление","type":"платформа","distance":89.7},"geometry":{"type":"Point","coordinates":[38,55]}},{"type":"Feature","properties":{"marker-color":"#104888","marker-size":"small","marker-symbol":"","name":"Перловская","route":"Ярославское направление","type":"платформа","distance":14.4},"geometry":{"type":"Point","coordinates":[37.726295,55.89033]}},{"type":"Feature","properties":{"marker-color":"#104888","marker-size":"small","marker-symbol":"","name":"Тайнинская","route":"Ярославское направление","type":"платформа","distance":15.7},"geometry":{"type":"Point","coordinates":[37.742438,55.900996]}},{"type":"Feature","properties":{"marker-color":"#104888","marker-size":"small","marker-symbol":"","name":"Строитель","route":"Ярославское направление","type":"платформа","distance":20.1},"geometry":{"type":"Point","coordinates":[37.7828246,55.9324619]}},{"type":"Feature","properties":{"marker-color":"#104888","marker-size":"small","marker-symbol":"","name":"Челюскинская","route":"Ярославское направление","type":"платформа","distance":22.1},"geometry":{"type":"Point","coordinates":[37.7994491,55.9475735]}},{"type":"Feature","properties":{"marker-color":"#104888","marker-size":"small","marker-symbol":"","name":"Тарасовская","route":"Ярославское направление","type":"платформа","distance":23.9},"geometry":{"type":"Point","coordinates":[37.8088226,55.9623308]}},{"type":"Feature","properties":{"marker-color":"#104888","marker-size":"small","marker-symbol":"","name":"Клязьма","route":"Ярославское направление","type":"платформа","distance":25.8},"geometry":{"type":"Point","coordinates":[37.8346462,55.9661087]}},{"type":"Feature","properties":{"marker-color":"#104888","marker-size":"small","marker-symbol":"","name":"Мамонтовская","route":"Ярославское направление","type":"платформа","distance":27.7},"geometry":{"type":"Point","coordinates":[37.8268986,55.9923568]}},{"type":"Feature","properties":{"marker-color":"#104888","marker-size":"small","marker-symbol":"","name":"Заветы Ильича","route":"Ярославское направление","type":"платформа","distance":33},"geometry":{"type":"Point","coordinates":[37.854118,56.040085]}},{"type":"Feature","properties":{"marker-color":"#104888","marker-size":"small","marker-symbol":"","name":"Правда","route":"Ярославское направление","type":"платформа","distance":36},"geometry":{"type":"Point","coordinates":[37.867642,56.064993]}},{"type":"Feature","properties":{"marker-color":"#104888","marker-size":"small","marker-symbol":"","name":"Зеленоградская","route":"Ярославское направление","type":"платформа","distance":39.8},"geometry":{"type":"Point","coordinates":[37.900186,56.094249]}},{"type":"Feature","properties":{"marker-color":"#104888","marker-size":"small","marker-symbol":"","name":"Ашукинская","route":"Ярославское направление","type":"платформа","distance":47.8},"geometry":{"type":"Point","coordinates":[37.946536,56.1611727]}},{"type":"Feature","properties":{"marker-color":"#104888","marker-size":"small","marker-symbol":"","name":"Калистово","route":"Ярославское направление","type":"платформа","distance":51.2},"geometry":{"type":"Point","coordinates":[37.965751,56.19008]}},{"type":"Feature","properties":{"marker-color":"#104888","marker-size":"small","marker-symbol":"","name":"Радонеж","route":"Ярославское направление","type":"платформа","distance":54},"geometry":{"type":"Point","coordinates":[37.9764,56.213401]}},{"type":"Feature","properties":{"marker-color":"#104888","marker-size":"small","marker-symbol":"","name":"Абрамцево","route":"Ярославское направление","type":"платформа","distance":56.3},"geometry":{"type":"Point","coordinates":[37.9850011,56.232827]}},{"type":"Feature","properties":{"marker-color":"#104888","marker-size":"small","marker-symbol":"","name":"Семхоз","route":"Ярославское направление","type":"платформа","distance":65.4},"geometry":{"type":"Point","coordinates":[38.0774389,56.283136]}},{"type":"Feature","properties":{"marker-color":"#104888","marker-size":"small","marker-symbol":"","name":"76 км","route":"Ярославское направление","type":"платформа","distance":76.4},"geometry":{"type":"Point","coordinates":[38.202381,56.344088]}},{"type":"Feature","properties":{"marker-color":"#104888","marker-size":"small","marker-symbol":"","name":"Пост 81 км","route":"Ярославское направление","type":null,"distance":80.2},"geometry":{"type":"Point","coordinates":[38,55]}},{"type":"Feature","properties":{"marker-color":"#104888","marker-size":"small","marker-symbol":"","name":"83 км","route":"Ярославское направление","type":"платформа","distance":83},"geometry":{"type":"Point","coordinates":[38.2702969,56.385433]}},{"type":"Feature","properties":{"marker-color":"#104888","marker-size":"small","marker-symbol":"","name":"Посёлок Дальний","route":"Ярославское направление","type":"платформа","distance":1.1},"geometry":{"type":"Point","coordinates":[37.9580711,56.14163]}},{"type":"Feature","properties":{"marker-color":"#104888","marker-size":"small","marker-symbol":"","name":"Рахманово","route":"Ярославское направление","type":"платформа","distance":4.6},"geometry":{"type":"Point","coordinates":[37.998109,56.144019]}},{"type":"Feature","properties":{"marker-color":"#104888","marker-size":"small","marker-symbol":"","name":"Фёдоровское","route":"Ярославское направление","type":"платформа","distance":7.5},"geometry":{"type":"Point","coordinates":[38.0526621,56.139494]}},{"type":"Feature","properties":{"marker-color":"#104888","marker-size":"small","marker-symbol":"","name":"Путилово","route":"Ярославское направление","type":"платформа","distance":11.4},"geometry":{"type":"Point","coordinates":[38.095432,56.11551]}},{"type":"Feature","properties":{"marker-color":"#104888","marker-size":"small","marker-symbol":"","name":"Красноармейск","route":"Ярославское направление","type":null,"distance":14.6},"geometry":{"type":"Point","coordinates":[38.136168,56.108796]}},{"type":"Feature","properties":{"marker-color":"#104888","marker-size":"small","marker-symbol":"","name":"Софрино-2","route":"Ярославское направление","type":"платформа","distance":null},"geometry":{"type":"Point","coordinates":[37.9293982,56.1352064]}},{"type":"Feature","properties":{"marker-color":"#104888","marker-size":"small","marker-symbol":"","name":"81 км","route":"Ярославское направление","type":"платформа","distance":79.7},"geometry":{"type":"Point","coordinates":[38,55]}},{"type":"Feature","properties":{"marker-color":"#104888","marker-size":"small","marker-symbol":"","name":"Зелёный бор","route":"Ярославское направление","type":"null","distance":"null"},"geometry":{"type":"Point","coordinates":[37.8787356,55.9629855]}},{"type":"Feature","properties":{"marker-color":"#104888","marker-size":"small","marker-symbol":"","name":"Александров","route":"Ярославское направление","type":"null","distance":"null"},"geometry":{"type":"Point","coordinates":[38.70316028594971,56.39713702124057]}},{"type":"Feature","properties":{"marker-color":"#104888","marker-size":"small","marker-symbol":"","name":"Струнино","route":"Ярославское направление","type":"null","distance":"null"},"geometry":{"type":"Point","coordinates":[38.587589263916016,56.37884453168222]}},{"type":"Feature","properties":{"marker-color":"#104888","marker-size":"small","marker-symbol":"","name":"Арсаки","route":"Ярославское направление","type":"null","distance":"null"},"geometry":{"type":"Point","coordinates":[38.459787368774414,56.383145244484325]}},{"type":"Feature","properties":{"marker-color":"#104888","marker-size":"small","marker-symbol":"","name":"Детская","route":"Ярославское направление","type":"null","distance":"null"},"geometry":{"type":"Point","coordinates":[37.9619455,55.9681495]}},{"type":"Feature","properties":{"marker-color":"#104888","marker-size":"small","marker-symbol":"","name":"Балакирево","route":"Ярославское направление","type":"null","distance":"null"},"geometry":{"type":"Point","coordinates":[38.8502407,56.5075473]}},{"type":"Feature","properties":{"marker-color":"#60c2ff","marker-size":"small","marker-symbol":"","name":"Лесной Городок","route":"Киевское направление","type":null,"distance":27.5},"geometry":{"type":"Point","coordinates":[37.2179785,55.6302583]}},{"type":"Feature","properties":{"marker-color":"#60c2ff","marker-size":"small","marker-symbol":"","name":"Латышская","route":"Киевское направление","type":null,"distance":74.3},"geometry":{"type":"Point","coordinates":[37.5667304,55.7430872]}},{"type":"Feature","properties":{"marker-color":"#60c2ff","marker-size":"small","marker-symbol":"","name":"Апрелевка","route":"Киевское направление","type":null,"distance":41.2},"geometry":{"type":"Point","coordinates":[37.0669781,55.550465]}},{"type":"Feature","properties":{"marker-color":"#60c2ff","marker-size":"small","marker-symbol":"","name":"Селятино","route":"Киевское направление","type":null,"distance":48.9},"geometry":{"type":"Point","coordinates":[36.9663101,55.5160714]}},{"type":"Feature","properties":{"marker-color":"#60c2ff","marker-size":"small","marker-symbol":"","name":"Нара","route":"Киевское направление","type":null,"distance":69.5},"geometry":{"type":"Point","coordinates":[36.751279,55.383258]}},{"type":"Feature","properties":{"marker-color":"#60c2ff","marker-size":"small","marker-symbol":"","name":"Победа","route":"Киевское направление","type":"платформа","distance":38.7},"geometry":{"type":"Point","coordinates":[37.5050052,55.730932]}},{"type":"Feature","properties":{"marker-color":"#60c2ff","marker-size":"small","marker-symbol":"","name":"Дачная","route":"Киевское направление","type":"платформа","distance":43.4},"geometry":{"type":"Point","coordinates":[37.036765,55.540635]}},{"type":"Feature","properties":{"marker-color":"#60c2ff","marker-size":"small","marker-symbol":"","name":"Алабино","route":"Киевское направление","type":"платформа","distance":47},"geometry":{"type":"Point","coordinates":[36.9909679,55.528242]}},{"type":"Feature","properties":{"marker-color":"#60c2ff","marker-size":"small","marker-symbol":"","name":"Зосимова Пустынь","route":"Киевское направление","type":"платформа","distance":63.8},"geometry":{"type":"Point","coordinates":[36.8150161,55.415347]}},{"type":"Feature","properties":{"marker-color":"#60c2ff","marker-size":"small","marker-symbol":"","name":"Башкино","route":"Киевское направление","type":"платформа","distance":79.5},"geometry":{"type":"Point","coordinates":[37.5667304,55.7430872]}},{"type":"Feature","properties":{"marker-color":"#60c2ff","marker-size":"small","marker-symbol":"","name":"Суходрев","route":"Киевское направление","type":"null","distance":"null"},"geometry":{"type":"Point","coordinates":[36.3195335,54.8067462]}},{"type":"Feature","properties":{"marker-color":"#60c2ff","marker-size":"small","marker-symbol":"","name":"Муратовка","route":"Киевское направление","type":"null","distance":"null"},"geometry":{"type":"Point","coordinates":[36.1562289,54.6192681]}},{"type":"Feature","properties":{"marker-color":"#60c2ff","marker-size":"small","marker-symbol":"","name":"Калуга-1","route":"Киевское направление","type":"null","distance":"null"},"geometry":{"type":"Point","coordinates":[36.2789481,54.5334818]}},{"type":"Feature","properties":{"marker-color":"#60c2ff","marker-size":"small","marker-symbol":"","name":"Балабаново","route":"Киевское направление","type":"null","distance":"null"},"geometry":{"type":"Point","coordinates":[36.6624304,55.1788955]}},{"type":"Feature","properties":{"marker-color":"#60c2ff","marker-size":"small","marker-symbol":"","name":"Малоярославец","route":"Киевское направление","type":"null","distance":"null"},"geometry":{"type":"Point","coordinates":[36.4809201,55.007735]}},{"type":"Feature","properties":{"marker-color":"#60c2ff","marker-size":"small","marker-symbol":"","name":"Шемякино","route":"Киевское направление","type":"null","distance":"null"},"geometry":{"type":"Point","coordinates":[36.5534027,55.0535374]}},{"type":"Feature","properties":{"marker-color":"#60c2ff","marker-size":"small","marker-symbol":"","name":"Ерденево","route":"Киевское направление","type":"null","distance":"null"},"geometry":{"type":"Point","coordinates":[36.391103,54.9240804]}},{"type":"Feature","properties":{"marker-color":"#60c2ff","marker-size":"small","marker-symbol":"","name":"Горенская","route":"Киевское направление","type":"null","distance":"null"},"geometry":{"type":"Point","coordinates":[36.1382747,54.6115041]}},{"type":"Feature","properties":{"marker-color":"#60c2ff","marker-size":"small","marker-symbol":"","name":"Ворсино","route":"Киевское направление","type":"null","distance":"null"},"geometry":{"type":"Point","coordinates":[36.6678618,55.2409837]}},{"type":"Feature","properties":{"marker-color":"#60c2ff","marker-size":"small","marker-symbol":"","name":"Калуга II","route":"Киевское направление","type":"null","distance":"null"},"geometry":{"type":"Point","coordinates":[36.1276099,54.5392105]}},{"type":"Feature","properties":{"marker-color":"#60c2ff","marker-size":"small","marker-symbol":"","name":"Обнинское","route":"Киевское направление","type":"null","distance":"null"},"geometry":{"type":"Point","coordinates":[36.6182042,55.0921669]}},{"type":"Feature","properties":{"marker-color":"#60c2ff","marker-size":"small","marker-symbol":"","name":"Тихонова Пустынь","route":"Киевское направление","type":"null","distance":"null"},"geometry":{"type":"Point","coordinates":[36.1520061,54.6404797]}},{"type":"Feature","properties":{"marker-color":"#00ffb1","marker-size":"small","marker-symbol":"","name":"Кривандино","route":"Казанское направление","type":null,"distance":136.4},"geometry":{"type":"Point","coordinates":[39.688389,55.558746]}},{"type":"Feature","properties":{"marker-color":"#00ffb1","marker-size":"small","marker-symbol":"","name":"Гжель","route":"Казанское направление","type":null,"distance":57.3},"geometry":{"type":"Point","coordinates":[38.4477199,55.60881]}},{"type":"Feature","properties":{"marker-color":"#00ffb1","marker-size":"small","marker-symbol":"","name":"Шатура","route":"Казанское направление","type":null,"distance":125.9},"geometry":{"type":"Point","coordinates":[39.5209712,55.5731148]}},{"type":"Feature","properties":{"marker-color":"#00ffb1","marker-size":"small","marker-symbol":"","name":"Авсюнино","route":"Казанское направление","type":null,"distance":99.9},"geometry":{"type":"Point","coordinates":[39.114948,55.559769]}},{"type":"Feature","properties":{"marker-color":"#00ffb1","marker-size":"small","marker-symbol":"","name":"Черусти","route":"Казанское направление","type":null,"distance":157.3},"geometry":{"type":"Point","coordinates":[40.0049576,55.5425717]}},{"type":"Feature","properties":{"marker-color":"#00ffb1","marker-size":"small","marker-symbol":"","name":"Люберцы 1","route":"Казанское направление","type":null,"distance":null},"geometry":{"type":"Point","coordinates":[37.8974801,55.6826626]}},{"type":"Feature","properties":{"marker-color":"#00ffb1","marker-size":"small","marker-symbol":"","name":"Люберцы 2","route":"Казанское направление","type":null,"distance":null},"geometry":{"type":"Point","coordinates":[37.9334926,55.6726335]}},{"type":"Feature","properties":{"marker-color":"#00ffb1","marker-size":"small","marker-symbol":"","name":"Коренёво","route":"Казанское направление","type":"платформа","distance":27.7},"geometry":{"type":"Point","coordinates":[38.00077,55.6681106]}},{"type":"Feature","properties":{"marker-color":"#00ffb1","marker-size":"small","marker-symbol":"","name":"Овражки","route":"Казанское направление","type":null,"distance":30},"geometry":{"type":"Point","coordinates":[38.0335382,55.6646941]}},{"type":"Feature","properties":{"marker-color":"#00ffb1","marker-size":"small","marker-symbol":"","name":"Родники","route":"Казанское направление","type":"платформа","distance":33},"geometry":{"type":"Point","coordinates":[38.0678813,55.6558743]}},{"type":"Feature","properties":{"marker-color":"#00ffb1","marker-size":"small","marker-symbol":"","name":"Вялки","route":"Казанское направление","type":"платформа","distance":35.2},"geometry":{"type":"Point","coordinates":[38.111721,55.648151]}},{"type":"Feature","properties":{"marker-color":"#00ffb1","marker-size":"small","marker-symbol":"","name":"Хрипань","route":"Казанское направление","type":"платформа","distance":39.3},"geometry":{"type":"Point","coordinates":[38.17651,55.638771]}},{"type":"Feature","properties":{"marker-color":"#00ffb1","marker-size":"small","marker-symbol":"","name":"41 км","route":"Казанское направление","type":"платформа","distance":41},"geometry":{"type":"Point","coordinates":[38,55]}},{"type":"Feature","properties":{"marker-color":"#00ffb1","marker-size":"small","marker-symbol":"","name":"Донино","route":"Казанское направление","type":"платформа","distance":46.5},"geometry":{"type":"Point","coordinates":[38.2764701,55.636063]}},{"type":"Feature","properties":{"marker-color":"#00ffb1","marker-size":"small","marker-symbol":"","name":"49 км","route":"Казанское направление","type":"платформа","distance":48.3},"geometry":{"type":"Point","coordinates":[38.314097,55.628739]}},{"type":"Feature","properties":{"marker-color":"#00ffb1","marker-size":"small","marker-symbol":"","name":"52 км","route":"Казанское направление","type":"платформа","distance":50.8},"geometry":{"type":"Point","coordinates":[38.350513,55.627932]}},{"type":"Feature","properties":{"marker-color":"#00ffb1","marker-size":"small","marker-symbol":"","name":"Григорово","route":"Казанское направление","type":"платформа","distance":53.1},"geometry":{"type":"Point","coordinates":[38.3895421,55.625805]}},{"type":"Feature","properties":{"marker-color":"#00ffb1","marker-size":"small","marker-symbol":"","name":"55 км","route":"Казанское направление","type":"платформа","distance":55},"geometry":{"type":"Point","coordinates":[38.4153417,55.6143149]}},{"type":"Feature","properties":{"marker-color":"#00ffb1","marker-size":"small","marker-symbol":"","name":"Игнатьево","route":"Казанское направление","type":"платформа","distance":61},"geometry":{"type":"Point","coordinates":[38.5047851,55.603731]}},{"type":"Feature","properties":{"marker-color":"#00ffb1","marker-size":"small","marker-symbol":"","name":"Кузяево","route":"Казанское направление","type":"платформа","distance":63.4},"geometry":{"type":"Point","coordinates":[38.545559,55.603981]}},{"type":"Feature","properties":{"marker-color":"#00ffb1","marker-size":"small","marker-symbol":"","name":"Шевлягино","route":"Казанское направление","type":"платформа","distance":67.8},"geometry":{"type":"Point","coordinates":[38.6105865,55.5994689]}},{"type":"Feature","properties":{"marker-color":"#00ffb1","marker-size":"small","marker-symbol":"","name":"Анциферово","route":"Казанское направление","type":"платформа","distance":77},"geometry":{"type":"Point","coordinates":[38.755867,55.581745]}},{"type":"Feature","properties":{"marker-color":"#00ffb1","marker-size":"small","marker-symbol":"","name":"Подосинки","route":"Казанское направление","type":"платформа","distance":81.7},"geometry":{"type":"Point","coordinates":[38.8245701,55.57193]}},{"type":"Feature","properties":{"marker-color":"#00ffb1","marker-size":"small","marker-symbol":"","name":"95 км","route":"Казанское направление","type":"платформа","distance":94.8},"geometry":{"type":"Point","coordinates":[38,55]}},{"type":"Feature","properties":{"marker-color":"#00ffb1","marker-size":"small","marker-symbol":"","name":"Заполицы","route":"Казанское направление","type":"платформа","distance":107},"geometry":{"type":"Point","coordinates":[39.2227629,55.56963]}},{"type":"Feature","properties":{"marker-color":"#00ffb1","marker-size":"small","marker-symbol":"","name":"Запутная","route":"Казанское направление","type":"платформа","distance":112.2},"geometry":{"type":"Point","coordinates":[39.3034479,55.572552]}},{"type":"Feature","properties":{"marker-color":"#00ffb1","marker-size":"small","marker-symbol":"","name":"Шатурторф","route":"Казанское направление","type":"платформа","distance":118.9},"geometry":{"type":"Point","coordinates":[39.4090791,55.57257]}},{"type":"Feature","properties":{"marker-color":"#00ffb1","marker-size":"small","marker-symbol":"","name":"Ботино","route":"Казанское направление","type":"платформа","distance":131.3},"geometry":{"type":"Point","coordinates":[39.6002749,55.565513]}},{"type":"Feature","properties":{"marker-color":"#00ffb1","marker-size":"small","marker-symbol":"","name":"Туголесье","route":"Казанское направление","type":"платформа","distance":143.5},"geometry":{"type":"Point","coordinates":[39.7959789,55.564268]}},{"type":"Feature","properties":{"marker-color":"#00ffb1","marker-size":"small","marker-symbol":"","name":"Воймежный","route":"Казанское направление","type":"платформа","distance":147.5},"geometry":{"type":"Point","coordinates":[39.860626,55.56522]}},{"type":"Feature","properties":{"marker-color":"#00ffb1","marker-size":"small","marker-symbol":"","name":"Струя","route":"Казанское направление","type":"платформа","distance":164.9},"geometry":{"type":"Point","coordinates":[38,55]}},{"type":"Feature","properties":{"marker-color":"#00ffb1","marker-size":"small","marker-symbol":"","name":"Ухтомская","route":"Казанское направление","type":"платформа","distance":17.9},"geometry":{"type":"Point","coordinates":[37.864231,55.698597]}},{"type":"Feature","properties":{"marker-color":"#00ffb1","marker-size":"small","marker-symbol":"","name":"Люберцы I","route":"Казанское направление","type":null,"distance":20.7},"geometry":{"type":"Point","coordinates":[37.8974801,55.6826626]}},{"type":"Feature","properties":{"marker-color":"#00ffb1","marker-size":"small","marker-symbol":"","name":"Яничкино","route":"Казанское направление","type":null,"distance":5},"geometry":{"type":"Point","coordinates":[38,55]}},{"type":"Feature","properties":{"marker-color":"#00ffb1","marker-size":"small","marker-symbol":"","name":"Разъезд 2 км","route":"Казанское направление","type":null,"distance":null},"geometry":{"type":"Point","coordinates":[38,55]}},{"type":"Feature","properties":{"marker-color":"#00ffb1","marker-size":"small","marker-symbol":"","name":"Заводская","route":"Казанское направление","type":null,"distance":null},"geometry":{"type":"Point","coordinates":[38,55]}},{"type":"Feature","properties":{"marker-color":"#00ffb1","marker-size":"small","marker-symbol":"","name":"Люберцы II","route":"Казанское направление","type":null,"distance":23.7},"geometry":{"type":"Point","coordinates":[37.9334926,55.6726335]}},{"type":"Feature","properties":{"marker-color":"#00ffb1","marker-size":"small","marker-symbol":"","name":"73 км","route":"Казанское направление","type":"платформа","distance":73},"geometry":{"type":"Point","coordinates":[38,55]}},{"type":"Feature","properties":{"marker-color":"#00ffb1","marker-size":"small","marker-symbol":"","name":"Куровская","route":"Казанское направление","type":null,"distance":87.8},"geometry":{"type":"Point","coordinates":[38.9213153,55.5731413]}},{"type":"Feature","properties":{"marker-color":"#00ffb1","marker-size":"small","marker-symbol":"","name":"90 км","route":"Казанское направление","type":"платформа","distance":90.5},"geometry":{"type":"Point","coordinates":[38,55]}},{"type":"Feature","properties":{"marker-color":"#00ffb1","marker-size":"small","marker-symbol":"","name":"Шатура ГРЭС","route":"Казанское направление","type":null,"distance":null},"geometry":{"type":"Point","coordinates":[39.5209712,55.5731148]}},{"type":"Feature","properties":{"marker-color":"#00ffb1","marker-size":"small","marker-symbol":"","name":"Осаново","route":"Казанское направление","type":"платформа","distance":12},"geometry":{"type":"Point","coordinates":[38,55]}},{"type":"Feature","properties":{"marker-color":"#00ffb1","marker-size":"small","marker-symbol":"","name":"15 км","route":"Казанское направление","type":"платформа","distance":14},"geometry":{"type":"Point","coordinates":[38,55]}},{"type":"Feature","properties":{"marker-color":"#00ffb1","marker-size":"small","marker-symbol":"","name":"Пожога","route":"Казанское направление","type":"платформа","distance":21},"geometry":{"type":"Point","coordinates":[38,55]}},{"type":"Feature","properties":{"marker-color":"#00ffb1","marker-size":"small","marker-symbol":"","name":"29 км","route":"Казанское направление","type":"платформа","distance":29},"geometry":{"type":"Point","coordinates":[38,55]}},{"type":"Feature","properties":{"marker-color":"#00ffb1","marker-size":"small","marker-symbol":"","name":"Бармино","route":"Казанское направление","type":"платформа","distance":37},"geometry":{"type":"Point","coordinates":[45.5120652,56.1067713]}},{"type":"Feature","properties":{"marker-color":"#00ffb1","marker-size":"small","marker-symbol":"","name":"Сазоново","route":"Казанское направление","type":"платформа","distance":41},"geometry":{"type":"Point","coordinates":[35.2188261,59.0995416]}},{"type":"Feature","properties":{"marker-color":"#00ffb1","marker-size":"small","marker-symbol":"","name":"47 км","route":"Казанское направление","type":"Остановочный пункт","distance":47},"geometry":{"type":"Point","coordinates":[38,55]}},{"type":"Feature","properties":{"marker-color":"#00ffb1","marker-size":"small","marker-symbol":"","name":"Рязановка","route":"Казанское направление","type":null,"distance":53},"geometry":{"type":"Point","coordinates":[39.557796,55.147148]}},{"type":"Feature","properties":{"marker-color":"#00ffb1","marker-size":"small","marker-symbol":"","name":"Примыкание-Черусти","route":"Казанское направление","type":null,"distance":null},"geometry":{"type":"Point","coordinates":[40.0049576,55.5425717]}},{"type":"Feature","properties":{"marker-color":"#00ffb1","marker-size":"small","marker-symbol":"","name":"Рошаль","route":"Казанское направление","type":null,"distance":null},"geometry":{"type":"Point","coordinates":[38,55]}},{"type":"Feature","properties":{"marker-color":"#00ffb1","marker-size":"small","marker-symbol":"","name":"Станция примыкания Черусти","route":"Казанское направление","type":null,"distance":null},"geometry":{"type":"Point","coordinates":[40.0049576,55.5425717]}},{"type":"Feature","properties":{"marker-color":"#00ffb1","marker-size":"small","marker-symbol":"","name":"Нечаевская","route":"Казанское направление","type":"null","distance":"null"},"geometry":{"type":"Point","coordinates":[40.5988207,55.502016]}},{"type":"Feature","properties":{"marker-color":"#00ffb1","marker-size":"small","marker-symbol":"","name":"Ильичёв","route":"Казанское направление","type":"null","distance":"null"},"geometry":{"type":"Point","coordinates":[40.2992546,55.5009312]}},{"type":"Feature","properties":{"marker-color":"#00ffb1","marker-size":"small","marker-symbol":"","name":"Торфопродукт","route":"Казанское направление","type":"null","distance":"null"},"geometry":{"type":"Point","coordinates":[40.4046123,55.4745421]}},{"type":"Feature","properties":{"marker-color":"#00ffb1","marker-size":"small","marker-symbol":"","name":"Вековка","route":"Казанское направление","type":"null","distance":"null"},"geometry":{"type":"Point","coordinates":[40.8038727,55.4997026]}},{"type":"Feature","properties":{"marker-color":"#00ffb1","marker-size":"small","marker-symbol":"","name":"Тасин","route":"Казанское направление","type":"","distance":null},"geometry":{"type":"Point","coordinates":[40.19210815429687,55.51621645469393]}},{"type":"Feature","properties":{"marker-color":"#00ffb1","marker-size":"small","marker-symbol":"","name":"Мильцево","route":"Казанское направление","type":"","distance":null},"geometry":{"type":"Point","coordinates":[40.47414779663086,55.483328194191756]}},{"type":"Feature","properties":{"marker-color":"#178431","marker-size":"small","marker-symbol":"","name":"Киржач","route":"Большое кольцо Московской железной дороги","type":null,"distance":null},"geometry":{"type":"Point","coordinates":[38.8461845,56.151506]}},{"type":"Feature","properties":{"marker-color":"#178431","marker-size":"small","marker-symbol":"","name":"Поточино","route":"Большое кольцо Московской железной дороги","type":null,"distance":183.1},"geometry":{"type":"Point","coordinates":[39.022846,55.8498]}},{"type":"Feature","properties":{"marker-color":"#178431","marker-size":"small","marker-symbol":"","name":"Дулёво","route":"Большое кольцо Московской железной дороги","type":null,"distance":117.2},"geometry":{"type":"Point","coordinates":[38.946509,55.710854]}},{"type":"Feature","properties":{"marker-color":"#178431","marker-size":"small","marker-symbol":"","name":"Орехово-Зуево","route":"Большое кольцо Московской железной дороги","type":null,"distance":126.7},"geometry":{"type":"Point","coordinates":[38.9752345,55.7954164]}},{"type":"Feature","properties":{"marker-color":"#178431","marker-size":"small","marker-symbol":"","name":"Давыдово","route":"Большое кольцо Московской железной дороги","type":null,"distance":104.6},"geometry":{"type":"Point","coordinates":[38.878506,55.610405]}},{"type":"Feature","properties":{"marker-color":"#178431","marker-size":"small","marker-symbol":"","name":"Ильинский Погост","route":"Большое кольцо Московской железной дороги","type":null,"distance":89.1},"geometry":{"type":"Point","coordinates":[38.917223,55.478169]}},{"type":"Feature","properties":{"marker-color":"#178431","marker-size":"small","marker-symbol":"","name":"Нерская","route":"Большое кольцо Московской железной дороги","type":null,"distance":97.8},"geometry":{"type":"Point","coordinates":[38.877252,55.553652]}},{"type":"Feature","properties":{"marker-color":"#178431","marker-size":"small","marker-symbol":"","name":"Куровская","route":"Большое кольцо Московской железной дороги","type":null,"distance":87.8},"geometry":{"type":"Point","coordinates":[38.9213153,55.5731413]}},{"type":"Feature","properties":{"marker-color":"#178431","marker-size":"small","marker-symbol":"","name":"Депо","route":"Большое кольцо Московской железной дороги","type":"платформа","distance":124.9},"geometry":{"type":"Point","coordinates":[37.7284049,55.674248]}},{"type":"Feature","properties":{"marker-color":"#178431","marker-size":"small","marker-symbol":"","name":"173 км","route":"Большое кольцо Московской железной дороги","type":"платформа","distance":173},"geometry":{"type":"Point","coordinates":[39.0035,55.93344]}},{"type":"Feature","properties":{"marker-color":"#178431","marker-size":"small","marker-symbol":"","name":"178 км","route":"Большое кольцо Московской железной дороги","type":"платформа","distance":179.1},"geometry":{"type":"Point","coordinates":[38,55]}},{"type":"Feature","properties":{"marker-color":"#178431","marker-size":"small","marker-symbol":"","name":"185 км","route":"Большое кольцо Московской железной дороги","type":"платформа","distance":null},"geometry":{"type":"Point","coordinates":[38,55]}},{"type":"Feature","properties":{"marker-color":"#178431","marker-size":"small","marker-symbol":"","name":"Северный блокпост","route":"Большое кольцо Московской железной дороги","type":"платформа","distance":null},"geometry":{"type":"Point","coordinates":[38,55]}},{"type":"Feature","properties":{"marker-color":"#178431","marker-size":"small","marker-symbol":"","name":"Центральный блокпост","route":"Большое кольцо Московской железной дороги","type":"платформа","distance":null},"geometry":{"type":"Point","coordinates":[38,55]}},{"type":"Feature","properties":{"marker-color":"#178431","marker-size":"small","marker-symbol":"","name":"122 км","route":"Большое кольцо Московской железной дороги","type":"платформа","distance":122.7},"geometry":{"type":"Point","coordinates":[38,55]}},{"type":"Feature","properties":{"marker-color":"#178431","marker-size":"small","marker-symbol":"","name":"32 км","route":"Большое кольцо Московской железной дороги","type":"платформа","distance":31.8},"geometry":{"type":"Point","coordinates":[37.747497,55.472945]}},{"type":"Feature","properties":{"marker-color":"#178431","marker-size":"small","marker-symbol":"","name":"Егорьевск","route":"Большое кольцо Московской железной дороги","type":"станция","distance":null},"geometry":{"type":"Point","coordinates":[39.0323223,55.3851413]}},{"type":"Feature","properties":{"marker-color":"#178431","marker-size":"small","marker-symbol":"","name":"Тупик 13 км / Рудниковская","route":"Большое кольцо Московской железной дороги","type":"платформа","distance":null},"geometry":{"type":"Point","coordinates":[38.8889268,55.3389675]}},{"type":"Feature","properties":{"marker-color":"#178431","marker-size":"small","marker-symbol":"","name":"Хорлово","route":"Большое кольцо Московской железной дороги","type":"платформа","distance":8.3},"geometry":{"type":"Point","coordinates":[38.8842656,55.3315791]}},{"type":"Feature","properties":{"marker-color":"#178431","marker-size":"small","marker-symbol":"","name":"90 км","route":"Большое кольцо Московской железной дороги","type":"платформа","distance":20},"geometry":{"type":"Point","coordinates":[38,55]}},{"type":"Feature","properties":{"marker-color":"#178431","marker-size":"small","marker-symbol":"","name":"Бужаниново","route":"Большое кольцо Московской железной дороги","type":null,"distance":26.1},"geometry":{"type":"Point","coordinates":[38.307919,56.391888]}},{"type":"Feature","properties":{"marker-color":"#178431","marker-size":"small","marker-symbol":"","name":"83 км","route":"Большое кольцо Московской железной дороги","type":"платформа","distance":29.7},"geometry":{"type":"Point","coordinates":[38.2702969,56.385433]}},{"type":"Feature","properties":{"marker-color":"#178431","marker-size":"small","marker-symbol":"","name":"Пост 81 км","route":"Большое кольцо Московской железной дороги","type":null,"distance":31.2},"geometry":{"type":"Point","coordinates":[38,55]}},{"type":"Feature","properties":{"marker-color":"#178431","marker-size":"small","marker-symbol":"","name":"81 км","route":"Большое кольцо Московской железной дороги","type":"платформа","distance":31.7},"geometry":{"type":"Point","coordinates":[38,55]}},{"type":"Feature","properties":{"marker-color":"#178431","marker-size":"small","marker-symbol":"","name":"Наугольный","route":"Большое кольцо Московской железной дороги","type":null,"distance":35.8},"geometry":{"type":"Point","coordinates":[38.178692,56.359792]}},{"type":"Feature","properties":{"marker-color":"#178431","marker-size":"small","marker-symbol":"","name":"39 км","route":"Большое кольцо Московской железной дороги","type":"платформа","distance":39.3},"geometry":{"type":"Point","coordinates":[30.444777,60.272062]}},{"type":"Feature","properties":{"marker-color":"#178431","marker-size":"small","marker-symbol":"","name":"Бубяково","route":"Большое кольцо Московской железной дороги","type":"платформа","distance":42.8},"geometry":{"type":"Point","coordinates":[38.071722,56.343476]}},{"type":"Feature","properties":{"marker-color":"#178431","marker-size":"small","marker-symbol":"","name":"47 км","route":"Большое кольцо Московской железной дороги","type":"платформа","distance":46.6},"geometry":{"type":"Point","coordinates":[38,55]}},{"type":"Feature","properties":{"marker-color":"#178431","marker-size":"small","marker-symbol":"","name":"Жёлтиково","route":"Большое кольцо Московской железной дороги","type":null,"distance":53},"geometry":{"type":"Point","coordinates":[37.941951,56.297872]}},{"type":"Feature","properties":{"marker-color":"#178431","marker-size":"small","marker-symbol":"","name":"61 км","route":"Большое кольцо Московской железной дороги","type":"платформа","distance":61.5},"geometry":{"type":"Point","coordinates":[38,55]}},{"type":"Feature","properties":{"marker-color":"#178431","marker-size":"small","marker-symbol":"","name":"Костино","route":"Большое кольцо Московской железной дороги","type":null,"distance":63.9},"geometry":{"type":"Point","coordinates":[37.781771,56.29276]}},{"type":"Feature","properties":{"marker-color":"#178431","marker-size":"small","marker-symbol":"","name":"69 км","route":"Большое кольцо Московской железной дороги","type":"платформа","distance":69.1},"geometry":{"type":"Point","coordinates":[30.238047,60.508533]}},{"type":"Feature","properties":{"marker-color":"#178431","marker-size":"small","marker-symbol":"","name":"71 км","route":"Большое кольцо Московской железной дороги","type":"платформа","distance":70.9},"geometry":{"type":"Point","coordinates":[38,55]}},{"type":"Feature","properties":{"marker-color":"#178431","marker-size":"small","marker-symbol":"","name":"74 км","route":"Большое кольцо Московской железной дороги","type":"платформа","distance":73.7},"geometry":{"type":"Point","coordinates":[38,55]}},{"type":"Feature","properties":{"marker-color":"#178431","marker-size":"small","marker-symbol":"","name":"Драчёво","route":"Большое кольцо Московской железной дороги","type":"платформа","distance":76.2},"geometry":{"type":"Point","coordinates":[37.6256159,56.3014627]}},{"type":"Feature","properties":{"marker-color":"#178431","marker-size":"small","marker-symbol":"","name":"80 км","route":"Большое кольцо Московской железной дороги","type":"платформа","distance":80.5},"geometry":{"type":"Point","coordinates":[38,55]}},{"type":"Feature","properties":{"marker-color":"#178431","marker-size":"small","marker-symbol":"","name":"Иванцево","route":"Большое кольцо Московской железной дороги","type":null,"distance":83.7},"geometry":{"type":"Point","coordinates":[37.54919,56.319212]}},{"type":"Feature","properties":{"marker-color":"#178431","marker-size":"small","marker-symbol":"","name":"Дмитров","route":"Большое кольцо Московской железной дороги","type":null,"distance":88},"geometry":{"type":"Point","coordinates":[37.5110011,56.337567]}},{"type":"Feature","properties":{"marker-color":"#178431","marker-size":"small","marker-symbol":"","name":"Яхрома","route":"Большое кольцо Московской железной дороги","type":null,"distance":91.3},"geometry":{"type":"Point","coordinates":[37.502728,56.286544]}},{"type":"Feature","properties":{"marker-color":"#178431","marker-size":"small","marker-symbol":"","name":"Турист","route":"Большое кольцо Московской железной дороги","type":"платформа","distance":96.7},"geometry":{"type":"Point","coordinates":[37.5124527,56.243512]}},{"type":"Feature","properties":{"marker-color":"#178431","marker-size":"small","marker-symbol":"","name":"Морозки","route":"Большое кольцо Московской железной дороги","type":"платформа","distance":100.9},"geometry":{"type":"Point","coordinates":[37.526844,56.207375]}},{"type":"Feature","properties":{"marker-color":"#178431","marker-size":"small","marker-symbol":"","name":"Икша","route":"Большое кольцо Московской железной дороги","type":null,"distance":105.1},"geometry":{"type":"Point","coordinates":[37.510275,56.171879]}},{"type":"Feature","properties":{"marker-color":"#178431","marker-size":"small","marker-symbol":"","name":"109 км","route":"Большое кольцо Московской железной дороги","type":"платформа","distance":108.8},"geometry":{"type":"Point","coordinates":[36.066543,55.494296]}},{"type":"Feature","properties":{"marker-color":"#178431","marker-size":"small","marker-symbol":"","name":"Белый Раст","route":"Большое кольцо Московской железной дороги","type":null,"distance":112.4},"geometry":{"type":"Point","coordinates":[37.460278,56.125953]}},{"type":"Feature","properties":{"marker-color":"#178431","marker-size":"small","marker-symbol":"","name":"115 км","route":"Большое кольцо Московской железной дороги","type":"платформа","distance":114.7},"geometry":{"type":"Point","coordinates":[38,55]}},{"type":"Feature","properties":{"marker-color":"#178431","marker-size":"small","marker-symbol":"","name":"120 км","route":"Большое кольцо Московской железной дороги","type":"платформа","distance":119.2},"geometry":{"type":"Point","coordinates":[38,55]}},{"type":"Feature","properties":{"marker-color":"#178431","marker-size":"small","marker-symbol":"","name":"Бухарово","route":"Большое кольцо Московской железной дороги","type":"платформа","distance":125},"geometry":{"type":"Point","coordinates":[37.1883076,56.0904068]}},{"type":"Feature","properties":{"marker-color":"#178431","marker-size":"small","marker-symbol":"","name":"128 км","route":"Большое кольцо Московской железной дороги","type":"платформа","distance":127.7},"geometry":{"type":"Point","coordinates":[38,55]}},{"type":"Feature","properties":{"marker-color":"#178431","marker-size":"small","marker-symbol":"","name":"Поварово II","route":"Большое кольцо Московской железной дороги","type":null,"distance":137.2},"geometry":{"type":"Point","coordinates":[37.11286,56.0743339]}},{"type":"Feature","properties":{"marker-color":"#178431","marker-size":"small","marker-symbol":"","name":"Пост 142 км","route":"Большое кольцо Московской железной дороги","type":"платформа","distance":141.8},"geometry":{"type":"Point","coordinates":[37.076331,56.059096]}},{"type":"Feature","properties":{"marker-color":"#178431","marker-size":"small","marker-symbol":"","name":"Поварово III","route":"Большое кольцо Московской железной дороги","type":null,"distance":143.5},"geometry":{"type":"Point","coordinates":[37.0562711,56.046528]}},{"type":"Feature","properties":{"marker-color":"#178431","marker-size":"small","marker-symbol":"","name":"Жилино","route":"Большое кольцо Московской железной дороги","type":"платформа","distance":150.2},"geometry":{"type":"Point","coordinates":[37.0477999,55.994622]}},{"type":"Feature","properties":{"marker-color":"#178431","marker-size":"small","marker-symbol":"","name":"155 км","route":"Большое кольцо Московской железной дороги","type":"платформа","distance":154.4},"geometry":{"type":"Point","coordinates":[39.165726,56.637452]}},{"type":"Feature","properties":{"marker-color":"#178431","marker-size":"small","marker-symbol":"","name":"159 км","route":"Большое кольцо Московской железной дороги","type":"платформа","distance":158.3},"geometry":{"type":"Point","coordinates":[38,55]}},{"type":"Feature","properties":{"marker-color":"#178431","marker-size":"small","marker-symbol":"","name":"Манихино II","route":"Большое кольцо Московской железной дороги","type":null,"distance":161.7},"geometry":{"type":"Point","coordinates":[36.962582,55.912106]}},{"type":"Feature","properties":{"marker-color":"#178431","marker-size":"small","marker-symbol":"","name":"Манихино I","route":"Большое кольцо Московской железной дороги","type":null,"distance":3},"geometry":{"type":"Point","coordinates":[36.9294049,55.890439]}},{"type":"Feature","properties":{"marker-color":"#178431","marker-size":"small","marker-symbol":"","name":"165 км","route":"Большое кольцо Московской железной дороги","type":"платформа","distance":164.6},"geometry":{"type":"Point","coordinates":[36.938501,55.88778]}},{"type":"Feature","properties":{"marker-color":"#178431","marker-size":"small","marker-symbol":"","name":"Лукино","route":"Большое кольцо Московской железной дороги","type":null,"distance":170.8},"geometry":{"type":"Point","coordinates":[36.879849,55.856367]}},{"type":"Feature","properties":{"marker-color":"#178431","marker-size":"small","marker-symbol":"","name":"174 км","route":"Большое кольцо Московской железной дороги","type":"платформа","distance":174},"geometry":{"type":"Point","coordinates":[38,55]}},{"type":"Feature","properties":{"marker-color":"#178431","marker-size":"small","marker-symbol":"","name":"183 км","route":"Большое кольцо Московской железной дороги","type":"платформа","distance":182.5},"geometry":{"type":"Point","coordinates":[38,55]}},{"type":"Feature","properties":{"marker-color":"#178431","marker-size":"small","marker-symbol":"","name":"Дюдьково","route":"Большое кольцо Московской железной дороги","type":"платформа","distance":186},"geometry":{"type":"Point","coordinates":[36.805257,55.739421]}},{"type":"Feature","properties":{"marker-color":"#178431","marker-size":"small","marker-symbol":"","name":"189 км","route":"Большое кольцо Московской железной дороги","type":"платформа","distance":189.2},"geometry":{"type":"Point","coordinates":[38,55]}},{"type":"Feature","properties":{"marker-color":"#178431","marker-size":"small","marker-symbol":"","name":"191 км","route":"Большое кольцо Московской железной дороги","type":"платформа","distance":191.3},"geometry":{"type":"Point","coordinates":[38,55]}},{"type":"Feature","properties":{"marker-color":"#178431","marker-size":"small","marker-symbol":"","name":"Ястребки","route":"Большое кольцо Московской железной дороги","type":"платформа","distance":195.5},"geometry":{"type":"Point","coordinates":[36.7609741,55.673288]}},{"type":"Feature","properties":{"marker-color":"#178431","marker-size":"small","marker-symbol":"","name":"198 км","route":"Большое кольцо Московской железной дороги","type":"платформа","distance":198.2},"geometry":{"type":"Point","coordinates":[38,55]}},{"type":"Feature","properties":{"marker-color":"#178431","marker-size":"small","marker-symbol":"","name":"Кубинка II","route":"Большое кольцо Московской железной дороги","type":null,"distance":202.9},"geometry":{"type":"Point","coordinates":[36.7272204,55.6010933]}},{"type":"Feature","properties":{"marker-color":"#178431","marker-size":"small","marker-symbol":"","name":"Технический Центр / Танковый Музей","route":"Большое кольцо Московской железной дороги","type":"платформа","distance":null},"geometry":{"type":"Point","coordinates":[38,55]}},{"type":"Feature","properties":{"marker-color":"#178431","marker-size":"small","marker-symbol":"","name":"Парк Патриот","route":"Большое кольцо Московской железной дороги","type":null,"distance":null},"geometry":{"type":"Point","coordinates":[38,55]}},{"type":"Feature","properties":{"marker-color":"#178431","marker-size":"small","marker-symbol":"","name":"Кубинка I","route":"Большое кольцо Московской железной дороги","type":null,"distance":206.6},"geometry":{"type":"Point","coordinates":[36.691617,55.579274]}},{"type":"Feature","properties":{"marker-color":"#178431","marker-size":"small","marker-symbol":"","name":"211 км","route":"Большое кольцо Московской железной дороги","type":"платформа","distance":210.9},"geometry":{"type":"Point","coordinates":[36.678505,55.552135]}},{"type":"Feature","properties":{"marker-color":"#178431","marker-size":"small","marker-symbol":"","name":"214 км","route":"Большое кольцо Московской железной дороги","type":"платформа","distance":213.4},"geometry":{"type":"Point","coordinates":[36.6647499,55.53707]}},{"type":"Feature","properties":{"marker-color":"#178431","marker-size":"small","marker-symbol":"","name":"Акулово","route":"Большое кольцо Московской железной дороги","type":null,"distance":217.4},"geometry":{"type":"Point","coordinates":[36.689462,55.502444]}},{"type":"Feature","properties":{"marker-color":"#178431","marker-size":"small","marker-symbol":"","name":"221 км","route":"Большое кольцо Московской железной дороги","type":"платформа","distance":221.7},"geometry":{"type":"Point","coordinates":[36.70172,55.465713]}},{"type":"Feature","properties":{"marker-color":"#178431","marker-size":"small","marker-symbol":"","name":"Пожитково","route":"Большое кольцо Московской железной дороги","type":null,"distance":229.2},"geometry":{"type":"Point","coordinates":[36.803833,55.440845]}},{"type":"Feature","properties":{"marker-color":"#178431","marker-size":"small","marker-symbol":"","name":"Сандарово","route":"Большое кольцо Московской железной дороги","type":null,"distance":281.2},"geometry":{"type":"Point","coordinates":[37.450176,55.257354]}},{"type":"Feature","properties":{"marker-color":"#178431","marker-size":"small","marker-symbol":"","name":"283 км","route":"Большое кольцо Московской железной дороги","type":"платформа","distance":282.8},"geometry":{"type":"Point","coordinates":[38,55]}},{"type":"Feature","properties":{"marker-color":"#178431","marker-size":"small","marker-symbol":"","name":"Столбовая","route":"Большое кольцо Московской железной дороги","type":null,"distance":287.8},"geometry":{"type":"Point","coordinates":[37.493472,55.2486]}},{"type":"Feature","properties":{"marker-color":"#178431","marker-size":"small","marker-symbol":"","name":"Детково","route":"Большое кольцо Московской железной дороги","type":null,"distance":287.7},"geometry":{"type":"Point","coordinates":[37.516256,55.22114]}},{"type":"Feature","properties":{"marker-color":"#178431","marker-size":"small","marker-symbol":"","name":"294 км","route":"Большое кольцо Московской железной дороги","type":"платформа","distance":null},"geometry":{"type":"Point","coordinates":[38,55]}},{"type":"Feature","properties":{"marker-color":"#178431","marker-size":"small","marker-symbol":"","name":"298 км","route":"Большое кольцо Московской железной дороги","type":"платформа","distance":null},"geometry":{"type":"Point","coordinates":[38,55]}},{"type":"Feature","properties":{"marker-color":"#178431","marker-size":"small","marker-symbol":"","name":"Повадино","route":"Большое кольцо Московской железной дороги","type":"платформа","distance":304.9},"geometry":{"type":"Point","coordinates":[36.9296282,56.0517037]}},{"type":"Feature","properties":{"marker-color":"#178431","marker-size":"small","marker-symbol":"","name":"309 км","route":"Большое кольцо Московской железной дороги","type":"платформа","distance":308.3},"geometry":{"type":"Point","coordinates":[38,55]}},{"type":"Feature","properties":{"marker-color":"#178431","marker-size":"small","marker-symbol":"","name":"312 км","route":"Большое кольцо Московской железной дороги","type":"платформа","distance":311.3},"geometry":{"type":"Point","coordinates":[38,55]}},{"type":"Feature","properties":{"marker-color":"#178431","marker-size":"small","marker-symbol":"","name":"Усады-Окружные","route":"Большое кольцо Московской железной дороги","type":null,"distance":315.2},"geometry":{"type":"Point","coordinates":[37.8964559,55.154787]}},{"type":"Feature","properties":{"marker-color":"#178431","marker-size":"small","marker-symbol":"","name":"Пост 320 км","route":"Большое кольцо Московской железной дороги","type":null,"distance":320},"geometry":{"type":"Point","coordinates":[38,55]}},{"type":"Feature","properties":{"marker-color":"#178431","marker-size":"small","marker-symbol":"","name":"Михнево","route":"Большое кольцо Московской железной дороги","type":null,"distance":322.6},"geometry":{"type":"Point","coordinates":[37.960949,55.120934]}},{"type":"Feature","properties":{"marker-color":"#178431","marker-size":"small","marker-symbol":"","name":"328 км","route":"Большое кольцо Московской железной дороги","type":"платформа","distance":327.3},"geometry":{"type":"Point","coordinates":[38,55]}},{"type":"Feature","properties":{"marker-color":"#178431","marker-size":"small","marker-symbol":"","name":"Пост 329 км","route":"Большое кольцо Московской железной дороги","type":null,"distance":329},"geometry":{"type":"Point","coordinates":[38,55]}},{"type":"Feature","properties":{"marker-color":"#178431","marker-size":"small","marker-symbol":"","name":"332 км","route":"Большое кольцо Московской железной дороги","type":"платформа","distance":331.2},"geometry":{"type":"Point","coordinates":[38,55]}},{"type":"Feature","properties":{"marker-color":"#178431","marker-size":"small","marker-symbol":"","name":"Малино","route":"Большое кольцо Московской железной дороги","type":null,"distance":336.5},"geometry":{"type":"Point","coordinates":[38.1689449,55.122406]}},{"type":"Feature","properties":{"marker-color":"#178431","marker-size":"small","marker-symbol":"","name":"341 км","route":"Большое кольцо Московской железной дороги","type":"платформа","distance":340.9},"geometry":{"type":"Point","coordinates":[38,55]}},{"type":"Feature","properties":{"marker-color":"#178431","marker-size":"small","marker-symbol":"","name":"Жилёво","route":"Большое кольцо Московской железной дороги","type":null,"distance":null},"geometry":{"type":"Point","coordinates":[38.0317081,54.985928]}},{"type":"Feature","properties":{"marker-color":"#178431","marker-size":"small","marker-symbol":"","name":"Шматово","route":"Большое кольцо Московской железной дороги","type":"платформа","distance":3},"geometry":{"type":"Point","coordinates":[38.0639139,55.0103108]}},{"type":"Feature","properties":{"marker-color":"#178431","marker-size":"small","marker-symbol":"","name":"Колычево","route":"Большое кольцо Московской железной дороги","type":"платформа","distance":8.6},"geometry":{"type":"Point","coordinates":[36.0063238,55.4706158]}},{"type":"Feature","properties":{"marker-color":"#178431","marker-size":"small","marker-symbol":"","name":"Сотниково","route":"Большое кольцо Московской железной дороги","type":null,"distance":13.9},"geometry":{"type":"Point","coordinates":[38.151133,55.058689]}},{"type":"Feature","properties":{"marker-color":"#178431","marker-size":"small","marker-symbol":"","name":"Яганово","route":"Большое кольцо Московской железной дороги","type":null,"distance":345.2},"geometry":{"type":"Point","coordinates":[38.277715,55.09243]}},{"type":"Feature","properties":{"marker-color":"#178431","marker-size":"small","marker-symbol":"","name":"Лютик","route":"Большое кольцо Московской железной дороги","type":"платформа","distance":26.7},"geometry":{"type":"Point","coordinates":[38.3262231,55.102098]}},{"type":"Feature","properties":{"marker-color":"#178431","marker-size":"small","marker-symbol":"","name":"Мякинино","route":"Большое кольцо Московской железной дороги","type":"платформа","distance":30.7},"geometry":{"type":"Point","coordinates":[38.3786111,55.129642]}},{"type":"Feature","properties":{"marker-color":"#178431","marker-size":"small","marker-symbol":"","name":"Шубатово","route":"Большое кольцо Московской железной дороги","type":"платформа","distance":33.7},"geometry":{"type":"Point","coordinates":[38.4121461,55.148344]}},{"type":"Feature","properties":{"marker-color":"#178431","marker-size":"small","marker-symbol":"","name":"Лесные Дары","route":"Большое кольцо Московской железной дороги","type":"платформа","distance":36.4},"geometry":{"type":"Point","coordinates":[38.434205,55.167893]}},{"type":"Feature","properties":{"marker-color":"#178431","marker-size":"small","marker-symbol":"","name":"Шкинь","route":"Большое кольцо Московской железной дороги","type":"платформа","distance":40.1},"geometry":{"type":"Point","coordinates":[38.4910162,55.1923533]}},{"type":"Feature","properties":{"marker-color":"#178431","marker-size":"small","marker-symbol":"","name":"Осёнка","route":"Большое кольцо Московской железной дороги","type":"платформа","distance":43.7},"geometry":{"type":"Point","coordinates":[38.5262268,55.1824799]}},{"type":"Feature","properties":{"marker-color":"#178431","marker-size":"small","marker-symbol":"","name":"Непецино","route":"Большое кольцо Московской железной дороги","type":null,"distance":48.2},"geometry":{"type":"Point","coordinates":[38.581896,55.213325]}},{"type":"Feature","properties":{"marker-color":"#178431","marker-size":"small","marker-symbol":"","name":"Ратмирово","route":"Большое кольцо Московской железной дороги","type":"платформа","distance":58},"geometry":{"type":"Point","coordinates":[38.6814172,55.291692]}},{"type":"Feature","properties":{"marker-color":"#178431","marker-size":"small","marker-symbol":"","name":"Пост 61 км","route":"Большое кольцо Московской железной дороги","type":null,"distance":61},"geometry":{"type":"Point","coordinates":[39.0835071,48.561629]}},{"type":"Feature","properties":{"marker-color":"#178431","marker-size":"small","marker-symbol":"","name":"Воскресенск","route":"Большое кольцо Московской железной дороги","type":null,"distance":63.8},"geometry":{"type":"Point","coordinates":[38.702873,55.312275]}},{"type":"Feature","properties":{"marker-color":"#178431","marker-size":"small","marker-symbol":"","name":"88 км","route":"Большое кольцо Московской железной дороги","type":"платформа","distance":65.5},"geometry":{"type":"Point","coordinates":[38.6856519,55.327322]}},{"type":"Feature","properties":{"marker-color":"#178431","marker-size":"small","marker-symbol":"","name":"Лопатино","route":"Большое кольцо Московской железной дороги","type":"платформа","distance":69.3},"geometry":{"type":"Point","coordinates":[38,55]}},{"type":"Feature","properties":{"marker-color":"#178431","marker-size":"small","marker-symbol":"","name":"Берендино","route":"Большое кольцо Московской железной дороги","type":null,"distance":77.1},"geometry":{"type":"Point","coordinates":[38.8093221,55.40979]}},{"type":"Feature","properties":{"marker-color":"#178431","marker-size":"small","marker-symbol":"","name":"Пост 13 км","route":"Большое кольцо Московской железной дороги","type":null,"distance":12.1},"geometry":{"type":"Point","coordinates":[38,55]}},