[{"ID":1,"Name":"Шатура","Info":"ул. Садовая - 74 м.<br>ул. Вокзальная - 80 м.<br>ул. Большевик - 79 м.<br>Рабочий посёлок - 60, 65, 68, 90 м.<br>Ботино - 70, 75, 77 м. <br>Буровая компания ООО \"АкваБур\"<br>+7(495) 929-71-16<br>http://www.aqabur.ru/","LocationLat":55.581846,"LocationLng":39.544755},{"ID":2,"Name":"Зендиково","Info":"Глубина скважин - 60, 64, 70 м.<br>ул. Речная - 56 м.<br>сп. Базаровское - 57 м.<br>Буровая компания ООО \"АкваБур\"<br>+7(495) 929-71-16<br>http://www.aqabur.ru/","LocationLat":54.806579,"LocationLng":38.156579},{"ID":3,"Name":"Щукино","Info":"Глубина скважин 42 68 м.<br>Буровая компания ООО \"АкваБур\"<br>+7(495) 929-71-16<br>http://www.aqabur.ru/","LocationLat":54.467919,"LocationLng":37.010248},{"ID":4,"Name":"Хлябово","Info":"Глубина скважины 160 м.<br>Буровая компания ООО \"АкваБур\"<br>+7(495) 929-71-16<br>http://www.aqabur.ru/","LocationLat":56.122178,"LocationLng":37.547639},{"ID":5,"Name":"Панино","Info":"Глубина скважины 30 м.<br>Буровая компания ООО \"АкваБур\"<br>+7(495) 929-71-16<br>http://www.aqabur.ru/","LocationLat":55.242366,"LocationLng":37.408498},{"ID":6,"Name":"Дубечино","Info":"Глубина скважин 25,31 м.<br>Буровая компания ООО \"АкваБур\"<br>+7(495) 929-71-16<br>http://www.aqabur.ru/","LocationLat":55.077128,"LocationLng":37.742429},{"ID":7,"Name":"Протвино","Info":"Глубина скважины 50 м.<br>Буровая компания ООО \"АкваБур\"<br>+7(495) 929-71-16<br>http://www.aqabur.ru/","LocationLat":54.880049,"LocationLng":37.218882},{"ID":8,"Name":"Головлино","Info":"Глубина скважины 60 м.<br>Буровая компания \"АкваБур\"<br>+7(495) 929-71-16<br>http://www.aqabur.ru/","LocationLat":54.86173,"LocationLng":37.964358},{"ID":9,"Name":"Проскурниково","Info":"Глубина скважин - 30 м.<br>СНТ \"Рябина\" - 31, 38 м.<br>СНТ \"Речицы\" - 48 м.<br>СНТ \"Лада\" - 35, 38, 40, 41, 42 м.<br>Буровая компания \"АкваБур\"<br>+7(495) 929-71-16<br>http://www.aqabur.ru/","LocationLat":55.181791,"LocationLng":37.968616},{"ID":10,"Name":"Прокшино","Info":"Глубина скважины 50, 60 м.<br>Буровая компания ООО \"АкваБур\"<br>+7(495) 929-71-16<br>http://www.aqabur.ru/","LocationLat":54.819025,"LocationLng":37.367957},{"ID":11,"Name":"Егорьевск","Info":"Глубина скважин 50, 51, 57, 98 м.<br>ул. Рябиновая - 62, 72 м.<br>ул. Радугина - 54 м. <br>ул. Гальцева - 47 м.<br>ул. Радужная - 48, 50, 54, 60, 65, 70 м.<br>ул. Зелёная - 47, 51, 57, 60 м. <br>ул. Ольховая - 40, 50 м.<br>Ул. 3-я Нечаевская - 65 м<br>проезд Радугина - 56 м.<br>ул. Шляева - 73, 74 м.<br>СНТ \"Ромашка\" - 41 м.<br>Буровая компания \"АкваБур\"<br>+7(495) 929-71-16<br>http://www.aqabur.ru/","LocationLat":55.3827819,"LocationLng":39.0352781},{"ID":12,"Name":"Хомутово","Info":"Глубина скважины 41 м.<br>Буровая компания ООО \"АкваБур\"<br>+7(495) 929-71-16<br>http://www.aqabur.ru/","LocationLat":55.190996,"LocationLng":38.244749},{"ID":13,"Name":"Коченягино","Info":"Глубина скважины 50 м.<br>Буровая компания ООО \"АкваБур\"<br>+7(495) 929-71-16<br>http://www.aqabur.ru/","LocationLat":55.17065,"LocationLng":37.732341},{"ID":14,"Name":"Болычево","Info":"Глубина скважины 80 м.<br>Буровая компания ООО \"АкваБур\"<br>+7(495) 929-71-16<br>http://www.aqabur.ru/","LocationLat":55.761158,"LocationLng":35.720277},{"ID":15,"Name":"Чисмена","Info":"Глубина скважины 160, 175 м.<br>Буровая компания ООО \"АкваБур\"<br>+7(495) 929-71-16<br>http://www.aqabur.ru/","LocationLat":56.020094,"LocationLng":36.214826},{"ID":16,"Name":"Теряево","Info":"Глубина скважин - 100, 160 м.<br>ул. Береговая - 121 м.<br>Буровая компания ООО \"АкваБур\"<br>+7(495) 929-71-16<br>http://www.aqabur.ru/","LocationLat":56.173172,"LocationLng":36.120719},{"ID":17,"Name":"Некрасовский","Info":"Глубина скважин 115, 120 м.<br>Буровая компания ООО \"АкваБур\"<br>+7(495) 929-71-16<br>http://www.aqabur.ru/","LocationLat":56.084074,"LocationLng":37.500091},{"ID":18,"Name":"Аксеново","Info":"Глубина скважин - 59, 106 м.<br>Буровая компания ООО \"АкваБур\"<br>+7(495) 929-71-16<br>http://www.aqabur.ru/","LocationLat":55.6782425,"LocationLng":38.2461798},{"ID":19,"Name":"Рогачево","Info":"Глубина скважины 130 м.<br>Буровая компания ООО \"АкваБур\"<br>+7(495) 929-71-16<br>http://www.aqabur.ru/","LocationLat":56.431594,"LocationLng":37.166196},{"ID":20,"Name":"Ольявидово","Info":"Глубина скважины 145 м.<br>Буровая компания ООО \"АкваБур\"<br>+7(495) 929-71-16<br>http://www.aqabur.ru/","LocationLat":56.504089,"LocationLng":37.754215},{"ID":21,"Name":"аэропорт Домодедово","Info":"Глубина скважин 45,60 м.<br>Буровая компания ООО \"АкваБур\"<br>+7(495) 929-71-16<br>http://www.aqabur.ru/","LocationLat":55.415416,"LocationLng":37.89879},{"ID":22,"Name":"Добрыниха","Info":"Глубина скважины 60 м.<br>Буровая компания ООО \"АкваБур\"<br>+7(495) 929-71-16<br>http://www.aqabur.ru/","LocationLat":55.181411,"LocationLng":37.702625},{"ID":23,"Name":"Рязановский","Info":"Глубина скважины 80 м.<br>Буровая компания ООО \"АкваБур\"<br>+7(495) 929-71-16<br>http://www.aqabur.ru/","LocationLat":55.133303,"LocationLng":39.548519},{"ID":24,"Name":"Протекино","Info":"Глубина скважины 70,90 м.<br>Буровая компания ООО \"АкваБур\"<br>+7(495) 929-71-16<br>http://www.aqabur.ru/","LocationLat":54.824399,"LocationLng":38.79459},{"ID":25,"Name":"Макеево","Info":"Глубина скважины 70,110 м.<br>Буровая компания ООО \"АкваБур\"<br>+7(495) 929-71-16<br>http://www.aqabur.ru/","LocationLat":54.443233,"LocationLng":39.481886},{"ID":26,"Name":"Алферьево","Info":"Глубина скважины 60,80 м.<br>Буровая компания ООО \"АкваБур\"<br>+7(495) 929-71-16<br>http://www.aqabur.ru/","LocationLat":54.654808,"LocationLng":38.748129},{"ID":27,"Name":"Дедовск","Info":"Глубина скважин 115,120, 90 м.<br>Буровая компания ООО \"АкваБур\"<br>+7(495) 929-71-16<br>http://www.aqabur.ru/","LocationLat":55.860226,"LocationLng":37.130676},{"ID":28,"Name":"Истра","Info":"Глубина скважины 120,86 м.<br>Буровая компания ООО \"АкваБур\"<br>+7(495) 929-71-16<br>http://www.aqabur.ru/","LocationLat":55.913742,"LocationLng":36.853744},{"ID":29,"Name":"Новопетровское","Info":"Глубина скважины 120, 200 м.<br>Буровая компания ООО \"АкваБур\"<br>+7(495) 929-71-16<br>http://www.aqabur.ru/","LocationLat":55.98786,"LocationLng":36.472795},{"ID":30,"Name":"Алехново","Info":"Глубина скважины 140 м.<br>Буровая компания ООО \"АкваБур\"<br>+7(495) 929-71-16<br>http://www.aqabur.ru/","LocationLat":56.02771,"LocationLng":36.808433},{"ID":31,"Name":"Кашира","Info":"Глубина скважины 80,60 м.<br>Буровая компания ООО \"АкваБур\"<br>+7(495) 929-71-16<br>http://www.aqabur.ru/","LocationLat":54.840915,"LocationLng":38.189655},{"ID":32,"Name":"Каменка","Info":"Глубина скважин 70,80 м.<br>Буровая компания ООО \"АкваБур\"<br>+7(495) 929-71-16<br>http://www.aqabur.ru/<br>.","LocationLat":54.710308,"LocationLng":38.323495},{"ID":33,"Name":"Барабаново","Info":"Глубина скважины 100,140 м.<br>Буровая компания ООО \"АкваБур\"<br>+7(495) 929-71-16<br>http://www.aqabur.ru/","LocationLat":54.71437,"LocationLng":38.165122},{"ID":34,"Name":"Кузнецово","Info":"Глубина скважины 150 м.<br>Буровая компания ООО \"АкваБур\"<br>+7(495) 929-71-16<br>http://www.aqabur.ru/","LocationLat":56.12692,"LocationLng":36.656824},{"ID":35,"Name":"Клин","Info":"Глубина скважин 140, 180 м.<br>Буровая компания ООО \"АкваБур\"<br>+7(495) 929-71-16<br>http://www.aqabur.ru/","LocationLat":56.344955,"LocationLng":36.72471},{"ID":36,"Name":"Пески","Info":"Глубина скважины 40,60 м.<br>Буровая компания ООО \"АкваБур\"<br>+7(495) 929-71-16<br>http://www.aqabur.ru/","LocationLat":55.209796,"LocationLng":38.774854},{"ID":37,"Name":"Коломна","Info":"Глубина скважины 50,43,78 м.<br>Буровая компания ООО \"АкваБур\"<br>+7(495) 929-71-16<br>http://www.aqabur.ru/","LocationLat":55.084296,"LocationLng":38.798453},{"ID":38,"Name":"Акатьево","Info":"Глубина скважины 60 м.<br>Буровая компания ООО \"АкваБур\"<br>+7(495) 929-71-16<br>http://www.aqabur.ru/","LocationLat":54.979201,"LocationLng":38.754283},{"ID":39,"Name":"Нахабино","Info":"Глубина скважины 80,100 м.<br>Буровая компания ООО \"АкваБур\"<br>+7(495) 929-71-16<br>http://www.aqabur.ru/","LocationLat":55.848038,"LocationLng":37.171792},{"ID":40,"Name":"Ильинское","Info":"Глубина скважин 70,90,83 м.<br>Буровая компания ООО \"АкваБур\"<br>+7(495) 929-71-16<br>http://www.aqabur.ru/","LocationLat":55.75864,"LocationLng":37.237837},{"ID":41,"Name":"Красногорск","Info":"Глубина скважины 90 м.<br>Буровая компания ООО \"АкваБур\"<br>+7(495) 929-71-16<br>http://www.aqabur.ru/","LocationLat":55.826862,"LocationLng":37.296838},{"ID":42,"Name":"Десна","Info":"Глубина скважины 30 м.<br>Буровая компания ООО \"АкваБур\"<br>+7(495) 929-71-16<br>http://www.aqabur.ru/","LocationLat":55.523937,"LocationLng":37.376411},{"ID":43,"Name":"Ошейкино","Info":"Глубина скважины 33,60,м. 65 м.- Самоизлив<br>Буровая компания \"АкваБур\"<br>+7(495) 929-71-16<br>http://www.aqabur.ru/","LocationLat":56.254446,"LocationLng":35.900379},{"ID":44,"Name":"Лотошино","Info":"Глубина скважины 60 м.<br>Буровая компания ООО \"АкваБур\"<br>+7(495) 929-71-16<br>http://www.aqabur.ru/","LocationLat":56.23487,"LocationLng":35.63977},{"ID":45,"Name":"Введенское","Info":"Глубина скважины 60 м.<br>Буровая компания ООО \"АкваБур\"<br>+7(495) 929-71-16<br>http://www.aqabur.ru/","LocationLat":56.374232,"LocationLng":35.630822},{"ID":46,"Name":"Луховицы","Info":"Глубина скважин - 20, 24, 50 м.<br>ул. Мира - 32 м.<br>Буровая компания ООО \"АкваБур\"<br>+7(495) 929-71-16<br>http://www.aqabur.ru/","LocationLat":54.959165,"LocationLng":39.031754},{"ID":47,"Name":"Белоомут","Info":"Глубина скважины 50 м.<br>Буровая компания ООО \"АкваБур\"<br>+7(495) 929-71-16<br>http://www.aqabur.ru/","LocationLat":54.943385,"LocationLng":39.34002},{"ID":48,"Name":"Григорьевское","Info":"Хлябово<br>Глубина скважины 40 м.<br>Буровая компания ООО \"АкваБур\"<br>+7(495) 929-71-16<br>http://www.aqabur.ru/","LocationLat":54.802588,"LocationLng":39.25654},{"ID":49,"Name":"Можайск","Info":"Глубина скважин 63, 70,77 м.<br>Буровая компания ООО \"АкваБур\"<br>+7(495) 929-71-16<br>http://www.aqabur.ru/","LocationLat":55.504726,"LocationLng":36.012534},{"ID":50,"Name":"Ивакино","Info":"Глубина скважины 60,57 м.<br>Буровая компания ООО \"АкваБур\"<br>+7(495) 929-71-16<br>http://www.aqabur.ru/","LocationLat":55.325544,"LocationLng":35.609119},{"ID":51,"Name":"Поречье","Info":"Глубина скважины 80 м.<br>Буровая компания ООО \"АкваБур\"<br>+7(495) 929-71-16<br>http://www.aqabur.ru/","LocationLat":55.714298,"LocationLng":35.546758},{"ID":52,"Name":"Грибки","Info":"Глубина скважины 90 м.<br>Буровая компания ООО \"АкваБур\"<br>+7(495) 929-71-16<br>http://www.aqabur.ru/","LocationLat":55.956406,"LocationLng":37.535385},{"ID":53,"Name":"Протасово","Info":"Хлябово<br>Глубина скважины 140 м.<br>Буровая компания ООО \"АкваБур\"<br>+7(495) 929-71-16<br>http://www.aqabur.ru/","LocationLat":56.135479,"LocationLng":37.599885},{"ID":54,"Name":"Мытищи","Info":"Глубина скважин 96,120,105,125 м., СНТ \"Водоканал\"-41м  <br>Песчаный горизонт до 30 м.  деб - 2 м2<br>Буровая компания ООО \"АкваБур\"<br>+7(495) 929-71-16<br>http://www.aqabur.ru/","LocationLat":55.918968,"LocationLng":37.749167},{"ID":55,"Name":"Апрелевка","Info":"Глубина скважин - 53, 60, 66, 70, 74  м.<br>Буровая компания \"АкваБур\"<br>+7(495) 929-71-16<br>http://www.aqabur.ru/","LocationLat":55.548375,"LocationLng":37.057859},{"ID":56,"Name":"Верея","Info":"Глубина скважин 30,40 м.<br>Буровая компания  \"АкваБур\"<br>+7(495) 929-71-16<br>http://www.aqabur.ru/","LocationLat":55.344679,"LocationLng":36.182011},{"ID":57,"Name":"Немчиновка","Info":"Хлябово<br>Глубина скважины 120 м.<br>Буровая компания ООО \"АкваБур\"<br>+7(495) 929-71-16<br>http://www.aqabur.ru/","LocationLat":55.718978,"LocationLng":37.36953},{"ID":58,"Name":"Немчиновка","Info":"Хлябово<br>Глубина скважины 120 м.<br>Буровая компания ООО \"АкваБур\"<br>+7(495) 929-71-16<br>http://www.aqabur.ru/","LocationLat":55.718978,"LocationLng":37.36953},{"ID":59,"Name":"Голицыно","Info":"Глубина скважины 70, 76, 93 м.<br>Буровая компания ООО \"АкваБур\"<br>+7(495) 929-71-16<br>http://www.aqabur.ru/","LocationLat":55.60969,"LocationLng":36.985087},{"ID":60,"Name":"Кубинка","Info":"Глубина скважин - 45, 55, 57, 68 м.<br>Буровая компания ООО \"АкваБур\"<br>+7(495) 929-71-16<br>http://www.aqabur.ru/","LocationLat":55.5616336,"LocationLng":36.7015058},{"ID":61,"Name":"Бояркино","Info":"Глубина скважин 60,80 м.<br>Буровая компания ООО \"АкваБур\"<br>+7(495) 929-71-16<br>http://www.aqabur.ru/","LocationLat":54.956777,"LocationLng":38.52143},{"ID":62,"Name":"Клишино","Info":"Глубина скважины 80,100 м.<br>Буровая компания ООО \"АкваБур\"<br>+7(495) 929-71-16<br>http://www.aqabur.ru/","LocationLat":54.825981,"LocationLng":38.572904},{"ID":63,"Name":"Куровское","Info":"Глубина скважины 45, 59, 60, 70, 92, 115 м.<br>СНТ \"Гуслица\" - 74 м.<br> СНТ \"Салют\"-86 м.<br>СНТ \"Рассвет\" - 90, 92 м.<br>ул. Горького - 79 м.<br>Буровая компания ООО \"АкваБур\"<br>+7(495) 929-71-16<br>http://www.aqabur.ru/","LocationLat":55.580335,"LocationLng":38.917156},{"ID":64,"Name":"Савинская","Info":"Глубина скважины 80 м.<br>Буровая компания ООО \"АкваБур\"<br>+7(495) 929-71-16<br>http://www.aqabur.ru/","LocationLat":55.69038,"LocationLng":39.316646},{"ID":65,"Name":"Орехово-Зуево","Info":"Глубина скважины 80,75,76 м.<br>Буровая компания ООО \"АкваБур\"<br>+7(495) 929-71-16<br>http://www.aqabur.ru/","LocationLat":55.810891,"LocationLng":38.985168},{"ID":66,"Name":"Павловский Посад","Info":"Глубина скважин - 34, 42, 50, 57, 60, 69, 74 м.<br>ул. Рябиновая - 70 м.<br>ул. Городковская - 40 м.<br>ул. Есенина - 40 м.<br>ул. Лесная - 37, 42 м.<br>Ул. Луговая - 41 м<br>ул. Московская - 37 м.<br>ДНП \"Грибово\" - 30, 41, 42 м.<br>СНТ \"Пингвин\" - 72 м.<br>ДНП \"Дубрава\" - 43 м.<br>1-й Лесной переулок - 42 м.<br>3-й Лесной переулок - 42 м.<br>Мишутинское шоссе - 41 м.<br>Буровая компания \"АкваБур\"<br>+7(495) 929-71-16<br>http://www.aqabur.ru/","LocationLat":55.7757107,"LocationLng":38.6528182},{"ID":67,"Name":"Электрогорск","Info":"Глубина скважин - 35, 70 м.<br>СНТ \"Пингвин\" - 70 м.<br>ул. Пушкина - 42 м.<br>мкр. Соловки: ул. Озёрная - 35 м.<br>Буровая компания ООО \"АкваБур\"<br>+7(495) 929-71-16<br>http://www.aqabur.ru/","LocationLat":55.87896,"LocationLng":38.785598},{"ID":68,"Name":"Кузовлево","Info":"Глубина скважины 30,40 м.<br>Буровая компания ООО \"АкваБур\"<br>+7(495) 929-71-16<br>http://www.aqabur.ru/","LocationLat":55.183518,"LocationLng":37.001553},{"ID":69,"Name":"Шишкин Лес","Info":"Глубина скважины 40,60 м.<br>Буровая компания ООО \"АкваБур\"<br>+7(495) 929-71-16<br>http://www.aqabur.ru/","LocationLat":55.412145,"LocationLng":37.189696},{"ID":70,"Name":"Климовск","Info":"Глубина скважины 60,80 м.<br>Буровая компания ООО \"АкваБур\"<br>+7(495) 929-71-16<br>http://www.aqabur.ru/","LocationLat":55.3584781,"LocationLng":37.5221063},{"ID":71,"Name":"Красноармейск","Info":"Глубина скважины 90, 120,160 м.<br>Буровая компания \"АкваБур\"<br>+7(495) 929-71-16<br>http://www.aqabur.ru/","LocationLat":56.109792,"LocationLng":38.130016},{"ID":72,"Name":"Ашукино","Info":"Глубина скважины 130,140 м.<br>Буровая компания ООО \"АкваБур\"<br>+7(495) 929-71-16<br>http://www.aqabur.ru/","LocationLat":56.174104,"LocationLng":37.949383},{"ID":73,"Name":"Ульянино","Info":"Глубина скважины 22, 41, 50, 76 м.<br>Буровая компания \"АкваБур\"<br>+7(495) 929-71-16<br>http://www.aqabur.ru/","LocationLat":55.35051,"LocationLng":38.429254},{"ID":74,"Name":"Раменское","Info":"Глубина скважин - 40, 90 м.<br>мкр. Гостиницы - 80 м.<br>ДНП Честный - 30 м<br>\"Рябинка -1\" -35 м <br>КП \"Лукошкино\" - 40 м<br>Буровая компания \"АкваБур\"<br>+7(495) 929-71-16<br>http://www.aqabur.ru/","LocationLat":55.574258,"LocationLng":38.226962},{"ID":75,"Name":"Полтево","Info":"Глубина скважин - 32, 33, 34, 36, 37, 39, 45 м.<br>СНТ \"Медик\" - 28, 32 м.<br>СНТ \"Малиновка\" - 25, 27, 39, 45, 100 м.<br>СНТ \"Малиновка-1\" - 27, 28 м.<br>СНТ \"Малиновка-2\" - 100 м.<br>СНТ \"Полтево\" - 32, 36 м.<br>Ул. Фермерская - 30 м<br>ул. Никольская - 31, 37 м.<br>Буровая компания  \"АкваБур\"<br>+7(495) 929-71-16<br>http://www.aqabur.ru/","LocationLat":55.7055159,"LocationLng":38.1361307},{"ID":76,"Name":"Волоколамск","Info":"Глубина скважин - 56, 62, 70, 95, 120 м.<br>ул. Холстникова - 46 м.<br>Буровая компания ООО \"АкваБур\"<br>+7(495) 929-71-16<br>http://www.aqabur.ru/","LocationLat":56.0355018,"LocationLng":35.9565321},{"ID":77,"Name":"Берендино","Info":"Глубина скважины 43 м.<br>Буровая компания ООО \"АкваБур\"<br>+7(495) 929-71-16<br>http://www.aqabur.ru/","LocationLat":55.411716,"LocationLng":38.808855},{"ID":78,"Name":"Абрамцево","Info":"Глубина скважины 163 м.<br>Буровая компания ООО \"АкваБур\"<br>+7(495) 929-71-16<br>http://www.aqabur.ru/","LocationLat":56.217941,"LocationLng":37.966559},{"ID":79,"Name":"Игнатьево","Info":"Глубина скважины 74 м.<br>Буровая компания ООО \"АкваБур\"<br>+7(495) 929-71-16<br>http://www.aqabur.ru/","LocationLat":56.408836,"LocationLng":38.216192},{"ID":80,"Name":"Берендино","Info":"Глубина скважины 43 м.<br>Буровая компания ООО \"АкваБур\"<br>+7(495) 929-71-16<br>http://www.aqabur.ru/","LocationLat":55.411716,"LocationLng":38.808855},{"ID":81,"Name":"Барановское","Info":"Глубина скважины 90,55 м.<br>Буровая компания ООО \"АкваБур\"<br>+7(495) 929-71-16<br>http://www.aqabur.ru/","LocationLat":55.406354,"LocationLng":38.753223},{"ID":82,"Name":"Ворщиково","Info":"Глубина скважины 115 м.<br>Буровая компания ООО \"АкваБур\"<br>+7(495) 929-71-16<br>http://www.aqabur.ru/","LocationLat":55.4574867,"LocationLng":38.3758591},{"ID":83,"Name":"Золотово","Info":"Глубина скважин 38, 50, 52, 56 м.<br>Буровая компания \"АкваБур\"<br>+7(495) 929-71-16<br>http://www.aqabur.ru/","LocationLat":55.430476,"LocationLng":38.529812},{"ID":84,"Name":"Цибино","Info":"Глубина скважины 45, 63, 65, 84 м.<br>ул. Моёвка - 66 м.<br>ул. Весенняя - 75, 84 м.<br>ДП \"Три Жеребенка\" - 66, 70 м.  песчаный горизонт с высоким уровнем - 15 м. качество воды плохое<br>Буровая компания ООО \"АкваБур\"<br>+7(495) 929-71-16<br>http://www.aqabur.ru/.","LocationLat":55.46882,"LocationLng":38.4114465},{"ID":85,"Name":"Фаустово","Info":"Глубина скважин - 40, 58, 62 м.<br>КП \"Москва-Река\" - 50 м.<br>СНТ \"Нефтяник-92\" - 70 м.<br>Буровая компания \"АкваБур\"<br>+7(495) 929-71-16<br>http://www.aqabur.ru/","LocationLat":55.4390927,"LocationLng":38.4916213},{"ID":86,"Name":"Борисово","Info":"Глубина скважины 36 м.<br>Буровая компания ООО \"АкваБур\"<br>+7(495) 929-71-16<br>http://www.aqabur.ru/","LocationLat":55.358678,"LocationLng":38.051782},{"ID":87,"Name":"Битягово","Info":"Глубина скважины 62,39 м.<br>Буровая компания ООО \"АкваБур\"<br>+7(495) 929-71-16<br>http://www.aqabur.ru/","LocationLat":55.386185,"LocationLng":37.74154},{"ID":88,"Name":"Востряково","Info":"Глубина скважин - 32, 35, 45, 47 м.<br>СНТ \"Пресса\" - 52 м.<br>СНТ \"ЗИЛ\" - 45 м.<br>СНТ \"Востряково-ЗИЛ\" - 40, 43 м.<br>Буровая компания ООО \"АкваБур\"<br>+7(495) 929-71-16<br>http://www.aqabur.ru/","LocationLat":55.3991216,"LocationLng":37.8234523},{"ID":89,"Name":"Красный Путь","Info":"Глубина скважин - 39, 40 м.<br>СНТ \"Аист\" - 35 м.<br>ул. Майская - 39 м.<br>Буровая компания ООО \"АкваБур\"<br>+7(495) 929-71-16<br>http://www.aqabur.ru/","LocationLat":55.34258,"LocationLng":37.925982},{"ID":90,"Name":"Старосъяново","Info":"Глубина скважины 65 м.<br>Буровая компания ООО \"АкваБур\"<br>+7(495) 929-71-16<br>http://www.aqabur.ru/","LocationLat":55.487188,"LocationLng":37.791244},{"ID":91,"Name":"Заболотье","Info":"Глубина скважины 25, 51, 54 м.<br>Буровая компания ООО \"АкваБур\"<br>+7(495) 929-71-16<br>http://www.aqabur.ru/","LocationLat":55.448076,"LocationLng":37.674939},{"ID":92,"Name":"Шубино","Info":"Глубина скважины 28 м.<br>Буровая компания ООО \"АкваБур\"<br>+7(495) 929-71-16<br>http://www.aqabur.ru/","LocationLat":55.348457,"LocationLng":38.016083},{"ID":93,"Name":"Икша","Info":"Глубина скважин - 146, 150, 153 м.<br>СНТ \"Плёс\" - 112 м.<br>Буровая компания ООО \"АкваБур\"<br>+7(495) 929-71-16<br>http://www.aqabur.ru/","LocationLat":56.174184,"LocationLng":37.503405},{"ID":94,"Name":"Дмитров","Info":"Глубина скважины 176, 157,171 м.<br>Буровая компания ООО \"АкваБур\"<br>+7(495) 929-71-16<br>http://www.aqabur.ru/","LocationLat":56.357415,"LocationLng":37.529924},{"ID":95,"Name":"Лотосово","Info":"Глубина скважины 157 м.<br>Буровая компания ООО \"АкваБур\"<br>+7(495) 929-71-16<br>http://www.aqabur.ru/","LocationLat":56.185197,"LocationLng":37.618803},{"ID":96,"Name":"Овсянниково","Info":"Глубина скважины 126 м.<br>Буровая компания ООО \"АкваБур\"<br>+7(495) 929-71-16<br>http://www.aqabur.ru/","LocationLat":56.380503,"LocationLng":37.651115},{"ID":97,"Name":"Подъячево","Info":"Глубина скважин - 183, 186 м.<br>Буровая компания ООО \"АкваБур\"<br>+7(495) 929-71-16<br>http://www.aqabur.ru/","LocationLat":56.2607284,"LocationLng":37.2515771},{"ID":98,"Name":"Рыбаки","Info":"Глубина скважины 110 м.<br>Буровая компания ООО \"АкваБур\"<br>+7(495) 929-71-16<br>http://www.aqabur.ru/","LocationLat":56.055794,"LocationLng":37.357097},{"ID":99,"Name":"Ульянки","Info":"Глубина скважины 135 м.<br>Буровая компания ООО \"АкваБур\"<br>+7(495) 929-71-16<br>http://www.aqabur.ru/","LocationLat":56.258513,"LocationLng":37.590982},{"ID":100,"Name":"Удино","Info":"Глубина скважины 155 м.<br>Буровая компания ООО \"АкваБур\"<br>+7(495) 929-71-16<br>http://www.aqabur.ru/","LocationLat":56.148659,"LocationLng":37.316951},{"ID":101,"Name":"Кромино","Info":"Глубина скважины 167 м.<br>Буровая компания ООО \"АкваБур\"<br>+7(495) 929-71-16<br>http://www.aqabur.ru/","LocationLat":56.27227,"LocationLng":37.514419},{"ID":102,"Name":"Измайлово","Info":"Глубина скважины 140 м.<br>Буровая компания ООО \"АкваБур\"<br>+7(495) 929-71-16<br>http://www.aqabur.ru/","LocationLat":56.508605,"LocationLng":37.77016},{"ID":103,"Name":"Подрядниково","Info":"Глубина скважины 42 м.<br>Буровая компания ООО \"АкваБур\"<br>+7(495) 929-71-16<br>http://www.aqabur.ru/","LocationLat":55.316544,"LocationLng":39.334064},{"ID":104,"Name":"Щеголево","Info":"Глубина скважин - 50, 61 м.<br>СНТ \"Красаная Лента\" - 45, 47, 48, 51, 52 м.<br>Буровая компания ООО \"АкваБур\"<br>+7(495) 929-71-16<br>http://www.aqabur.ru/","LocationLat":55.3258048,"LocationLng":39.1693292},{"ID":105,"Name":"Федякино","Info":"Глубина скважины 48 м.<br>Буровая компания ООО \"АкваБур\"<br>+7(495) 929-71-16<br>http://www.aqabur.ru/","LocationLat":55.4213475,"LocationLng":39.2359167},{"ID":106,"Name":"Аносино","Info":"Глубина скважин - 87, 95 м.<br>КП \"Рига Парк\" - 93, 100 м.<br>Буровая компания ООО \"АкваБур\"<br>+7(495) 929-71-16<br>http://www.aqabur.ru/","LocationLat":55.8398952,"LocationLng":37.0089871},{"ID":107,"Name":"Ивановское","Info":"Глубина скважины 87, 86 м. (сероводород)<br>Буровая компания ООО \"АкваБур\"<br>+7(495) 929-71-16<br>http://www.aqabur.ru/","LocationLat":55.926091,"LocationLng":36.960545},{"ID":108,"Name":"Лисавино","Info":"Глубина скважины 113 м.<br>Буровая компания ООО \"АкваБур\"<br>+7(495) 929-71-16<br>http://www.aqabur.ru/","LocationLat":55.965214,"LocationLng":37.000259},{"ID":109,"Name":"Первомайский","Info":"Глубина скважин 40, 35 м.<br>Буровая компания ООО \"АкваБур\"<br>+7(495) 929-71-16<br>http://www.aqabur.ru/","LocationLat":55.912324,"LocationLng":36.806178},{"ID":110,"Name":"Турово","Info":"Глубина скважины 94, 110 м.<br>Буровая компания ООО \"АкваБур\"<br>+7(495) 929-71-16<br>http://www.aqabur.ru/","LocationLat":55.902984,"LocationLng":37.113132},{"ID":111,"Name":"Петровское","Info":"Глубина скважины 70 м.<br>Буровая компания ООО \"АкваБур\"<br>+7(495) 929-71-16<br>http://www.aqabur.ru/","LocationLat":55.903771,"LocationLng":37.08656},{"ID":112,"Name":"Чесноково","Info":"Глубина скважин - 84, 90 м.<br>Буровая компания ООО \"АкваБур\"<br>+7(495) 929-71-16<br>http://www.aqabur.ru/","LocationLat":55.782349,"LocationLng":37.047331},{"ID":113,"Name":"Елгозино","Info":"Глубина скважины 180 м.<br>Буровая компания ООО \"АкваБур\"<br>+7(495) 929-71-16<br>http://www.aqabur.ru/","LocationLat":56.23392,"LocationLng":36.359042},{"ID":114,"Name":"Клин","Info":"Глубина скважины 130,180,181 м.<br>Буровая компания ООО \"АкваБур\"<br>+7(495) 929-71-16<br>http://www.aqabur.ru/","LocationLat":56.344955,"LocationLng":36.72471},{"ID":115,"Name":"Троицкое","Info":"Глубина скважины 170 м.<br>Буровая компания ООО \"АкваБур\"<br>+7(495) 929-71-16<br>http://www.aqabur.ru/","LocationLat":56.302867,"LocationLng":36.496646},{"ID":116,"Name":"Болшое Карасево","Info":"Глубина скважины 27,67,79 м.<br>Буровая компания ООО \"АкваБур\"<br>+7(495) 929-71-16<br>http://www.aqabur.ru/","LocationLat":55.000864,"LocationLng":38.633441},{"ID":117,"Name":"Малое Уварово","Info":"Глубина скважины 30 м.<br>Буровая компания ООО \"АкваБур\"<br>+7(495) 929-71-16<br>http://www.aqabur.ru/","LocationLat":55.037417,"LocationLng":38.548568},{"ID":118,"Name":"Петрово-Дальнее","Info":"Глубина скважины 95,60 м.<br>Буровая компания ООО \"АкваБур\"<br>+7(495) 929-71-16<br>http://www.aqabur.ru/","LocationLat":55.748954,"LocationLng":37.178314},{"ID":119,"Name":"Нахабино","Info":"Глубина скважин 63,115,89,76 м.<br>Буровая компания ООО \"АкваБур\"<br>+7(495) 929-71-16<br>http://www.aqabur.ru/","LocationLat":55.848038,"LocationLng":37.171792},{"ID":120,"Name":"Аристово","Info":"Глубина скважин - 80, 92, 95, 125 м.<br>Буровая компания ООО \"АкваБур\"<br>+7(495) 929-71-16<br>http://www.aqabur.ru/","LocationLat":55.8939406,"LocationLng":37.2832187},{"ID":121,"Name":"Желябино","Info":"Глубина скважины 98,100, 96,102 м.<br>Буровая компания ООО \"АкваБур\"<br>+7(495) 929-71-16<br>http://www.aqabur.ru/","LocationLat":55.869051,"LocationLng":37.186201},{"ID":122,"Name":"Степановское","Info":"Глубина скважины 110 м.<br>Буровая компания ООО \"АкваБур\"<br>+7(495) 929-71-16<br>http://www.aqabur.ru/","LocationLat":55.776841,"LocationLng":37.142687},{"ID":123,"Name":"Большое Саврасово","Info":"Глубина скважины 85 м. 35 м.<br>Буровая компания ООО \"АкваБур\"<br>+7(495) 929-71-16<br>http://www.aqabur.ru/","LocationLat":55.496118,"LocationLng":37.913657},{"ID":124,"Name":"Валуево","Info":"Глубина скважин 65,80 м.<br>Буровая компания ООО \"АкваБур\"<br>+7(495) 929-71-16<br>http://www.aqabur.ru/","LocationLat":55.571296,"LocationLng":37.353027},{"ID":125,"Name":"Видное","Info":"Глубина скважин - 51, 70, 90, 100 м.<br>СНТ \"Реформа\" - 56 м.<br>Буровая компания ООО \"АкваБур\"<br>+7(495) 929-71-16<br>http://www.aqabur.ru/","LocationLat":55.546016,"LocationLng":37.6992389},{"ID":126,"Name":"Ватутинки","Info":"Глубина скважины - 57 м.<br>Яковлево - 65 м.<br>Буровая компания ООО \"АкваБур\"<br>+7(495) 929-71-16<br>http://www.aqabur.ru/","LocationLat":55.501773,"LocationLng":37.330776},{"ID":127,"Name":"Троицк","Info":"Глубина скважины 53,54 м.<br>Буровая компания ООО \"АкваБур\"<br>+7(495) 929-71-16<br>http://www.aqabur.ru/","LocationLat":55.479276,"LocationLng":37.294502},{"ID":128,"Name":"Григорчиково","Info":"Глубина скважины 80, 65,61 м.<br><br>Буровая компания ООО \"АкваБур\"<br>+7(495) 929-71-16<br>http://www.aqabur.ru/","LocationLat":55.513142,"LocationLng":37.898871},{"ID":129,"Name":"Десна","Info":"Глубина скважин - 35, 40, 63, 70 м.<br>Около реки 18 м.<br>СНТ \"Десна\" - 33 м.<br>Буровая компания ООО \"АкваБур\"<br>+7(495) 929-71-16<br>http://www.aqabur.ru/","LocationLat":55.523937,"LocationLng":37.376411},{"ID":130,"Name":"Дроздово","Info":"Глубина скважины 102 м.<br>Буровая компания ООО \"АкваБур\"<br>+7(495) 929-71-16<br>http://www.aqabur.ru/","LocationLat":55.604132,"LocationLng":37.800829},{"ID":131,"Name":"Картино","Info":"Глубина скважины 100,85 м.<br>Буровая компания ООО \"АкваБур\"<br>+7(495) 929-71-16<br>http://www.aqabur.ru/","LocationLat":55.588232,"LocationLng":37.784318},{"ID":132,"Name":"Суханово","Info":"Глубина скважины 60,65 м.<br>Буровая компания ООО \"АкваБур\"<br>+7(495) 929-71-16<br>http://www.aqabur.ru/","LocationLat":55.519677,"LocationLng":37.65373},{"ID":133,"Name":"Мисайлово","Info":"Глубина скважины 98,185 м.<br>Буровая компания ООО \"АкваБур\"<br>+7(495) 929-71-16<br>http://www.aqabur.ru/","LocationLat":55.563579,"LocationLng":37.817016},{"ID":134,"Name":"Красково","Info":"Глубина скважины 75, 70, 80 м., <br>ул. Новая стройка - 18 м (на песок)<br>СНТ \"Заречье\" - 31м<br>Буровая компания ООО \"АкваБур\"<br>+7(495) 929-71-16<br>http://www.aqabur.ru/","LocationLat":55.6576311,"LocationLng":37.9844404},{"ID":135,"Name":"Малаховка","Info":"Глубина скважин - 61, 62, 65, 70, 73, 75, 80 м.<br>ул. Толстого- 80 м.<br>ул. Герцена - 77 м.<br>ул. Мамина-Сибиряка - 76 м.                             ул. Шоссейная- 77м<br>Буровая компания \"АкваБур\"<br>+7(495) 929-71-16<br>http://www.aqabur.ru/","LocationLat":55.643668,"LocationLng":38.009031},{"ID":136,"Name":"Машково","Info":"Глубина скважины 32, 76 м.<br>Буровая компания ООО \"АкваБур\"<br>+7(495) 929-71-16<br>http://www.aqabur.ru/","LocationLat":55.686533,"LocationLng":37.974239},{"ID":137,"Name":"Лыткарино","Info":"Глубина скважин 48, 75, 98, 40 м.<br>Буровая компания ООО \"АкваБур\"<br>+7(495) 929-71-16<br>http://www.aqabur.ru/","LocationLat":55.576839,"LocationLng":37.923476},{"ID":138,"Name":"Томилино","Info":"Глубина скважин - 54, 74, 80 м.<br>ул. Гаршина - 73 м.<br>ул. Серафимовича - 70 м.<br>Буровая компания ООО \"АкваБур\"<br>+7(495) 929-71-16<br>http://www.aqabur.ru/","LocationLat":55.654741,"LocationLng":37.94526},{"ID":139,"Name":"Вешки","Info":"Глубина скважин - 92, 110 м.<br>Буровая компания ООО \"АкваБур\"<br>+7(495) 929-71-16<br>http://www.aqabur.ru/","LocationLat":55.926282,"LocationLng":37.611724},{"ID":140,"Name":"Болтино","Info":"Глубина скважины 109 м.<br>Буровая компания ООО \"АкваБур\"<br>+7(495) 929-71-16<br>http://www.aqabur.ru/","LocationLat":55.96803,"LocationLng":37.670492},{"ID":141,"Name":"Жостово","Info":"Глубина скважины 82 м.<br>Буровая компания ООО \"АкваБур\"<br>+7(495) 929-71-16<br>http://www.aqabur.ru/","LocationLat":56.00538,"LocationLng":37.64728},{"ID":142,"Name":"Лобня","Info":"Глубина скважин - 85, 117, 125 м.<br>Буровая компания ООО \"АкваБур\"<br>+7(495) 929-71-16<br>http://www.aqabur.ru/","LocationLat":56.033877,"LocationLng":37.469764},{"ID":143,"Name":"Марфино","Info":"Глубина скважины 86 м.<br>Буровая компания ООО \"АкваБур\"<br>+7(495) 929-71-16<br>http://www.aqabur.ru/","LocationLat":56.073665,"LocationLng":37.5577},{"ID":144,"Name":"Осташково","Info":"Глубина скважины 70 м.<br>Буровая компания ООО \"АкваБур\"<br>+7(495) 929-71-16<br>http://www.aqabur.ru/","LocationLat":55.998665,"LocationLng":37.593749},{"ID":145,"Name":"Ульянково","Info":"Глубина скважины 64 м.<br>Буровая компания ООО \"АкваБур\"<br>+7(495) 929-71-16<br>http://www.aqabur.ru/","LocationLat":56.000356,"LocationLng":37.71141},{"ID":146,"Name":"Борисово","Info":"Глубина скважин - 71, 100 м.<br>СНТ \"Берег-2\" - 74 м. (самоизлив).<br>ДНП \"Прибрежный\" - 67 м (самоизлив)<br>Буровая компания \"АкваБур\"<br>+7(495) 929-71-16<br>http://www.aqabur.ru/","LocationLat":55.418809,"LocationLng":36.051243},{"ID":147,"Name":"Тропарево","Info":"Глубина скважины 60 м.<br>Буровая компания ООО \"АкваБур\"<br>+7(495) 929-71-16<br>http://www.aqabur.ru/","LocationLat":55.376416,"LocationLng":35.900308},{"ID":148,"Name":"Клементьево","Info":"Глубина скважин - 43, 55, 60 м.<br>КП \"Тихие просторы\" - 50 м, 51 м<br>Буровая компания ООО \"АкваБур\"<br>+7(495) 929-71-16<br>http://www.aqabur.ru/","LocationLat":55.6460762,"LocationLng":36.0311107},{"ID":149,"Name":"Шаликово","Info":"Глубина скважин - 41, 42, 43 м.<br>СНТ \"Ока\" - 69 м.<br>ул. Лесная - 42 м.<br>ДНП \"Захарьино-2\" - 47 м.<br>ДНП \"Можайское раздолье\" - 50 м.<br>Буровая компания  \"АкваБур\"<br>+7(495) 929-71-16<br>http://www.aqabur.ru/","LocationLat":55.512398,"LocationLng":36.219758},{"ID":150,"Name":"Рогозинино","Info":"Глубина скважины 75 м - ул. Луговая<br>Буровая компания ООО \"АкваБур\"<br>+7(495) 929-71-16<br>http://www.aqabur.ru/","LocationLat":55.536787,"LocationLng":37.194116},{"ID":151,"Name":"Верея","Info":"Глубина скважин - 48, 67 м.<br>СНТ \"Берёза\" - 33 м.<br>Буровая компания ООО \"АкваБур\"<br>+7(495) 929-71-16<br>http://www.aqabur.ru/","LocationLat":55.344923,"LocationLng":36.1798652},{"ID":152,"Name":"Башкино","Info":"Глубина скважин - 35 м.<br>КИЗ Гамби - 43, 49 м.<br>Буровая компания ООО \"АкваБур\"<br>+7(495) 929-71-16<br>http://www.aqabur.ru/","LocationLat":55.319464,"LocationLng":36.670317},{"ID":153,"Name":"Жихарево","Info":"Глубина скважины 82 м.<br>Буровая компания ООО \"АкваБур\"<br>+7(495) 929-71-16<br>http://www.aqabur.ru/","LocationLat":55.4842829,"LocationLng":36.6322429},{"ID":154,"Name":"Крекшино","Info":"Глубина скважин 65,70 м.<br>Буровая компания \"АкваБур\"<br>+7(495) 929-71-16<br>http://www.aqabur.ru/","LocationLat":55.5802811,"LocationLng":37.1242519},{"ID":155,"Name":"Кокошкино","Info":"Глубина скважин -  65, 69, 70 м.<br>Буровая компания ООО \"АкваБур\"<br>+7(495) 929-71-16<br>http://www.aqabur.ru/","LocationLat":55.6019,"LocationLng":37.174074},{"ID":156,"Name":"Могутово","Info":"Глубина скважины 48, 60 м.<br>СНТ \"Ветеран\" - 56 м.<br>Буровая компания ООО \"АкваБур\"<br>+7(495) 929-71-16<br>http://www.aqabur.ru/","LocationLat":55.354435,"LocationLng":36.892129},{"ID":157,"Name":"Настасьино","Info":"Глубина скважины 45 м.<br>Буровая компания ООО \"АкваБур\"<br>+7(495) 929-71-16<br>http://www.aqabur.ru/","LocationLat":55.532314,"LocationLng":37.129212},{"ID":158,"Name":"Шапкино","Info":"Глубина скважин 97 м.<br>КП \"Лесные пруды\" - 77 м.<br>Буровая компания ООО \"АкваБур\"<br>+7(495) 929-71-16<br>http://www.aqabur.ru/","LocationLat":55.36071,"LocationLng":36.547499},{"ID":159,"Name":"Авдотьино","Info":"Глубина скважин 63,102 м.<br>Буровая компания ООО \"АкваБур\"<br>+7(495) 929-71-16<br>http://www.aqabur.ru/","LocationLat":55.92485,"LocationLng":38.234751},{"ID":160,"Name":"Ивашево","Info":"Глубина скважины 102 м.<br>Буровая компания ООО \"АкваБур\"<br>+7(495) 929-71-16<br>http://www.aqabur.ru/","LocationLat":55.805052,"LocationLng":38.294471},{"ID":161,"Name":"Ельня","Info":"Глубина скважин 35, 40 м.<br>Буровая компания ООО \"АкваБур\"<br>+7(495) 929-71-16<br>http://www.aqabur.ru/","LocationLat":55.843434,"LocationLng":38.338192},{"ID":162,"Name":"Стулово","Info":"Глубина скважины 27, 41 - с/т Энергия <br>33 м. <br>КП \"Родничок - 32, 34 м<br>Буровая компания \"АкваБур\"<br>+7(495) 929-71-16<br>http://www.aqabur.ru/","LocationLat":55.847978,"LocationLng":38.301127},{"ID":163,"Name":"Пашуково","Info":"Глубина скважины 96, 37 м.<br>Буровая компания ООО \"АкваБур\"<br>+7(495) 929-71-16<br>http://www.aqabur.ru/","LocationLat":55.907899,"LocationLng":38.259014},{"ID":164,"Name":"Пешково","Info":"Глубина скважины 35, 36, 38 м.<br>Мкрн \"Солнечный\" 40 м<br>Буровая компания  \"АкваБур\"<br>+7(495) 929-71-16<br>http://www.aqabur.ru/","LocationLat":55.854457,"LocationLng":38.3984264},{"ID":165,"Name":"Горки-10","Info":"Глубина скважин 80,103 м.<br>Буровая компания ООО \"АкваБур\"<br>+7(495) 929-71-16<br>http://www.aqabur.ru/","LocationLat":55.705539,"LocationLng":37.022259},{"ID":166,"Name":"Ершово","Info":"Глубина скважин 60, 99, 105 м.<br>Буровая компания ООО \"АкваБур\"<br>+7(495) 929-71-16<br>http://www.aqabur.ru/","LocationLat":55.767215,"LocationLng":36.85943},{"ID":167,"Name":"Жаворонки","Info":"Глубина скважины 92, 88, 110м.<br>Буровая компания ООО \"АкваБур\"<br>+7(495) 929-71-16<br>http://www.aqabur.ru/","LocationLat":55.648524,"LocationLng":37.093109},{"ID":168,"Name":"Клопово","Info":"Глубина скважин 103,60 м.<br>Буровая компания ООО \"АкваБур\"<br>+7(495) 929-71-16<br>http://www.aqabur.ru/","LocationLat":55.694703,"LocationLng":36.851067},{"ID":169,"Name":"Кезьмино","Info":"Глубина скважины 77, 82 м.<br>Буровая компания ООО \"АкваБур\"<br>+7(495) 929-71-16<br>http://www.aqabur.ru/","LocationLat":55.792979,"LocationLng":36.912},{"ID":170,"Name":"Лесной Городок","Info":"Глубина скважины 94 м.<br>Буровая компания ООО \"АкваБур\"<br>+7(495) 929-71-16<br>http://www.aqabur.ru/","LocationLat":55.641016,"LocationLng":37.207716},{"ID":171,"Name":"Малые Вяземы","Info":"Глубина скважин 80,105 м.<br>Буровая компания ООО \"АкваБур\"<br>+7(495) 929-71-16<br>http://www.aqabur.ru/","LocationLat":55.632571,"LocationLng":37.022214},{"ID":172,"Name":"Одинцово","Info":"Глубина скважины 98,119 м.<br>Буровая компания ООО \"АкваБур\"<br>+7(495) 929-71-16<br>http://www.aqabur.ru/","LocationLat":55.670539,"LocationLng":37.270769},{"ID":173,"Name":"Успенское","Info":"Глубина скважин 80,90, 127 м.<br>Буровая компания ООО \"АкваБур\"<br>+7(495) 929-71-16<br>http://www.aqabur.ru/","LocationLat":55.715145,"LocationLng":37.070453},{"ID":174,"Name":"Шульгино","Info":"Глубина скважины 87 м.<br>Буровая компания ООО \"АкваБур\"<br>+7(495) 929-71-16<br>http://www.aqabur.ru/","LocationLat":55.724393,"LocationLng":37.294691},{"ID":175,"Name":"Ямищево","Info":"Глубина скважины 85 м.<br>Буровая компания ООО \"АкваБур\"<br>+7(495) 929-71-16<br>http://www.aqabur.ru/","LocationLat":55.618496,"LocationLng":37.144169},{"ID":176,"Name":"Острово","Info":"Глубина скважины 39 м.<br>Буровая компания ООО \"АкваБур\"<br>+7(495) 929-71-16<br>http://www.aqabur.ru/","LocationLat":55.681306,"LocationLng":38.871216},{"ID":177,"Name":"Хотеичи","Info":"Глубина скважины 86 м.<br>Буровая компания ООО \"АкваБур\"<br>+7(495) 929-71-16<br>http://www.aqabur.ru/","LocationLat":55.5034,"LocationLng":38.781457},{"ID":178,"Name":"Назарьево","Info":"Глубина скважины 25, 23, 24, 26, 32 м.<br>Петровский луч - 27 м.       <br>Ул.Железнодорожная - 32 м                        Буровая компания \"АкваБур\"<br>+7(495) 929-71-16<br>http://www.aqabur.ru/","LocationLat":55.750641,"LocationLng":38.777648},{"ID":179,"Name":"Борисовка","Info":"Глубина скважины 64 м.<br>Буровая компания ООО \"АкваБур\"<br>+7(495) 929-71-16<br>http://www.aqabur.ru/","LocationLat":55.479072,"LocationLng":37.603181},{"ID":180,"Name":"Быковка","Info":"Глубина скважины 34,62 м.<br>Буровая компания ООО \"АкваБур\"<br>+7(495) 929-71-16<br>http://www.aqabur.ru/","LocationLat":55.477454,"LocationLng":37.620213},{"ID":181,"Name":"Вороново","Info":"Глубина скважин - 40, 50, 61, 70 м.<br>СНТ \"Электрик\" - 65 м.<br>Буровая компания ООО \"АкваБур\"<br>+7(495) 929-71-16<br>http://www.aqabur.ru/","LocationLat":55.3230463,"LocationLng":37.1593394},{"ID":182,"Name":"Кленово","Info":"Глубина скважин - 35, 42, 43, 65 м.<br>п. Звезда 95 - 41 м.<br>Буровая компания ООО \"АкваБур\"<br>+7(495) 929-71-16<br>http://www.aqabur.ru/","LocationLat":55.322389,"LocationLng":37.357052},{"ID":183,"Name":"Ерино","Info":"Глубина скважины 76 м.<br>Буровая компания ООО \"АкваБур\"<br>+7(495) 929-71-16<br>http://www.aqabur.ru/","LocationLat":55.4548566,"LocationLng":37.505715},{"ID":184,"Name":"Новогромово","Info":"Глубина скважин 41, 50, 33,53, 62 м.<br>Буровая компания ООО \"АкваБур\"<br>+7(495) 929-71-16<br>http://www.aqabur.ru/","LocationLat":55.274185,"LocationLng":37.234387},{"ID":185,"Name":"Подольск","Info":"Глубина скважин 24, 30,44,39,57,63,86 м.<br>Буровая компания ООО \"АкваБур\"<br>+7(495) 929-71-16<br>http://www.aqabur.ru/","LocationLat":55.439196,"LocationLng":37.544997},{"ID":186,"Name":"Потапово","Info":"Глубина скважины 55,74, 100 м. <br>Буровая компания ООО \"АкваБур\"<br>+7(495) 929-71-16<br>http://www.aqabur.ru/","LocationLat":55.510752,"LocationLng":37.673987},{"ID":187,"Name":"Щербинка","Info":"Глубина скважины 25,75,90 м.<br>Буровая компания ООО \"АкваБур\"<br>+7(495) 929-71-16<br>http://www.aqabur.ru/","LocationLat":55.504894,"LocationLng":37.550666},{"ID":188,"Name":"Холопово","Info":"Глубина скважины 33 м.<br>Буровая компания ООО \"АкваБур\"<br>+7(495) 929-71-16<br>http://www.aqabur.ru/","LocationLat":55.457424,"LocationLng":37.641854},{"ID":189,"Name":"Бортнево, Новое Бортнево","Info":"Глубина скважины 77 ,185м.<br>Буровая компания ООО \"АкваБур\"<br>+7(495) 929-71-16<br>http://www.aqabur.ru/","LocationLat":56.154846,"LocationLng":37.807458},{"ID":190,"Name":"Братовщина","Info":"Глубина скважины 82,98,133, ул. Липки - 93 м.<br>Буровая компания ООО \"АкваБур\"<br>+7(495) 929-71-16<br>http://www.aqabur.ru/","LocationLat":56.052054,"LocationLng":37.878021},{"ID":191,"Name":"Герасимиха","Info":"Глубина скважины на песок 30 м.,<br>Известняк 188, 167 м.                                                Буровая компания ООО \"АкваБур\"<br>+7(495) 929-71-16<br>http://www.aqabur.ru/","LocationLat":56.221349,"LocationLng":37.778883},{"ID":192,"Name":"Степаньково","Info":"Глубина скважины 178,105 м.<br>Буровая компания ООО \"АкваБур\"<br>+7(495) 929-71-16<br>http://www.aqabur.ru/","LocationLat":56.065364,"LocationLng":37.813136},{"ID":193,"Name":"Лесные Поляны","Info":"Глубина скважины 55 м.<br>Буровая компания ООО \"АкваБур\"<br>+7(495) 929-71-16<br>http://www.aqabur.ru/","LocationLat":55.959666,"LocationLng":37.865624},{"ID":194,"Name":"Пушкино","Info":"Глубина скважин - 43, 49, 67, 70, 82, 90, 100 м.<br>СНТ \"Сосенки\" - 50 м.<br>мкр. Заветы Ильича - 69 м.<br>Буровая компания ООО \"АкваБур\"<br>+7(495) 929-71-16<br>http://www.aqabur.ru/","LocationLat":55.9871198,"LocationLng":37.8435832},{"ID":195,"Name":"Черкизово","Info":"Глубина скважины 61 м.<br>Буровая компания ООО \"АкваБур\"<br>+7(495) 929-71-16<br>http://www.aqabur.ru/","LocationLat":55.962332,"LocationLng":37.793813},{"ID":196,"Name":"Антоново","Info":"Глубина скважин - 24, 35, 38, 67  м.<br>ул. Совхозная - 55 м.<br>Буровая компания ООО \"АкваБур\"<br>+7(495) 929-71-16<br>http://www.aqabur.ru/","LocationLat":55.577261,"LocationLng":38.579003},{"ID":197,"Name":"Бояркино","Info":"Глубина скважины 47, 65, 70, 79, 84 м.<br>ДНП \"Старая мельница\" 79 м.<br>КП \"Ромашкино\" - 48, 50, 55, 56 м.<br>Буровая компания ООО \"АкваБур\"<br>+7(495) 929-71-16<br>http://www.aqabur.ru/","LocationLat":55.456182,"LocationLng":38.3008572},{"ID":198,"Name":"Бронницы","Info":"Глубина скважин - 42, 45, 60 м.<br>п. \"Белаго\" - 65м.<br>СНТ \"Ромашкино\" - 55 м.<br>Буровая компания ООО \"АкваБур\"<br>+7(495) 929-71-16<br>http://www.aqabur.ru/","LocationLat":55.419524,"LocationLng":38.250885},{"ID":199,"Name":"Воскресенское","Info":"Глубина скважины 95 м.<br>Буровая компания ООО \"АкваБур\"<br>+7(495) 929-71-16<br>http://www.aqabur.ru/","LocationLat":55.4239982,"LocationLng":38.0551068},{"ID":200,"Name":"Вялки","Info":"Глубина скважин - 32, 45, 73, 85, 90, 92, 95 м.<br>ул. Новослободская - 87 м.<br>ул. 1-я Ясная - 91 м.<br>ул.Звездная - 111м<br>Буровая компания \"АкваБур\"<br>+7(495) 929-71-16<br>http://www.aqabur.ru/","LocationLat":55.6528765,"LocationLng":38.091997},{"ID":201,"Name":"Дементьево","Info":"Глубина скважины 55 м.<br>Буровая компания ООО \"АкваБур\"<br>+7(495) 929-71-16<br>http://www.aqabur.ru/","LocationLat":55.610895,"LocationLng":38.290455},{"ID":202,"Name":"Жуково","Info":"Глубина скважины 70, 65,40, 46 м.<br>Буровая компания ООО \"АкваБур\"<br>+7(495) 929-71-16<br>http://www.aqabur.ru/","LocationLat":55.505956,"LocationLng":38.015785},{"ID":203,"Name":"Захарово","Info":"Глубина скважины 60,77 м.<br>Буровая компания ООО \"АкваБур\"<br>+7(495) 929-71-16<br>http://www.aqabur.ru/","LocationLat":55.409907,"LocationLng":38.363731},{"ID":204,"Name":"Зеленая Слобода","Info":"Глубина скважины 40 м.<br>Буровая компания ООО \"АкваБур\"<br>+7(495) 929-71-16<br>http://www.aqabur.ru/","LocationLat":55.526699,"LocationLng":37.998763},{"ID":205,"Name":"Ильинский","Info":"Глубина скважин - 80, 81, 84 м.<br>ул. Островского - 24 м.<br>Бывший Пивзавод - 98 м.<br>ул. Некрасова - 70 м.<br>ул. Гоголя - 81 м.<br>ул. 40 лет Октября - 85 м.<br>ул. Октябрьская - 84 м.<br>ул. Хрипаньское поле - 93 м.<br>Буровая компания ООО \"АкваБур\"<br>+7(495) 929-71-16<br>http://www.aqabur.ru/","LocationLat":55.6237088,"LocationLng":38.1056332},{"ID":206,"Name":"Кратово","Info":"Глубина скважин - 54, 61, 78, 79, 80, 89, 90 м.<br>ул. Гоголя -75 м.<br>ул. Народная - 81 м.<br>ул. Октябрьская - 70, 80 м.<br>ул. Красковская - 66 м.<br>ул. Нижняя Береговая - 85 м.<br>ул. Кирова - 74 м.<br>ул. Бирюза - 105 м.<br>ул. Сосновая - 70 м.<br>ул. Маяковского - 75 м.<br>ул. Толстого - 83, 87 м.<br>ул. Яблочкова - 89 м.<br>ул. Фрезерная - 86 м.<br>ул. Менделеева - 70 м.<br>ул. Дружная - 70 м.<br>ул. 3-я Западная - 85 м.<br>ул. Муромская - 72 м.<br>ул. Кооперативная - 73 м.<br>ул. Большая Московская - 72 м.<br>ул. Интернациональная - 87 м.<br>ул. Кратовская - 55 м.<br>ул. Конечная - 75 м.<br>Буровая компания \"АкваБур\"<br>+7(495) 929-71-16<br>http://www.aqabur.ru/","LocationLat":55.596981,"LocationLng":38.162868},{"ID":207,"Name":"Литвиново","Info":"Глубина скважин 66,62,59,73,60 м. ДНП Литвиново-2009 , ул. Радужная, 60 м <br>Буровая компания  \"АкваБур\"<br>+7(495) 929-71-16<br>http://www.aqabur.ru/","LocationLat":55.539614,"LocationLng":38.319058},{"ID":208,"Name":"Михнево","Info":"Глубина скважины 72 м.<br>Буровая компания ООО \"АкваБур\"<br>+7(495) 929-71-16<br>http://www.aqabur.ru/","LocationLat":55.620021,"LocationLng":37.999707},{"ID":209,"Name":"Никитское","Info":"Глубина скважин - 40, 42, 51, 60, 63 м.<br>СНТ \" Яблоневая Усадьба\" - 43 м.<br>Буровая компания \"АкваБур\"<br>+7(495) 929-71-16<br>http://www.aqabur.ru/","LocationLat":55.299563,"LocationLng":38.4627897},{"ID":210,"Name":"Осеченки","Info":"Глубина скважин 60,95,75 м.<br>Буровая компания ООО \"АкваБур\"<br>+7(495) 929-71-16<br>http://www.aqabur.ru/","LocationLat":55.656458,"LocationLng":38.105807},{"ID":211,"Name":"Островцы","Info":"Глубина скважин - 42,5; 50; 65; 80 м.<br>ул. 3-я Лесная - 65 м.<br>ул. Совхозная - 60м<br>Буровая компания \"АкваБур\"<br>+7(495) 929-71-16<br>http://www.aqabur.ru/","LocationLat":55.590969,"LocationLng":37.994416},{"ID":212,"Name":"Полушкино","Info":"Глубина скважин - 38, 42, 80, 90 м., <br>СНТ \"Юбилейное\" - 40 м.<br>СНТ \"Ясная поляна\" - 20 м.<br>сп. Вялковское ул. Солнечная - 42 м.<br>Буровая компания ООО \"АкваБур\"<br>+7(495) 929-71-16<br>http://www.aqabur.ru/","LocationLat":55.6871557,"LocationLng":38.0906478},{"ID":213,"Name":"Речицы","Info":"Глубина скважин - 70, 74, 80 м.<br>СНТ \"Русь\" - 25 м.<br>СНТ \"Росток-1\" - 19 м<br>Буровая компания \"АкваБур\"<br>+7(495) 929-71-16<br>http://www.aqabur.ru/","LocationLat":55.5998673,"LocationLng":38.4639377},{"ID":214,"Name":"Родники","Info":"Глубина скважин - 60, 65, 73, 75, 76, 87, 89, 92 м. СНТ \"Здоровье\" - 80, 85 м.<br>ул. Рябиновая - 92 м.<br>ул. Вертолётная - 82 м.<br>ул. Геонедр - 89 м.<br>ул. 300 лет флота - 80, 87 м.  <br>Буровая компания ООО \"АкваБур\"<br>+7(495) 929-71-16<br>http://www.aqabur.ru/","LocationLat":55.650282,"LocationLng":38.06205},{"ID":215,"Name":"Салтыково","Info":"Глубина скважин - 23, 31, 42, 55, 80 м.<br>СНТ \"Долина озёр\" - 35 м.<br>Буровая компания ООО \"АкваБур\"<br>+7(495) 929-71-16<br>http://www.aqabur.ru/","LocationLat":55.385213,"LocationLng":38.123665},{"ID":216,"Name":"Синьково","Info":"Глубина скважин - 42, 46, 49, 55, 56, 57, 58, 60, 62 м.<br>КП \"Берёзовый парк\" - 56, 58, 59, 60 м.<br>КП \"Берёзка\" - 42 м.<br>СНТ \"Берёзовая опушка\" - 49, 56, 57 м.<br>сп. Софьинское - 49 м.<br>Буровая компания \"АкваБур\"<br>+7(495) 929-71-16<br>http://www.aqabur.ru/","LocationLat":55.5087676,"LocationLng":38.1110838},{"ID":217,"Name":"Толмачево","Info":"Глубина скважин - 77 м.<br>СНТ \"Тюльпан\" - 55, 65 м.<br>КП \"Никоново\" - 52 м.<br>Буровая компания ООО \"АкваБур\"<br>+7(495) 929-71-16<br>http://www.aqabur.ru/","LocationLat":55.361574,"LocationLng":38.223989},{"ID":218,"Name":"Удельная","Info":"Глубина скважины 55,65,82 м.<br>Буровая компания ООО \"АкваБур\"<br>+7(495) 929-71-16<br>http://www.aqabur.ru/","LocationLat":55.634974,"LocationLng":38.041945},{"ID":219,"Name":"Федино","Info":"Глубина скважины 42,47 м.<br>Буровая компания ООО \"АкваБур\"<br>+7(495) 929-71-16<br>http://www.aqabur.ru/","LocationLat":55.416116,"LocationLng":38.31038},{"ID":220,"Name":"Фенино","Info":"Глубина скважины 82 м.<br>Буровая компания ООО \"АкваБур\"<br>+7(495) 929-71-16<br>http://www.aqabur.ru/","LocationLat":55.580243,"LocationLng":38.403859},{"ID":221,"Name":"Шилово","Info":"Глубина скважины 75 м.<br>Буровая компания ООО \"АкваБур\"<br>+7(495) 929-71-16<br>http://www.aqabur.ru/","LocationLat":55.5270311,"LocationLng":38.1336527},{"ID":222,"Name":"Юрово","Info":"Глубина скважин - 47, 48, 70, 73 м.<br>ул. Космонавтов - 75 м.<br>КП \"Лесной городок\" - 54 м.<br>СНТ \"Минерал\" - 80 м.<br>Буровая компания ООО \"АкваБур\"<br>+7(495) 929-71-16<br>http://www.aqabur.ru/","LocationLat":55.5086692,"LocationLng":38.3747512},{"ID":223,"Name":"Тучково","Info":"Глубина скважины 40,50,60 м.<br>Буровая компания ООО \"АкваБур\"<br>+7(495) 929-71-16<br>http://www.aqabur.ru/","LocationLat":55.59807,"LocationLng":36.463174},{"ID":224,"Name":"Товарково","Info":"Глубина скважины 60 м.<br>Буровая компания ООО \"АкваБур\"<br>+7(495) 929-71-16<br>http://www.aqabur.ru/","LocationLat":55.614399,"LocationLng":36.193159},{"ID":225,"Name":"Хотебцово","Info":"Глубина скважины 58 м.<br>Буровая компания ООО \"АкваБур\"<br>+7(495) 929-71-16<br>http://www.aqabur.ru/","LocationLat":55.776507,"LocationLng":36.180421},{"ID":226,"Name":"Абрамцево","Info":"Глубина скважины 163, 150 м. (11-20 песок)<br>Буровая компания ООО \"АкваБур\"<br>+7(495) 929-71-16<br>http://www.aqabur.ru/","LocationLat":56.217941,"LocationLng":37.966559},{"ID":227,"Name":"Игнатьево","Info":"Глубина скважины 74 м. (на песок).<br>Буровая компания ООО \"АкваБур\"<br>+7(495) 929-71-16<br>http://www.aqabur.ru/","LocationLat":56.408836,"LocationLng":38.216192},{"ID":228,"Name":"Лешково","Info":"Глубина скважин 128, 141, 143м.<br>Буровая компания ООО \"АкваБур\"<br>+7(495) 929-71-16<br>http://www.aqabur.ru/","LocationLat":56.201953,"LocationLng":38.078029},{"ID":229,"Name":"Ланьшино","Info":"Глубина скважины 48 м.<br>Буровая компания ООО \"АкваБур\"<br>+7(495) 929-71-16<br>http://www.aqabur.ru/","LocationLat":54.842662,"LocationLng":37.291915},{"ID":230,"Name":"Тульчино","Info":"Глубина скважин 53,67,68,69,73 м.<br>Тяжёлые геологические разрезы, начинать со 159 трубы.<br>Буровая компания ООО \"АкваБур\"<br>+7(495) 929-71-16<br>http://www.aqabur.ru/","LocationLat":54.834112,"LocationLng":37.707485},{"ID":231,"Name":"Московка","Info":"Глубина скважины 18, 63 м.<br>Буровая компания ООО \"АкваБур\"<br>+7(495) 929-71-16<br>http://www.aqabur.ru/","LocationLat":55.009419,"LocationLng":37.391233},{"ID":232,"Name":"Рыжиково","Info":"Глубина скважины 39 м.<br>Буровая компания ООО \"АкваБур\"<br>+7(495) 929-71-16<br>http://www.aqabur.ru/","LocationLat":55.040771,"LocationLng":37.445913},{"ID":233,"Name":"Подмоклово","Info":"Глубина скважин - 66, 73 м.<br>Буровая компания ООО \"АкваБур\"<br>+7(495) 929-71-16<br>http://www.aqabur.ru/","LocationLat":54.863839,"LocationLng":37.342607},{"ID":234,"Name":"Алексеевское","Info":"Глубина скважины 60 м.<br>Буровая компания ООО \"АкваБур\"<br>+7(495) 929-71-16<br>http://www.aqabur.ru/","LocationLat":56.099606,"LocationLng":36.976499},{"ID":235,"Name":"Бакеево","Info":"Глубина скважин - 115, 118 м.<br>КП \"Бакеево\" - 121, 135 м.<br>Буровая компания ООО \"АкваБур\"<br>+7(495) 929-71-16<br>http://www.aqabur.ru/","LocationLat":55.950186,"LocationLng":37.097178},{"ID":236,"Name":"Солнечногорск","Info":"Глубина скважины 120,130, 160,143 м.<br>Буровая компания ООО \"АкваБур\"<br>+7(495) 929-71-16<br>http://www.aqabur.ru/","LocationLat":56.185157,"LocationLng":36.977002},{"ID":237,"Name":"Соколово","Info":"Глубина скважин - 129, 165 м.<br>Буровая компания ООО \"АкваБур\"<br>+7(495) 929-71-16<br>http://www.aqabur.ru/","LocationLat":56.0368787,"LocationLng":36.9057801},{"ID":238,"Name":"Рузино","Info":"Глубина скважины 65,85м.<br>Буровая компания ООО \"АкваБур\"<br>+7(495) 929-71-16<br>http://www.aqabur.ru/","LocationLat":55.945322,"LocationLng":37.18789},{"ID":239,"Name":"Шахматово","Info":"Глубина скважины 169 м.<br>Буровая компания ООО \"АкваБур\"<br>+7(495) 929-71-16<br>http://www.aqabur.ru/","LocationLat":56.237719,"LocationLng":36.737201},{"ID":240,"Name":"Чашниково","Info":"Глубина скважины 87 м.<br>Буровая компания ООО \"АкваБур\"<br>+7(495) 929-71-16<br>http://www.aqabur.ru/","LocationLat":55.98789,"LocationLng":37.408588},{"ID":241,"Name":"Фирсановка","Info":"Глубина скважины 81, 82 м.<br>Буровая компания ООО \"АкваБур\"<br>+7(495) 929-71-16<br>http://www.aqabur.ru/","LocationLat":55.952711,"LocationLng":37.244268},{"ID":242,"Name":"Грызлово","Info":"Глубина скважин - 27 м.<br>ул. Александровская - 40 м. (разведочная скважина, воды нет).<br>Буровая компания ООО \"АкваБур\"<br>+7(495) 929-71-16<br>http://www.aqabur.ru/","LocationLat":55.021777,"LocationLng":37.822784},{"ID":243,"Name":"Верзилово","Info":"Глубина скважины 42 м.<br>Буровая компания ООО \"АкваБур\"<br>+7(495) 929-71-16<br>http://www.aqabur.ru/","LocationLat":55.024105,"LocationLng":38.089556},{"ID":244,"Name":"Воскресенки","Info":"Глубина скважины 21 м.<br>Буровая компания ООО \"АкваБур\"<br>+7(495) 929-71-16<br>http://www.aqabur.ru/","LocationLat":54.953246,"LocationLng":38.062885},{"ID":245,"Name":"Михнево","Info":"Глубина скважин - 35, 44 м.<br>КП \"Ясные зори\" - 48 м.<br>Буровая компания ООО \"АкваБур\"<br>+7(495) 929-71-16<br>http://www.aqabur.ru/","LocationLat":55.118771,"LocationLng":37.958294},{"ID":246,"Name":"Дубечино","Info":"Глубина скважины 25, 23 м.<br>Буровая компания ООО \"АкваБур\"<br>+7(495) 929-71-16<br>http://www.aqabur.ru/","LocationLat":55.077128,"LocationLng":37.742429},{"ID":247,"Name":"Жилево","Info":"Глубина скважины 25,36 м.<br>Буровая компания ООО \"АкваБур\"<br>+7(495) 929-71-16<br>http://www.aqabur.ru/","LocationLat":55.014205,"LocationLng":38.011708},{"ID":248,"Name":"Хомутово","Info":"Глубина скважин - 41, 42 м.<br>Буровая компания ООО \"АкваБур\"<br>+7(495) 929-71-16<br>http://www.aqabur.ru/","LocationLat":55.190996,"LocationLng":38.244749},{"ID":249,"Name":"Большое Курапово","Info":"Глубина скважины 100 м.<br>Буровая компания ООО \"АкваБур\"<br>+7(495) 929-71-16<br>http://www.aqabur.ru/","LocationLat":56.899488,"LocationLng":37.592033},{"ID":250,"Name":"Вербилки","Info":"Глубина скважины 105, 85,88,130,128,120,90,82,114 м.<br>Буровая компания ООО \"АкваБур\"<br>+7(495) 929-71-16<br>http://www.aqabur.ru/","LocationLat":56.534852,"LocationLng":37.59127},{"ID":251,"Name":"Петрино","Info":"Глубина скважины 98 м.<br>Буровая компания ООО \"АкваБур\"<br>+7(495) 929-71-16<br>http://www.aqabur.ru/","LocationLat":56.608571,"LocationLng":37.573878},{"ID":252,"Name":"Вашутино","Info":"Глубина скважины 66 м.<br>Буровая компания ООО \"АкваБур\"<br>+7(495) 929-71-16<br>http://www.aqabur.ru/","LocationLat":55.926171,"LocationLng":37.430345},{"ID":253,"Name":"Новогорск","Info":"Глубина скважины 79 м.<br>Буровая компания ООО \"АкваБур\"<br>+7(495) 929-71-16<br>http://www.aqabur.ru/","LocationLat":55.893031,"LocationLng":37.354222},{"ID":254,"Name":"Терехово","Info":"Глубина скважины 105 м.<br>Буровая компания ООО \"АкваБур\"<br>+7(495) 929-71-16<br>http://www.aqabur.ru/","LocationLat":55.930221,"LocationLng":37.482618},{"ID":255,"Name":"Алексеевка","Info":"Глубина скважин - 38, 60 м.<br>ул. Хуторская - 27 м.<br>СНТ \"Валынское\" - 28 м.<br>Буровая компания ООО \"АкваБур\"<br>+7(495) 929-71-16<br>http://www.aqabur.ru/","LocationLat":55.240307,"LocationLng":37.213205},{"ID":256,"Name":"Васькино","Info":"Глубина скважин - 25, 26(самоизл), 35, 41, 43 м.<br>ул. Радужная - 53 м.<br>КП \"Сосновый Аромат\" - 31, 32, 33, 35 м.<br>КП \"Соколиная гора\" - 35 м.<br>КП \"Земляничный\" - 37 м.<br>СНТ \"Боровик\" - 25 м.<br>Буровая компания ООО \"АкваБур\"<br>+7(495) 929-71-16<br>http://www.aqabur.ru/","LocationLat":55.1346885,"LocationLng":37.5986364},{"ID":257,"Name":"Крюково","Info":"Глубина скважин - 56, 63 м.<br>СНТ \"Ветеран\" - 34 м.<br>Буровая компания ООО \"АкваБур\"<br>+7(495) 929-71-16<br>http://www.aqabur.ru/","LocationLat":55.095992,"LocationLng":37.544108},{"ID":258,"Name":"Мещерское","Info":"Глубина скважин - 25, 39, 40, 45 м.<br>С/Т Дубрава - 43 м.<br>СНТ \"Дубрава\" - 41 м.<br>СНТ \" Мещерское\" - 38 м.<br>Буровая компания ООО \"АкваБур\"<br>+7(495) 929-71-16<br>http://www.aqabur.ru/","LocationLat":55.2686967,"LocationLng":37.6246675},{"ID":259,"Name":"Новоселки","Info":"Глубина скважин - 50, 60, 70 м.<br>Буровая компания ООО \"АкваБур\"<br>+7(495) 929-71-16<br>http://www.aqabur.ru/<br>29 м.","LocationLat":55.1295414,"LocationLng":37.5316447},{"ID":260,"Name":"Новый Быт","Info":"Глубина скважин - 23, 53 м.<br>Промзона - 21 м.<br>Буровая компания ООО \"АкваБур\"<br>+7(495) 929-71-16<br>http://www.aqabur.ru/","LocationLat":55.061127,"LocationLng":37.604834},{"ID":261,"Name":"Оксино","Info":"Глубина скважин 50 м.<br>Буровая компания ООО \"АкваБур\"<br>+7(495) 929-71-16<br>http://www.aqabur.ru/","LocationLat":55.158858,"LocationLng":37.598627},{"ID":262,"Name":"Растовка","Info":"Глубина скважины 53,25 м.<br>Буровая компания ООО \"АкваБур\"<br>+7(495) 929-71-16<br>http://www.aqabur.ru/","LocationLat":55.117824,"LocationLng":37.151086},{"ID":263,"Name":"Солнышково","Info":"Глубина скважин 30,40 м.<br>Буровая компания ООО \"АкваБур\"<br>+7(495) 929-71-16<br>http://www.aqabur.ru/","LocationLat":55.120516,"LocationLng":37.486445},{"ID":264,"Name":"Троицкое","Info":"Глубина скважин - 26, 32 м.<br>Буровая компания ООО \"АкваБур\"<br>+7(495) 929-71-16<br>http://www.aqabur.ru/","LocationLat":55.245691,"LocationLng":37.62855},{"ID":265,"Name":"Чепелево","Info":"Глубина скважин 35,39,40,41,42 м.<br>Буровая компания ООО \"АкваБур\"<br>+7(495) 929-71-16<br>http://www.aqabur.ru/","LocationLat":55.182274,"LocationLng":37.486993},{"ID":266,"Name":"Чудиново","Info":"Глубина скважин 44,49 м.<br>Буровая компания ООО \"АкваБур\"<br>+7(495) 929-71-16<br>http://www.aqabur.ru/","LocationLat":55.1518016,"LocationLng":37.5358771},{"ID":267,"Name":"Чехов","Info":"Глубина скважин - 32, 60 м.<br>ул. Гагарина - 51 м.<br>ул. Комсомольская - 25 м.<br>ул. Цветочная - 44 м.<br>СНТ \"Луч\" -  45 м.<br>Буровая компания ООО \"АкваБур\"<br>+7(495) 929-71-16<br>http://www.aqabur.ru/","LocationLat":55.149393,"LocationLng":37.454259},{"ID":268,"Name":"Плешкино","Info":"Глубина скважины 12, 57, 64 м.<br>Буровая компания ООО \"АкваБур\"<br>+7(495) 929-71-16<br>http://www.aqabur.ru/","LocationLat":55.033646,"LocationLng":37.583077},{"ID":269,"Name":"Лобаново","Info":"Глубина скважины 90 м.<br>Буровая компания ООО \"АкваБур\"<br>+7(495) 929-71-16<br>http://www.aqabur.ru/","LocationLat":56.04312,"LocationLng":35.540101},{"ID":270,"Name":"Корпуса","Info":"Глубина скважины 43 м.<br>Буровая компания ООО \"АкваБур\"<br>+7(495) 929-71-16<br>http://www.aqabur.ru/","LocationLat":55.876263,"LocationLng":38.234239},{"ID":271,"Name":"Супонево","Info":"Глубина скважины 56,61 м.<br>Буровая компания ООО \"АкваБур\"<br>+7(495) 929-71-16<br>http://www.aqabur.ru/","LocationLat":55.880485,"LocationLng":37.942089},{"ID":272,"Name":"Соколово","Info":"Глубина скважины 54 м.<br>Буровая компания ООО \"АкваБур\"<br>+7(495) 929-71-16<br>http://www.aqabur.ru/","LocationLat":55.856482,"LocationLng":38.132038},{"ID":273,"Name":"Свердловский","Info":"Глубина скважины 41,35 м.<br>ДНП \"Дубки\" - 56 м<br>Буровая компания \"АкваБур\"<br>+7(495) 929-71-16<br>http://www.aqabur.ru/","LocationLat":55.904756,"LocationLng":38.140257},{"ID":274,"Name":"Монино","Info":"Глубина скважины 50 м.<br>Буровая компания ООО \"АкваБур\"<br>+7(495) 929-71-16<br>http://www.aqabur.ru/","LocationLat":55.841574,"LocationLng":38.192252},{"ID":275,"Name":"Моносеево","Info":"Глубина скважины 51,50 м.<br>Буровая компания ООО \"АкваБур\"<br>+7(495) 929-71-16<br>http://www.aqabur.ru/","LocationLat":55.841058,"LocationLng":38.10887},{"ID":276,"Name":"Райки","Info":"Глубина скважин - 35, 41, 51 м.<br>СНТ \"Лужки\" - 43 м.<br>Буровая компания ООО \"АкваБур\"<br>+7(495) 929-71-16<br>http://www.aqabur.ru/","LocationLat":55.925173,"LocationLng":38.135676},{"ID":277,"Name":"Бражниково","Info":"Глубина скважин - 73, 78 м.<br>КП \"Пятница\" - 73 м.            <br>Буровая компания \"АкваБур\"<br>+7(495) 929-71-16<br>http://www.aqabur.ru/","LocationLat":55.841002,"LocationLng":35.8684024},{"ID":278,"Name":"Звенигород","Info":"Глубина скважин - 89, 93, 106, 140 м.- на горе.<br>46 м. - в низине<br>ГП \"Сурьмино-2\" - 81 м.<br>Буровая компания ООО \"АкваБур\"<br>+7(495) 929-71-16<br>http://www.aqabur.ru/","LocationLat":55.723901,"LocationLng":36.855648},{"ID":279,"Name":"Загорново","Info":"Глубина скважин 56,36 м. СНТ Золотая антилопа - 42<br>Буровая компания ООО \"АкваБур\"<br>+7(495) 929-71-16<br>http://www.aqabur.ru/","LocationLat":55.53343,"LocationLng":38.325202},{"ID":280,"Name":"Наро-Фоминск","Info":"Глубина скважины 57 м.<br>Буровая компания ООО \"АкваБур\"<br>+7(495) 929-71-16<br>http://www.aqabur.ru/","LocationLat":55.383014,"LocationLng":36.730675},{"ID":281,"Name":"Малоярославец","Info":"Удино<br>Глубина скважины 64, 107 м.<br>Буровая компания ООО \"АкваБур\"<br>+7(495) 929-71-16<br>http://www.aqabur.ru/","LocationLat":55.017669,"LocationLng":36.464845},{"ID":282,"Name":"Бритово","Info":"Глубина скважин - 49, 51,52, 54, 60, 65, 85 м.<br>Буровая компания \"АкваБур\"<br>+7(495) 929-71-16<br>http://www.aqabur.ru/","LocationLat":55.477929,"LocationLng":38.152115},{"ID":283,"Name":"Старая купавна","Info":"Глубина скважины 103 м.<br>Буровая компания ООО \"АкваБур\"<br>+7(495) 929-71-16<br>http://www.aqabur.ru/","LocationLat":55.803369,"LocationLng":38.160766},{"ID":284,"Name":"Хатунь","Info":"Глубина скважины 27 м.<br>СНТ \"Санта\" - 80, 85 м<br>Буровая компания ООО \"АкваБур\"<br>+7(495) 929-71-16<br>http://www.aqabur.ru/","LocationLat":55.002873,"LocationLng":37.828685},{"ID":285,"Name":"Хрипань","Info":"Глубина скважин - 80, 83, 85 (под ЛЭП), 86, 87, 90, 93, 95, 102 м.<br>ул. 2-я Рябиновая - 81 м.<br>ул. 5-я Рябиновая - 80 м.<br>ул. Садовая - 94 м.<br>Буровая компания ООО \"АкваБур\"<br>+7(495) 929-71-16<br>http://www.aqabur.ru/","LocationLat":55.62759,"LocationLng":38.158421},{"ID":286,"Name":"Пласкинино","Info":"Глубина скважин - 55 м.<br>КП \"Радужный\" - 70 м.<br>Буровая компания ООО \"АкваБур\"<br>+7(495) 929-71-16<br>http://www.aqabur.ru/","LocationLat":55.539976,"LocationLng":38.427431},{"ID":287,"Name":"Птичное","Info":"Глубина скважин 50,53,60,68,58,65, 63,82 м.<br>Буровая компания ООО \"АкваБур\"<br>+7(495) 929-71-16<br>http://www.aqabur.ru/","LocationLat":55.51881,"LocationLng":37.224865},{"ID":288,"Name":"Цюрупы","Info":"Глубина скважин 55, 57, 102 м.<br>ул. Радужная - 93 м.<br>ул. Левчинская - 82, 103 м,<br>ул. Юбилейная - 106 м.<br>ул. Красная - 95 м.<br>Буровая компания \"АкваБур\"<br>+7(495) 929-71-16<br>http://www.aqabur.ru/","LocationLat":55.490631,"LocationLng":38.66031},{"ID":289,"Name":"Малино","Info":"Глубина скважин 53,40 м.<br>Буровая компания ООО \"АкваБур\"<br>+7(495) 929-71-16<br>http://www.aqabur.ru/","LocationLat":55.108375,"LocationLng":38.177762},{"ID":290,"Name":"Горки-8","Info":"Глубина скважины 110 м.<br>Буровая компания ООО \"АкваБур\"<br>+7(495) 929-71-16<br>http://www.aqabur.ru/","LocationLat":55.7050905,"LocationLng":37.1535034},{"ID":291,"Name":"Воскресенск","Info":"Глубина скважин - 31, 50 м.<br>ул. Барышевская - 30, 33 м.<br>Буровая компания ООО \"АкваБур\"<br>+7(495) 929-71-16<br>http://www.aqabur.ru/","LocationLat":55.31701,"LocationLng":38.672608},{"ID":292,"Name":"Москва Шоссейная улица, 82с1","Info":"Глубина скважины 85 м.<br>Буровая компания ООО \"АкваБур\"<br>+7(495) 929-71-16<br>http://www.aqabur.ru/","LocationLat":55.669671,"LocationLng":37.71883},{"ID":293,"Name":"Сабурово","Info":"Глубина скважин 95,120, 115 м.<br>Буровая компания ООО \"АкваБур\"<br>+7(495) 929-71-16<br>http://www.aqabur.ru/","LocationLat":55.879738,"LocationLng":37.265828},{"ID":294,"Name":"Троицк","Info":"Глубина скважины 24 м.<br>Буровая компания ООО \"АкваБур\"<br>+7(495) 929-71-16<br>http://www.aqabur.ru/","LocationLat":55.475597,"LocationLng":37.296964},{"ID":295,"Name":"Бортнево","Info":"Глубина скважин 28,26,32,35,25 м.<br>Буровая компания ООО \"АкваБур\"<br>+7(495) 929-71-16<br>http://www.aqabur.ru/","LocationLat":55.1409342,"LocationLng":37.6339605},{"ID":296,"Name":"Алексеевская","Info":"Глубина скважины 60 м.<br>Буровая компания ООО \"АкваБур\"<br>+7(495) 929-71-16<br>http://www.aqabur.ru/","LocationLat":55.487234,"LocationLng":38.817865},{"ID":297,"Name":"Подосинки","Info":"Глубина скважины 60,184 м.<br>Буровая компания ООО \"АкваБур\"<br>+7(495) 929-71-16<br>http://www.aqabur.ru/","LocationLat":56.203633,"LocationLng":37.548294},{"ID":298,"Name":"Никитское","Info":"Глубина скважин - 31, 35, 62, 65 м.<br>СНТ \"Ласточка\" - 53 м.<br>Буровая компания ООО \"АкваБур\"<br>+7(495) 929-71-16<br>http://www.aqabur.ru/","LocationLat":55.408455,"LocationLng":37.738198},{"ID":299,"Name":"Марфино","Info":"Глубина скважины 132 м.<br>Буровая компания ООО \"АкваБур\"<br>+7(495) 929-71-16<br>http://www.aqabur.ru/","LocationLat":55.7029273,"LocationLng":37.3833281},{"ID":300,"Name":"район Крылатское Москва","Info":"Глубина скважины 60 м.<br>Буровая компания ООО \"АкваБур\"<br>+7(495) 929-71-16<br>http://www.aqabur.ru/","LocationLat":55.761036,"LocationLng":37.415119},{"ID":301,"Name":"Лукошкино","Info":"Глубина скважин - 42 м.<br>СНТ \"Лукошкино\" - 34, 37 м.<br>Буровая компания \"АкваБур\"<br>+7(495) 929-71-16<br>http://www.aqabur.ru/","LocationLat":55.32369,"LocationLng":37.266232},{"ID":302,"Name":"Константиновское","Info":"Глубина скважины 40 м.<br>Буровая компания ООО \"АкваБур\"<br>+7(495) 929-71-16<br>http://www.aqabur.ru/","LocationLat":55.158966,"LocationLng":37.965643},{"ID":303,"Name":"Жуковка","Info":"Глубина скважин - 78, 129 м.<br>Буровая компания ООО \"АкваБур\"<br>+7(495) 929-71-16<br>http://www.aqabur.ru/","LocationLat":55.738242,"LocationLng":37.25318},{"ID":304,"Name":"Зеленково","Info":"Глубина скважины 75, 70 м.<br>Буровая компания ООО \"АкваБур\"<br>+7(495) 929-71-16<br>http://www.aqabur.ru/","LocationLat":55.835058,"LocationLng":37.069115},{"ID":305,"Name":"Становое","Info":"Глубина скважин - 60, 61, 63 м.<br>Буровая компания ООО \"АкваБур\"<br>+7(495) 929-71-16<br>http://www.aqabur.ru/","LocationLat":55.4988112,"LocationLng":38.1390276},{"ID":306,"Name":"Воровского","Info":"Глубина скважин - 60 м.<br>ул. Полевая - 60, 69 м.<br>СНТ \"Ветеран\" - 51, 66 м.<br>СНТ \"Гипрокаучук\" - 65 м.<br>СНТ \"Транспорт\" - 56 м.<br>СНТ \"Светлячок -2\" - 47 м.<br>СНТ \"Дзержинец\" - 50 м <br>Буровая компания \"АкваБур\"<br>+7(495) 929-71-16<br>http://www.aqabur.ru/","LocationLat":55.732417,"LocationLng":38.305698},{"ID":307,"Name":"Киселиха","Info":"Глубина скважин 54,45,53,61 м.<br>Буровая компания ООО \"АкваБур\"<br>+7(495) 929-71-16<br>http://www.aqabur.ru/","LocationLat":55.475761,"LocationLng":37.797972},{"ID":308,"Name":"Конобеево","Info":"Глубина скважин - 60, 75, 80 м, 61<br>ул. Центральная - 60<br>Буровая компания \"АкваБур\"<br>+7(495) 929-71-16<br>http://www.aqabur.ru/","LocationLat":55.407131,"LocationLng":38.664289},{"ID":309,"Name":"Ступино","Info":"Глубина скважины 91 м.<br>Буровая компания ООО \"АкваБур\"<br>+7(495) 929-71-16<br>http://www.aqabur.ru/","LocationLat":54.887269,"LocationLng":38.071482},{"ID":310,"Name":"Поливаново","Info":"Глубина скважины 69,75 м.<br>Буровая компания ООО \"АкваБур\"<br>+7(495) 929-71-16<br>http://www.aqabur.ru/","LocationLat":55.392669,"LocationLng":37.620025},{"ID":311,"Name":"Серебрянь","Info":"Глубина скважин - 34, 37, 41, 45, 48 м.<br>ул. Пронская - 41 м.<br>Буровая компания ООО \"АкваБур\"<br>+7(495) 929-71-16<br>http://www.aqabur.ru/","LocationLat":54.246508,"LocationLng":38.834574},{"ID":312,"Name":"Электросталь","Info":"Глубина скважин - 43, 50, 108 м.<br>СНТ \"Медик\" - 39, 46, 47 м.<br>СНТ \"Горелый лес\" - 40, 41, 42, 44, 60, 74 м.<br>СНТ \"Восход\" - 51 м.<br>СНТ \"Ивушка\" - 42 м.                                                     СНТ \"Металлург\" - 39 м. <br> Буровая компания \"АкваБур\"<br>+7(495) 929-71-16<br>http://www.aqabur.ru/","LocationLat":55.7817445,"LocationLng":38.4535395},{"ID":313,"Name":"Жеребятьево","Info":"Глубина скважины 46, 55 м.<br>ул. Лесная - 47 м.<br>Буровая компания ООО \"АкваБур\"<br>+7(495) 929-71-16<br>http://www.aqabur.ru/","LocationLat":55.4674229,"LocationLng":37.8341242},{"ID":314,"Name":"Судимля","Info":"Глубина скважины 16,15, 77 м.<br>Буровая компания ООО \"АкваБур\"<br>+7(495) 929-71-16<br>http://www.aqabur.ru/","LocationLat":54.97098,"LocationLng":37.38525},{"ID":315,"Name":"Борисково","Info":"Глубина скважины 35 м.<br>Буровая компания ООО \"АкваБур\"<br>+7(495) 929-71-16<br>http://www.aqabur.ru/","LocationLat":55.153159,"LocationLng":36.942066},{"ID":316,"Name":"Горки","Info":"Глубина скважины 60 м.<br>Буровая компания ООО \"АкваБур\"<br>+7(495) 929-71-16<br>http://www.aqabur.ru/","LocationLat":55.508228,"LocationLng":37.756416},{"ID":317,"Name":"Надежда","Info":"Глубина скважины 21 м.<br>Буровая компания ООО \"АкваБур\"<br>+7(495) 929-71-16<br>http://www.aqabur.ru/","LocationLat":55.065004,"LocationLng":37.538089},{"ID":318,"Name":"Зеленоград","Info":"Глубина скважины 132 м.<br>Буровая компания ООО \"АкваБур\"<br>+7(495) 929-71-16<br>http://www.aqabur.ru/","LocationLat":55.980749,"LocationLng":37.174999},{"ID":319,"Name":"Пестово","Info":"Глубина скважины 35 м.<br>Буровая компания ООО \"АкваБур\"<br>+7(495) 929-71-16<br>http://www.aqabur.ru/","LocationLat":55.360797,"LocationLng":37.986412},{"ID":320,"Name":"Сутоки","Info":"Глубина скважины 70 м.<br>Буровая компания ООО \"АкваБур\"<br>+7(495) 929-71-16<br>http://www.aqabur.ru/","LocationLat":55.953558,"LocationLng":35.450252},{"ID":321,"Name":"Ивантеевка","Info":"Глубина скважины - 43, 45, 70 м.<br>Буровая компания \"АкваБур\"<br>+7(495) 929-71-16<br>http://www.aqabur.ru/","LocationLat":55.969653,"LocationLng":37.911735},{"ID":322,"Name":"Беливо","Info":"Глубина скважины на песок 15 м.<br>Буровая компания ООО \"АкваБур\"<br>+7(495) 929-71-16<br>http://www.aqabur.ru/","LocationLat":55.62728,"LocationLng":39.011309},{"ID":323,"Name":"Березниково","Info":"Глубина скважины 51 м.<br>Буровая компания ООО \"АкваБур\"<br>+7(495) 929-71-16<br>http://www.aqabur.ru/","LocationLat":56.154485,"LocationLng":36.280107},{"ID":324,"Name":"Мещерино","Info":"Глубина скважины 66 м.<br>Буровая компания ООО \"АкваБур\"<br>+7(495) 929-71-16<br>http://www.aqabur.ru/","LocationLat":55.196999,"LocationLng":38.359931},{"ID":325,"Name":"Новый Милет","Info":"Глубина скважин 18,29 м.<br>СНТ \"Якорь\" - 40 м.<br>Буровая компания \"АкваБур\"<br>+7(495) 929-71-16<br>http://www.aqabur.ru/","LocationLat":55.70806,"LocationLng":38.056516},{"ID":326,"Name":"Старая Руза","Info":"Глубина скважины 61, 65 м.<br>Буровая компания ООО \"АкваБур\"<br>+7(495) 929-71-16<br>http://www.aqabur.ru/","LocationLat":55.644831,"LocationLng":36.3299},{"ID":327,"Name":"Середниково","Info":"Глубина скважины 52,70 м.<br>Буровая компания ООО \"АкваБур\"<br>+7(495) 929-71-16<br>http://www.aqabur.ru/","LocationLat":55.8308828,"LocationLng":35.8202342},{"ID":328,"Name":"Русавкино-Романово","Info":"Глубина скважин - 27, 29, 31, 38, 42, 46, 72 м.<br>ул. Лучевая - 34, 102 м.<br>ул. Речная - 38 м.<br>ул. Радужная - 36 м.<br>ул. Вишнёвая - 32 м.<br>ул. Виноградная - 25, 32 м.<br>ул. Энергетическая 20, 30 м.<br>СНТ \"Вьюнка\" - 22, 36, 37 м.<br>3-й Граничный проспект - 42 м.<br>2-й Граничный проспект - 61 м.<br>Буровая компания \"АкваБур\"<br>+7(495) 929-71-16<br>http://www.aqabur.ru/","LocationLat":55.7044312,"LocationLng":38.0429527},{"ID":329,"Name":"Столбищево","Info":"Глубина скважины 49 м.<br>Буровая компания ООО \"АкваБур\"<br>+7(495) 929-71-16<br>http://www.aqabur.ru/","LocationLat":55.275118,"LocationLng":37.707125},{"ID":330,"Name":"Натальино","Info":"Глубина скважин - 15, 38, 39 м.<br>СНТ \"Кулон\" - 41 м.<br>СНТ \"Победа\" - 29, 51 м.<br>СНТ \"Натальино\" - 45 м.<br>СНТ \"Зелёное ожерелье\" - 49 м.<br>Буровая компания ООО \"АкваБур\"<br>+7(495) 929-71-16<br>http://www.aqabur.ru/","LocationLat":55.320207,"LocationLng":38.315195},{"ID":331,"Name":"Мишутино","Info":"Глубина скважины  255 м. (37 м. песок)<br>Буровая компания ООО \"АкваБур\"<br>+7(495) 929-71-16<br>http://www.aqabur.ru/","LocationLat":56.385993,"LocationLng":38.125046},{"ID":332,"Name":"Чулково Клаб","Info":"Глубина скважины 85 м.<br>Буровая компания ООО \"АкваБур\"<br>+7(495) 929-71-16<br>http://www.aqabur.ru/","LocationLat":55.555263,"LocationLng":38.048342},{"ID":333,"Name":"Пестовка","Info":"Глубина скважины 27 м.<br>Буровая компания ООО \"АкваБур\"<br>+7(495) 929-71-16<br>http://www.aqabur.ru/","LocationLat":55.302151,"LocationLng":38.109265},{"ID":334,"Name":"Гостилово","Info":"Глубина скважин - 65, 66 м.<br>СНТ \"Химик\" - 64 м.<br>Буровая компания ООО \"АкваБур\"<br>+7(495) 929-71-16<br>http://www.aqabur.ru/","LocationLat":55.30051,"LocationLng":38.611302},{"ID":335,"Name":"Исаково","Info":"Глубина скважины 38, 57 м.<br>Буровая компания ООО \"АкваБур\"<br>+7(495) 929-71-16<br>http://www.aqabur.ru/","LocationLat":55.419922,"LocationLng":38.577979},{"ID":336,"Name":"Петровское","Info":"Глубина скважины 33 м.<br>СНТ \"Малинки-2\" - 60 м<br>Буровая компания ООО \"АкваБур\"<br>+7(495) 929-71-16<br>http://www.aqabur.ru/","LocationLat":55.4652105,"LocationLng":38.0914301},{"ID":337,"Name":"Прохорово","Info":"Глубина скважины 52,35 м.<br>Буровая компания ООО \"АкваБур\"<br>+7(495) 929-71-16<br>http://www.aqabur.ru/","LocationLat":55.300101,"LocationLng":37.641234},{"ID":338,"Name":"Ясенок","Info":"Глубина скважины 127 м.<br>Буровая компания ООО \"АкваБур\"<br>+7(495) 929-71-16<br>http://www.aqabur.ru/","LocationLat":53.82173,"LocationLng":40.37902},{"ID":339,"Name":"Родионовка","Info":"Глубина скважины 39,49 м.<br>Буровая компания ООО \"АкваБур\"<br>+7(495) 929-71-16<br>http://www.aqabur.ru/","LocationLat":55.026628,"LocationLng":37.427929},{"ID":340,"Name":"Бисерово","Info":"Глубина скважины 72,48 м.<br>Буровая компания ООО \"АкваБур\"<br>+7(495) 929-71-16<br>http://www.aqabur.ru/","LocationLat":55.5150152,"LocationLng":38.4329094},{"ID":341,"Name":"Барвиха","Info":"Глубина скважины 108 м.<br>Буровая компания ООО \"АкваБур\"<br>+7(495) 929-71-16<br>http://www.aqabur.ru/","LocationLat":55.725194,"LocationLng":37.280884},{"ID":342,"Name":"Заворово","Info":"Глубина скважин - 32, 33, 46, 47м.<br>КП \"Никоновский квартал\" - 41 м.<br>СНТ \"Мрия\" - 32 м.<br>сп. Никоновское СНТ \"Журавушка\" - 46 м.<br>Буровая компания ООО \"АкваБур\"<br>+7(495) 929-71-16<br>http://www.aqabur.ru/","LocationLat":55.344147,"LocationLng":38.229181},{"ID":343,"Name":"СНТ \"Каштан\"","Info":"Глубина скважины 81 м.<br>Буровая компания ООО \"АкваБур\"<br>+7(495) 929-71-16<br>http://www.aqabur.ru/","LocationLat":55.562521,"LocationLng":38.908546},{"ID":344,"Name":"Захарково","Info":"Глубина скважин 55,60 м.<br>Буровая компания ООО \"АкваБур\"<br>+7(495) 929-71-16<br>http://www.aqabur.ru/","LocationLat":55.780507,"LocationLng":37.320266},{"ID":345,"Name":"Евсеево","Info":"Глубина скважин - 30, 35 м.<br>СНТ \"Природа\" - 42 м.<br>ДНТ \"Опушкино-2\" - 37 м.<br>Буровая компания ООО \"АкваБур\"<br>+7(495) 929-71-16<br>http://www.aqabur.ru/","LocationLat":55.756427,"LocationLng":38.7090213},{"ID":346,"Name":"СНТ Ясная Поляна","Info":"Глубина скважин - 65, 92 м.<br>Буровая компания ООО \"АкваБур\"<br>+7(495) 929-71-16<br>http://www.aqabur.ru/","LocationLat":55.6935348,"LocationLng":38.0737012},{"ID":347,"Name":"Мирный","Info":"Глубина скважины 54 м.<br>Буровая компания ООО \"АкваБур\"<br>+7(495) 929-71-16<br>http://www.aqabur.ru/","LocationLat":55.622838,"LocationLng":37.950362},{"ID":348,"Name":"Шелково","Info":"Глубина скважин - 32, 41, 46 м.<br>ул. Яблоневая - 36 м.<br>Буровая компания \"АкваБур\"<br>+7(495) 929-71-16<br>http://www.aqabur.ru/","LocationLat":55.0654283,"LocationLng":37.7192034},{"ID":349,"Name":"Петровское","Info":"Глубина скважины 31,5 м.<br>СНТ \"Южные дачи\" - 73 м.<br>Буровая компания ООО \"АкваБур\"<br>+7(495) 929-71-16<br>http://www.aqabur.ru/","LocationLat":55.023409,"LocationLng":37.45617},{"ID":350,"Name":"Павловка","Info":"Глубина скважины 36 м.<br>Буровая компания ООО \"АкваБур\"<br>+7(495) 929-71-16<br>http://www.aqabur.ru/","LocationLat":54.923124,"LocationLng":37.175458},{"ID":351,"Name":"СНТ Маврино","Info":"Глубина скважины 37 м.<br>Буровая компания ООО \"АкваБур\"<br>+7(495) 929-71-16<br>http://www.aqabur.ru/","LocationLat":55.276129,"LocationLng":37.269664},{"ID":352,"Name":"Елизаветино","Info":"Глубина скважины 169 м.<br>Буровая компания ООО \"АкваБур\"<br>+7(495) 929-71-16<br>http://www.aqabur.ru/","LocationLat":56.316798,"LocationLng":37.467338},{"ID":353,"Name":"Пучково","Info":"Глубина скважин<br>ул. Светская поляна - 43 м.<br>ул. Светлая поляна - 38, 42 м.<br>Буровая компания ООО \"АкваБур\"<br>+7(495) 929-71-16<br>http://www.aqabur.ru/","LocationLat":55.486571,"LocationLng":37.263672},{"ID":354,"Name":"Барсуки","Info":"Глубина скважины 27 м.<br>Буровая компания ООО \"АкваБур\"<br>+7(495) 929-71-16<br>http://www.aqabur.ru/","LocationLat":55.057894,"LocationLng":36.965162},{"ID":355,"Name":"Пушкарка","Info":"Глубина скважины 57 м.<br>СНТ \"Пушкарка\" - 70 м.<br>Буровая компания ООО \"АкваБур\"<br>+7(495) 929-71-16<br>http://www.aqabur.ru/","LocationLat":55.422298,"LocationLng":36.127573},{"ID":356,"Name":"Захарово","Info":"Глубина скважины 77, 139 м.<br>ул. Лесная - 80м<br>Буровая компания ООО \"АкваБур\"<br>+7(495) 929-71-16<br>http://www.aqabur.ru/","LocationLat":55.656484,"LocationLng":38.312105},{"ID":357,"Name":"Быково","Info":"Глубина скважин - 57, 73 ,80, 83, 90, 93 м.<br>СНТ \"Пенсионер\" - 65 м.<br>ул.Осенняя - 78 м. <br>пер. Щорса - 82 м.<br>ул. Осеченская - 85 м.<br>ул. Карла- Маркса - 85 м.<br>Буровая компания ООО \"АкваБур\"<br>+7(495) 929-71-16<br>http://www.aqabur.ru/","LocationLat":55.6115466,"LocationLng":38.0561911},{"ID":358,"Name":"Клетино","Info":"Глубина скважин 80, 85 м.<br>Буровая компания ООО \"АкваБур\"<br>+7(495) 929-71-16<br>http://www.aqabur.ru/","LocationLat":55.000874,"LocationLng":41.203836},{"ID":359,"Name":"Беседы","Info":"Глубина скважины 82 м.<br>Буровая компания ООО \"АкваБур\"<br>+7(495) 929-71-16<br>http://www.aqabur.ru/","LocationLat":55.612807,"LocationLng":37.788827},{"ID":360,"Name":"Казарь","Info":"Глубина скважины 93 м.<br>Буровая компания ООО \"АкваБур\"<br>+7(495) 929-71-16<br>http://www.aqabur.ru/","LocationLat":54.568547,"LocationLng":40.090203},{"ID":361,"Name":"Сергеевка","Info":"Глубина скважины 105 м.<br>Буровая компания ООО \"АкваБур\"<br>+7(495) 929-71-16<br>http://www.aqabur.ru/","LocationLat":54.543046,"LocationLng":39.523546},{"ID":362,"Name":"Ложки","Info":"Глубина скважины 130 м.<br>Буровая компания ООО \"АкваБур\"<br>+7(495) 929-71-16<br>http://www.aqabur.ru/","LocationLat":56.094153,"LocationLng":37.110294},{"ID":363,"Name":"Юсупово","Info":"Глубина скважины 54 м.<br>Буровая компания ООО \"АкваБур\"<br>+7(495) 929-71-16<br>http://www.aqabur.ru/","LocationLat":55.395502,"LocationLng":37.707054},{"ID":364,"Name":"Речицы","Info":"Глубина скважины 46 м.<br>Буровая компания ООО \"АкваБур\"<br>+7(495) 929-71-16<br>http://www.aqabur.ru/","LocationLat":54.909137,"LocationLng":38.402889},{"ID":365,"Name":"СНТ Пахра","Info":"Глубина скважины 30 м.<br>Буровая компания ООО \"АкваБур\"<br>+7(495) 929-71-16<br>http://www.aqabur.ru/","LocationLat":55.475465,"LocationLng":37.788216},{"ID":366,"Name":"Овчагино","Info":"Глубина скважины 74 м.<br>Буровая компания ООО \"АкваБур\"<br>+7(495) 929-71-16<br>http://www.aqabur.ru/","LocationLat":55.401749,"LocationLng":39.156665},{"ID":367,"Name":"Столбищево","Info":"Глубина скважины 49 м.<br>Буровая компания ООО \"АкваБур\"<br>+7(495) 929-71-16<br>http://www.aqabur.ru/","LocationLat":55.275118,"LocationLng":37.707125},{"ID":368,"Name":"Пущино","Info":"Глубина скважины 69 м.<br>Буровая компания ООО \"АкваБур\"<br>+7(495) 929-71-16<br>http://www.aqabur.ru/","LocationLat":54.940788,"LocationLng":37.352236},{"ID":369,"Name":"Малые Решники","Info":"Глубина скважины 38 м.<br>Буровая компания ООО \"АкваБур\"<br>+7(495) 929-71-16<br>http://www.aqabur.ru/","LocationLat":55.666442,"LocationLng":35.62978},{"ID":370,"Name":"Квасьево","Info":"Глубина скважины 47 м.<br>Буровая компания ООО \"АкваБур\"<br>+7(495) 929-71-16<br>http://www.aqabur.ru/","LocationLat":54.90247,"LocationLng":41.754449},{"ID":371,"Name":"Сеитово","Info":"Глубина скважины 83 м.<br>Буровая компания ООО \"АкваБур\"<br>+7(495) 929-71-16<br>http://www.aqabur.ru/","LocationLat":54.76528,"LocationLng":41.556604},{"ID":372,"Name":"Поздняково","Info":"Глубина скважины 87 м.<br>Буровая компания ООО \"АкваБур\"<br>+7(495) 929-71-16<br>http://www.aqabur.ru/","LocationLat":54.81971,"LocationLng":41.45893},{"ID":373,"Name":"Ярыгино","Info":"Глубина скважины 42 м.<br>Буровая компания ООО \"АкваБур\"<br>+7(495) 929-71-16<br>http://www.aqabur.ru/","LocationLat":55.051855,"LocationLng":41.307205},{"ID":374,"Name":"Даньково","Info":"Глубина скважины 90 м.<br>Буровая компания ООО \"АкваБур\"<br>+7(495) 929-71-16<br>http://www.aqabur.ru/","LocationLat":55.034487,"LocationLng":41.258004},{"ID":375,"Name":"Балушево-Починки","Info":"Глубина скважины 70 м.<br>Буровая компания ООО \"АкваБур\"<br>+7(495) 929-71-16<br>http://www.aqabur.ru/","LocationLat":54.767586,"LocationLng":41.622864},{"ID":376,"Name":"Захарово","Info":"Глубина скважин - 77 м.<br>ул. Лесная - 80 м.<br>Буровая компания ООО \"АкваБур\"<br>+7(495) 929-71-16<br>http://www.aqabur.ru/","LocationLat":55.656484,"LocationLng":38.312105},{"ID":377,"Name":"Сиверка","Info":"Глубина скважины 48 м.<br>Буровая компания ООО \"АкваБур\"<br>+7(495) 929-71-16<br>http://www.aqabur.ru/","LocationLat":54.709335,"LocationLng":41.384424},{"ID":378,"Name":"Щербатовка","Info":"Глубина скважины 80 м.<br>Буровая компания ООО \"АкваБур\"<br>+7(495) 929-71-16<br>http://www.aqabur.ru/","LocationLat":54.809282,"LocationLng":41.753039},{"ID":379,"Name":"Забелино","Info":"Глубина скважины 63,60 м.<br>Буровая компания ООО \"АкваБур\"<br>+7(495) 929-71-16<br>http://www.aqabur.ru/","LocationLat":54.993221,"LocationLng":41.152811},{"ID":380,"Name":"Шегошаново","Info":"Глубина скважины 85 м.<br>Буровая компания ООО \"АкваБур\"<br>+7(495) 929-71-16<br>http://www.aqabur.ru/","LocationLat":54.908381,"LocationLng":41.543004},{"ID":381,"Name":"Белясево","Info":"Глубина скважины 37 м.<br>Буровая компания ООО \"АкваБур\"<br>+7(495) 929-71-16<br>http://www.aqabur.ru/","LocationLat":55.074102,"LocationLng":41.094008},{"ID":382,"Name":"Мимишкино","Info":"Глубина скважины 25 м.<br>Буровая компания ООО \"АкваБур\"<br>+7(495) 929-71-16<br>http://www.aqabur.ru/","LocationLat":55.067391,"LocationLng":41.294997},{"ID":383,"Name":"Поляны","Info":"Глубина скважины 79 м.<br>Буровая компания ООО \"АкваБур\"<br>+7(495) 929-71-16<br>http://www.aqabur.ru/","LocationLat":54.945604,"LocationLng":41.490245},{"ID":384,"Name":"Захарово","Info":"Глубина скважины 52 м.<br>Буровая компания ООО \"АкваБур\"<br>+7(495) 929-71-16<br>http://www.aqabur.ru/","LocationLat":54.368474,"LocationLng":39.28021},{"ID":385,"Name":"Толстые","Info":"Глубина скважины 80 м.<br>Буровая компания ООО \"АкваБур\"<br>+7(495) 929-71-16<br>http://www.aqabur.ru/","LocationLat":54.481333,"LocationLng":38.543322},{"ID":386,"Name":"Дягилево","Info":"Глубина скважины 115 м.<br>Буровая компания ООО \"АкваБур\"<br>+7(495) 929-71-16<br>http://www.aqabur.ru/","LocationLat":54.661578,"LocationLng":39.582457},{"ID":387,"Name":"Грязное","Info":"Глубина скважины 120 м.<br>Буровая компания ООО \"АкваБур\"<br>+7(495) 929-71-16<br>http://www.aqabur.ru/","LocationLat":54.04121,"LocationLng":39.113375},{"ID":388,"Name":"Городище","Info":"Глубина скважины 51, 53 м.<br>Буровая компания ООО \"АкваБур\"<br>+7(495) 929-71-16<br>http://www.aqabur.ru/","LocationLat":55.533476,"LocationLng":37.434595},{"ID":389,"Name":"Большое Еськино","Info":"Глубина скважины 87 м.<br>Буровая компания ООО \"АкваБур\"<br>+7(495) 929-71-16<br>http://www.aqabur.ru/","LocationLat":54.797492,"LocationLng":38.980191},{"ID":390,"Name":"Малышево","Info":"Глубина скважин - 45, 50, 54 м.<br>Буровая компания ООО \"АкваБур\"<br>+7(495) 929-71-16<br>http://www.aqabur.ru/","LocationLat":55.369669,"LocationLng":38.146042},{"ID":391,"Name":"Игумново","Info":"Глубина скважины 94 м.<br>Буровая компания ООО \"АкваБур\"<br>+7(495) 929-71-16<br>http://www.aqabur.ru/","LocationLat":55.620555,"LocationLng":38.303733},{"ID":392,"Name":"Холуденево","Info":"Глубина скважины 45 м.<br>Буровая компания ООО \"АкваБур\"<br>+7(495) 929-71-16<br>http://www.aqabur.ru/","LocationLat":55.459387,"LocationLng":38.187973},{"ID":393,"Name":"Староходыкино","Info":"Глубина скважины 80 м.<br>Буровая компания ООО \"АкваБур\"<br>+7(495) 929-71-16<br>http://www.aqabur.ru/","LocationLat":54.943359,"LocationLng":38.859493},{"ID":394,"Name":"Верхние Велеми","Info":"Глубина скважин - 39, 51 м.<br>ДНП \"Велеми\" - 84 м.<br>Буровая компания \"АкваБур\"<br>+7(495) 929-71-16<br>http://www.aqabur.ru/","LocationLat":55.043267,"LocationLng":37.361912},{"ID":395,"Name":"Завидовка","Info":"Глубина скважины 73 м.<br>Буровая компания ООО \"АкваБур\"<br>+7(495) 929-71-16<br>http://www.aqabur.ru/","LocationLat":54.264859,"LocationLng":38.815197},{"ID":396,"Name":"Кобелево","Info":"Глубина скважин на песок 15,18 м.<br>Буровая компания ООО \"АкваБур\"<br>+7(495) 929-71-16<br>http://www.aqabur.ru/","LocationLat":55.638236,"LocationLng":39.500648},{"ID":397,"Name":"Ивашково","Info":"Глубина скважины 60 м.<br>Буровая компания ООО \"АкваБур\"<br>+7(495) 929-71-16<br>http://www.aqabur.ru/","LocationLat":56.221875,"LocationLng":35.35645},{"ID":398,"Name":"станция Купавна ","Info":"Глубина скважины - 33 м.<br>СНТ \"Строитель\" - 45 м.<br>СНТ \"Биолог\" - 40 м. <br>СНТ \"Краб\" -35,5 м.<br>СНТ \"Минвуз\" - 39 м.<br>Буровая компания ООО \"АкваБур\"<br>+7(495) 929-71-16<br>http://www.aqabur.ru/","LocationLat":55.753281,"LocationLng":38.120413},{"ID":399,"Name":"Северное шоссе","Info":"Глубина скважины 73 м.<br>Буровая компания ООО \"АкваБур\"<br>+7(495) 929-71-16<br>http://www.aqabur.ru/","LocationLat":56.045187,"LocationLng":35.967511},{"ID":400,"Name":"Глазово","Info":"Глубина скважины 65 м.<br>Буровая компания ООО \"АкваБур\"<br>+7(495) 929-71-16<br>http://www.aqabur.ru/","LocationLat":55.804693,"LocationLng":35.923206},{"ID":401,"Name":"Новопавловское","Info":"Глубина скважины 130 м.<br>Буровая компания ООО \"АкваБур\"<br>+7(495) 929-71-16<br>http://www.aqabur.ru/","LocationLat":55.940371,"LocationLng":36.15057},{"ID":402,"Name":"Курово","Info":"Глубина скважины 151,176 м.<br>Буровая компания ООО \"АкваБур\"<br>+7(495) 929-71-16<br>http://www.aqabur.ru/","LocationLat":56.27358,"LocationLng":37.556882},{"ID":403,"Name":"Лишенино","Info":"Глубина скважины 175 м.<br>Буровая компания ООО \"АкваБур\"<br>+7(495) 929-71-16<br>http://www.aqabur.ru/","LocationLat":56.358482,"LocationLng":37.271245},{"ID":404,"Name":"Сазонки","Info":"Глубина скважины 165 м.<br>Буровая компания ООО \"АкваБур\"<br>+7(495) 929-71-16<br>http://www.aqabur.ru/","LocationLat":56.203738,"LocationLng":37.618596},{"ID":405,"Name":"Михеево","Info":"Глубина скважины 48 м.<br>Буровая компания ООО \"АкваБур\"<br>+7(495) 929-71-16<br>http://www.aqabur.ru/","LocationLat":55.348969,"LocationLng":37.843696},{"ID":406,"Name":"Белые Столбы","Info":"Глубина скважин - 35, 53, 55 м.<br>Буровая компания ООО \"АкваБур\"<br>+7(495) 929-71-16<br>http://www.aqabur.ru/","LocationLat":55.33044,"LocationLng":37.847927},{"ID":407,"Name":"Борисково","Info":"Глубина скважин - 84,93, 97 м.<br>Буровая компания \"АкваБур\"<br>+7(495) 929-71-16<br>http://www.aqabur.ru/","LocationLat":55.83936,"LocationLng":36.958901},{"ID":408,"Name":"Борки","Info":"Глубина скважины 88 м.<br>Буровая компания ООО \"АкваБур\"<br>+7(495) 929-71-16<br>http://www.aqabur.ru/","LocationLat":55.836681,"LocationLng":36.941258},{"ID":409,"Name":"Бужарово","Info":"Глубина скважин - 108, 140 м.<br>СНТ \"Фрунзенец\" - 106 м.<br>СНТ \"Торлопово - 106 м.<br>Буровая компания ООО \"АкваБур\"<br>+7(495) 929-71-16<br>http://www.aqabur.ru/","LocationLat":55.984219,"LocationLng":36.793611},{"ID":410,"Name":"Воронино","Info":"Глубина скважины 84, 97 м.<br>Буровая компания ООО \"АкваБур\"<br>+7(495) 929-71-16<br>http://www.aqabur.ru/","LocationLat":55.797083,"LocationLng":36.990791},{"ID":411,"Name":"Ивановское","Info":"Глубина скважины 103,79 м.<br>Буровая компания ООО \"АкваБур\"<br>+7(495) 929-71-16<br>http://www.aqabur.ru/","LocationLat":55.789259,"LocationLng":37.100583},{"ID":412,"Name":"Котово","Info":"Глубина скважины 120 м.<br>Буровая компания ООО \"АкваБур\"<br>+7(495) 929-71-16<br>http://www.aqabur.ru/","LocationLat":55.865803,"LocationLng":36.771234},{"ID":413,"Name":"Лечищево","Info":"Глубина скважины 122 м.<br>Буровая компания ООО \"АкваБур\"<br>+7(495) 929-71-16<br>http://www.aqabur.ru/","LocationLat":56.049988,"LocationLng":36.81703},{"ID":414,"Name":"Максимовка","Info":"Глубина скважины 116 м.<br>Буровая компания ООО \"АкваБур\"<br>+7(495) 929-71-16<br>http://www.aqabur.ru/","LocationLat":55.961495,"LocationLng":36.849737},{"ID":415,"Name":"Манихино","Info":"Глубина скважин - 90, 120 м.<br>Буровая компания ООО \"АкваБур\"<br>+7(495) 929-71-16<br>http://www.aqabur.ru/","LocationLat":55.876693,"LocationLng":36.968423},{"ID":416,"Name":"Рождествено","Info":"Глубина скважины 148 м.<br>Буровая компания ООО \"АкваБур\"<br>+7(495) 929-71-16<br>http://www.aqabur.ru/.","LocationLat":55.854062,"LocationLng":37.053844},{"ID":417,"Name":"Чудцево","Info":"Глубина скважины 176 м.<br>Буровая компания ООО \"АкваБур\"<br>+7(495) 929-71-16<br>http://www.aqabur.ru/","LocationLat":56.056005,"LocationLng":36.530665},{"ID":418,"Name":"Огниково","Info":"Глубина скважины 111,140 м.<br>Буровая компания ООО \"АкваБур\"<br>+7(495) 929-71-16<br>http://www.aqabur.ru/","LocationLat":56.005309,"LocationLng":36.916347},{"ID":419,"Name":"станция Новоиерусалимская","Info":"Глубина скважины 90 м.<br>Буровая компания ООО \"АкваБур\"<br>+7(495) 929-71-16<br>http://www.aqabur.ru/","LocationLat":55.911562,"LocationLng":36.82259},{"ID":420,"Name":"Полушкино","Info":"Глубина скважин 25, 35 м., <br>СНТ \"Солнечный Луч\" - 24м.<br>СНТ \"Лесная поляна\" - 46 м.<br>Буровая компания \"АкваБур\"<br>+7(495) 929-71-16<br>http://www.aqabur.ru/","LocationLat":55.129128,"LocationLng":37.774149},{"ID":421,"Name":"Масюгино","Info":"Глубина скважины 78 м.<br>Буровая компания ООО \"АкваБур\"<br>+7(495) 929-71-16<br>http://www.aqabur.ru/","LocationLat":56.337322,"LocationLng":36.567388},{"ID":422,"Name":"Поздняково","Info":"Глубина скважины 107, 80 м.<br>Буровая компания ООО \"АкваБур\"<br>+7(495) 929-71-16<br>http://www.aqabur.ru/","LocationLat":55.789689,"LocationLng":37.215468},{"ID":423,"Name":"Коробово","Info":"Глубина скважин 84 м.<br>Буровая компания ООО \"АкваБур\"<br>+7(495) 929-71-16<br>http://www.aqabur.ru/","LocationLat":55.53369,"LocationLng":37.821256},{"ID":424,"Name":"Ст. Истья - 2","Info":"Глубина скважины 90 м.<br>Буровая компания ООО \"АкваБур\"<br>+7(495) 929-71-16<br>http://www.aqabur.ru/","LocationLat":55.152597,"LocationLng":36.791669},{"ID":425,"Name":"Воробьи","Info":"Глубина скважины 63, 48 м.<br>Буровая компания ООО \"АкваБур\"<br>+7(495) 929-71-16<br>http://www.aqabur.ru/","LocationLat":55.147124,"LocationLng":36.802055},{"ID":426,"Name":"Стромынь","Info":"Глубина скважины 78, 76 м.<br>Буровая компания ООО \"АкваБур\"<br>+7(495) 929-71-16<br>http://www.aqabur.ru/","LocationLat":56.042225,"LocationLng":38.48185},{"ID":427,"Name":"СНТ Хуторок","Info":"Глубина скважины 60 м.<br>Буровая компания ООО \"АкваБур\"<br>+7(495) 929-71-16<br>http://www.aqabur.ru/","LocationLat":55.574594,"LocationLng":38.538274},{"ID":428,"Name":"Карпово","Info":"Глубина скважины 32 м.<br>Буровая компания ООО \"АкваБур\"<br>+7(495) 929-71-16<br>http://www.aqabur.ru/","LocationLat":55.579541,"LocationLng":38.559824},{"ID":429,"Name":"Игнатьево","Info":"Глубина скважины 32, 35 м.<br>ДНП \"Игнатьево\" - 32 м.<br>Буровая компания ООО \"АкваБур\"<br>+7(495) 929-71-16<br>http://www.aqabur.ru/","LocationLat":55.599143,"LocationLng":38.512869},{"ID":430,"Name":"Володино","Info":"Глубина скважины 20 м.<br>Буровая компания ООО \"АкваБур\"<br>+7(495) 929-71-16<br>http://www.aqabur.ru/","LocationLat":55.596203,"LocationLng":38.500832},{"ID":431,"Name":"Сафонтьево","Info":"Глубина скважины - 100, 107 м.<br>Буровая компания ООО \"АкваБур\"<br>+7(495) 929-71-16<br>http://www.aqabur.ru/","LocationLat":55.977279,"LocationLng":36.831034},{"ID":432,"Name":"Шарапова Охота","Info":"Глубина скважины 38, 40, 47, 60 м.<br>СНТ \"Дружба\": - 31 м.<br>ул. Белинского - 105 м.<br>ул. Широкая - 51 м.<br>СНТ \"Весна\" - 37 м.<br>СНТ \"Шарапова Охота\" - 31 м.<br>Буровая компания ООО \"АкваБур\"<br>+7(495) 929-71-16<br>http://www.aqabur.ru/","LocationLat":55.036937,"LocationLng":37.476816},{"ID":433,"Name":"платформа Никольское","Info":"Глубина скважины 82 м.<br>Буровая компания ООО \"АкваБур\"<br>+7(495) 929-71-16<br>http://www.aqabur.ru/","LocationLat":55.759892,"LocationLng":37.897694},{"ID":434,"Name":"Бурцево","Info":"Глубина скважины 120м -сильно окремненный известняк.<br>Буровая компания ООО \"АкваБур\"<br>+7(495) 929-71-16<br>http://www.aqabur.ru/","LocationLat":54.727755,"LocationLng":38.339773},{"ID":435,"Name":"Ожерелье","Info":"Глубина скважины 70,40 м.<br>Буровая компания ООО \"АкваБур\"<br>+7(495) 929-71-16<br>http://www.aqabur.ru/","LocationLat":54.784696,"LocationLng":38.271797},{"ID":436,"Name":"Яковское","Info":"Глубина скважины 84 м.<br>Буровая компания ООО \"АкваБур\"<br>+7(495) 929-71-16<br>http://www.aqabur.ru/","LocationLat":54.748442,"LocationLng":38.267432},{"ID":437,"Name":"Иваньково","Info":"Глубина скважины 80, 110 м.<br>Буровая компания ООО \"АкваБур\"<br>+7(495) 929-71-16<br>http://www.aqabur.ru/","LocationLat":54.739825,"LocationLng":37.93846},{"ID":438,"Name":"Старая Ситня","Info":"Глубина скважин - 43 м.<br>КП \"Лесной край\" - 42 м.<br>Буровая компания ООО \"АкваБур\"<br>+7(495) 929-71-16<br>http://www.aqabur.ru/","LocationLat":54.946917,"LocationLng":38.141946},{"ID":439,"Name":"Кузьмино-Фильчаково","Info":"Глубина скважин - 20 м.<br>СНТ \"Люторка\" - 33 м.<br>Буровая компания ООО \"АкваБур\"<br>+7(495) 929-71-16<br>http://www.aqabur.ru/","LocationLat":55.1293739,"LocationLng":37.5110233},{"ID":440,"Name":"Ожигово","Info":"Глубина скважины 60 м.<br>Буровая компания ООО \"АкваБур\"<br>+7(495) 929-71-16<br>http://www.aqabur.ru/","LocationLat":55.460854,"LocationLng":36.884772},{"ID":441,"Name":"Старая купавна","Info":"Глубина скважины 40, 60 м.<br>Буровая компания ООО \"АкваБур\"<br>+7(495) 929-71-16<br>http://www.aqabur.ru/","LocationLat":55.804184,"LocationLng":38.182716},{"ID":442,"Name":"Бисерово","Info":"Глубина скважины 40, 45, 47 м.<br>Буровая компания ООО \"АкваБур\"<br>+7(495) 929-71-16<br>http://www.aqabur.ru/","LocationLat":55.775781,"LocationLng":38.108277},{"ID":443,"Name":"Новая Купавна","Info":"Глубина скважины 30, 40 м.<br>Буровая компания ООО \"АкваБур\"<br>+7(495) 929-71-16<br>http://www.aqabur.ru/","LocationLat":55.812206,"LocationLng":38.108556},{"ID":444,"Name":"Шульгино","Info":"Глубина скважины 87 м.<br>Буровая компания ООО \"АкваБур\"<br>+7(495) 929-71-16<br>http://www.aqabur.ru/","LocationLat":55.804127,"LocationLng":38.226208},{"ID":445,"Name":"Колонтаево","Info":"Глубина скважины 23, 24, 25, 30, 35, 48, 59 м. ДНП \"Прилесье\" - 32 м.<br>КП \"Инициатива\" - 24 м. <br>Буровая компания ООО \"АкваБур\"<br>+7(495) 929-71-16<br>http://www.aqabur.ru/","LocationLat":55.789876,"LocationLng":38.260164},{"ID":446,"Name":"Зеленый","Info":"Глубина скважин - 40, 45 м.<br>СНТ \"Русичи\" - 83 м.<br>Буровая компания ООО \"АкваБур\"<br>+7(495) 929-71-16<br>http://www.aqabur.ru/","LocationLat":55.809408,"LocationLng":38.096581},{"ID":447,"Name":"Луч","Info":"Глубина скважины 40 м.<br>Буровая компания ООО \"АкваБур\"<br>+7(495) 929-71-16<br>http://www.aqabur.ru/","LocationLat":55.094599,"LocationLng":37.488099},{"ID":448,"Name":"Репниково","Info":"Глубина скважин 41,28 м.<br>Буровая компания ООО \"АкваБур\"<br>+7(495) 929-71-16<br>http://www.aqabur.ru/","LocationLat":55.186124,"LocationLng":37.455669},{"ID":449,"Name":"Алачково","Info":"Глубина скважин 40,60 м.<br>Буровая компания ООО \"АкваБур\"<br>+7(495) 929-71-16<br>http://www.aqabur.ru/","LocationLat":55.206334,"LocationLng":37.567833},{"ID":450,"Name":"Томарово","Info":"Глубина скважин - 33, 41 м.<br>Буровая компания ООО \"АкваБур\"<br>+7(495) 929-71-16<br>http://www.aqabur.ru/","LocationLat":55.265866,"LocationLng":37.611518},{"ID":451,"Name":"Зыкеево","Info":"Глубина скважин - 34, 40 м.<br>Буровая компания ООО \"АкваБур\"<br>+7(495) 929-71-16<br>http://www.aqabur.ru/","LocationLat":55.258633,"LocationLng":37.604493},{"ID":452,"Name":"Степыгино","Info":"Глубина скважины 41,46 м.<br>Буровая компания ООО \"АкваБур\"<br>+7(495) 929-71-16<br>http://www.aqabur.ru/","LocationLat":55.209637,"LocationLng":37.714312},{"ID":453,"Name":"Повадино","Info":"Глубина скважин - 38, 45 м.<br>Буровая компания ООО \"АкваБур\"<br>+7(495) 929-71-16<br>http://www.aqabur.ru/","LocationLat":55.1887188,"LocationLng":37.7460888},{"ID":454,"Name":"Кравцово","Info":"Глубина скважины 40 м.<br>Буровая компания ООО \"АкваБур\"<br>+7(495) 929-71-16<br>http://www.aqabur.ru/","LocationLat":55.054212,"LocationLng":37.807782},{"ID":455,"Name":"Буланино","Info":"Глубина скважины 130 м.<br>Буровая компания ООО \"АкваБур\"<br>+7(495) 929-71-16<br>http://www.aqabur.ru/","LocationLat":55.927155,"LocationLng":36.439576},{"ID":456,"Name":"Тополиный","Info":"Глубина скважины 49 м.<br>СНТ \" Фруктовый сад\" - 40 м.<br>Буровая компания ООО \"АкваБур\"<br>+7(495) 929-71-16<br>http://www.aqabur.ru/","LocationLat":55.78207,"LocationLng":39.0596536},{"ID":457,"Name":"Снопок Новый","Info":"Глубина скважин - 30, 40, 60 м.<br>СНТ \"Химик\" - 31 м.<br>СНТ \"Орбита\" - 71 м.<br>СНТ \"Юбилейное\" - 23 м.<br>Буровая компания \"АкваБур\"<br>+7(495) 929-71-16<br>http://www.aqabur.ru/","LocationLat":55.772158,"LocationLng":39.159746},{"ID":458,"Name":"Тополиный","Info":"Глубина скважин - 40, 50, 70 м.<br>СНТ \"Осенний сад\" - 38 м.<br>Буровая компания ООО \"АкваБур\"<br>+7(495) 929-71-16<br>http://www.aqabur.ru/","LocationLat":55.786703,"LocationLng":39.055362},{"ID":459,"Name":"Тельвяково","Info":"Глубина скважины 82 м.<br>Буровая компания ООО \"АкваБур\"<br>+7(495) 929-71-16<br>http://www.aqabur.ru/","LocationLat":56.106098,"LocationLng":39.01951},{"ID":460,"Name":"Полутино","Info":"Глубина скважины 86 м.<br>Буровая компания ООО \"АкваБур\"<br>+7(495) 929-71-16<br>http://www.aqabur.ru/","LocationLat":56.103196,"LocationLng":38.938698},{"ID":461,"Name":"Ефаново","Info":"Глубина скважин 93 м.<br>Буровая компания ООО \"АкваБур\"<br>+7(495) 929-71-16<br>http://www.aqabur.ru/","LocationLat":56.162396,"LocationLng":38.931152},{"ID":462,"Name":"Кольчугино","Info":"Глубина скважин 190 м.<br>Буровая компания ООО \"АкваБур\"<br>+7(495) 929-71-16<br>http://www.aqabur.ru/","LocationLat":56.302533,"LocationLng":39.36599},{"ID":463,"Name":"Степановское","Info":"Глубина скважины 42 м.                                             ДП\" Ясная поляна\" 41м.                                 <br>Буровая компания ООО \"АкваБур\"<br>+7(495) 929-71-16<br>http://www.aqabur.ru/","LocationLat":55.296892,"LocationLng":38.421313},{"ID":464,"Name":"Бубново","Info":"Глубина скважин - 30, 42, 47 м.<br>ДНТ \"Яблоневая усадьба\" - 45 м.<br>Буровая компания ООО \"АкваБур\"<br>+7(495) 929-71-16<br>http://www.aqabur.ru/","LocationLat":55.317241,"LocationLng":38.503778},{"ID":465,"Name":"Костино","Info":"Глубина скважины 42 м.<br>Буровая компания ООО \"АкваБур\"<br>+7(495) 929-71-16<br>http://www.aqabur.ru/","LocationLat":55.324509,"LocationLng":38.478428},{"ID":466,"Name":"Фоминское","Info":"Глубина скважины 34, 61,70 м.<br>Буровая компания  \"АкваБур\"<br>+7(495) 929-71-16<br>http://www.aqabur.ru/","LocationLat":55.268502,"LocationLng":38.4641},{"ID":467,"Name":"Булгаково","Info":"Глубина скважины 40 м.<br>Буровая компания ООО \"АкваБур\"<br>+7(495) 929-71-16<br>http://www.aqabur.ru/","LocationLat":55.247411,"LocationLng":38.420567},{"ID":468,"Name":"Новотроицкое","Info":"Глубина скважины 36 м.<br>Буровая компания ООО \"АкваБур\"<br>+7(495) 929-71-16<br>http://www.aqabur.ru/","LocationLat":55.273841,"LocationLng":38.49749},