[{
  "val": [74,80,79,60,65,68,90,70,75,77],
  "id": 1,
  "name": "Шатура",
  "info": "ул. Садовая - 74 м.<br>ул. Вокзальная - 80 м.<br>ул. Большевик - 79 м.<br>Рабочий посёлок - 60, 65, 68, 90 м.<br>Ботино - 70, 75, 77 м. ",
  "lat": 55.581846,
  "lon": 39.544755
}, {
  "val": [60,64,70,56,57],
  "id": 2,
  "name": "Зендиково",
  "info": "Глубина скважин - 60, 64, 70 м.<br>ул. Речная - 56 м.<br>сп. Базаровское - 57 м.",
  "lat": 54.806579,
  "lon": 38.156579
}, {
  "val": [42,68],
  "id": 3,
  "name": "Щукино",
  "info": "Глубина скважин 42 68 м.",
  "lat": 54.467919,
  "lon": 37.010248
}, {
  "val": [160],
  "id": 4,
  "name": "Хлябово",
  "info": "Глубина скважины 160 м.",
  "lat": 56.122178,
  "lon": 37.547639
}, {
  "val": [30],
  "id": 5,
  "name": "Панино",
  "info": "Глубина скважины 30 м.",
  "lat": 55.242366,
  "lon": 37.408498
}, {
  "val": [25,31],
  "id": 6,
  "name": "Дубечино",
  "info": "Глубина скважин 25,31 м.",
  "lat": 55.077128,
  "lon": 37.742429
}, {
  "val": [50],
  "id": 7,
  "name": "Протвино",
  "info": "Глубина скважины 50 м.",
  "lat": 54.880049,
  "lon": 37.218882
}, {
  "val": [60],
  "id": 8,
  "name": "Головлино",
  "info": "Глубина скважины 60 м.",
  "lat": 54.86173,
  "lon": 37.964358
}, {
  "val": [30,31,38,48,35,38,40,41,42],
  "id": 9,
  "name": "Проскурниково",
  "info": "Глубина скважин - 30 м.<br>СНТ \"Рябина\" - 31, 38 м.<br>СНТ \"Речицы\" - 48 м.<br>СНТ \"Лада\" - 35, 38, 40, 41, 42 м.",
  "lat": 55.181791,
  "lon": 37.968616
}, {
  "val": [50,60],
  "id": 10,
  "name": "Прокшино",
  "info": "Глубина скважины 50, 60 м.",
  "lat": 54.819025,
  "lon": 37.367957
}, {
  "val": [50,51,57,98,62,72,54,47,48,50,54,60,65,70,47,51,57,60,40,50,65,56,73,74,41],
  "id": 11,
  "name": "Егорьевск",
  "info": "Глубина скважин 50, 51, 57, 98 м.<br>ул. Рябиновая - 62, 72 м.<br>ул. Радугина - 54 м. <br>ул. Гальцева - 47 м.<br>ул. Радужная - 48, 50, 54, 60, 65, 70 м.<br>ул. Зелёная - 47, 51, 57, 60 м. <br>ул. Ольховая - 40, 50 м.<br>Ул. 3-я Нечаевская - 65 м<br>проезд Радугина - 56 м.<br>ул. Шляева - 73, 74 м.<br>СНТ \"Ромашка\" - 41 м.",
  "lat": 55.3827819,
  "lon": 39.0352781
}, {
  "val": [41],
  "id": 12,
  "name": "Хомутово",
  "info": "Глубина скважины 41 м.",
  "lat": 55.190996,
  "lon": 38.244749
}, {
  "val": [50],
  "id": 13,
  "name": "Коченягино",
  "info": "Глубина скважины 50 м.",
  "lat": 55.17065,
  "lon": 37.732341
}, {
  "val": [80],
  "id": 14,
  "name": "Болычево",
  "info": "Глубина скважины 80 м.",
  "lat": 55.761158,
  "lon": 35.720277
}, {
  "val": [160,175],
  "id": 15,
  "name": "Чисмена",
  "info": "Глубина скважины 160, 175 м.",
  "lat": 56.020094,
  "lon": 36.214826
}, {
  "val": [100,160,121],
  "id": 16,
  "name": "Теряево",
  "info": "Глубина скважин - 100, 160 м.<br>ул. Береговая - 121 м.",
  "lat": 56.173172,
  "lon": 36.120719
}, {
  "val": [115,120],
  "id": 17,
  "name": "Некрасовский",
  "info": "Глубина скважин 115, 120 м.",
  "lat": 56.084074,
  "lon": 37.500091
}, {
  "val": [59,106],
  "id": 18,
  "name": "Аксеново",
  "info": "Глубина скважин - 59, 106 м.",
  "lat": 55.6782425,
  "lon": 38.2461798
}, {
  "val": [130],
  "id": 19,
  "name": "Рогачево",
  "info": "Глубина скважины 130 м.",
  "lat": 56.431594,
  "lon": 37.166196
}, {
  "val": [145],
  "id": 20,
  "name": "Ольявидово",
  "info": "Глубина скважины 145 м.",
  "lat": 56.504089,
  "lon": 37.754215
}, {
  "val": [45,60],
  "id": 21,
  "name": "аэропорт Домодедово",
  "info": "Глубина скважин 45,60 м.",
  "lat": 55.415416,
  "lon": 37.89879
}, {
  "val": [60],
  "id": 22,
  "name": "Добрыниха",
  "info": "Глубина скважины 60 м.",
  "lat": 55.181411,
  "lon": 37.702625
}, {
  "val": [80],
  "id": 23,
  "name": "Рязановский",
  "info": "Глубина скважины 80 м.",
  "lat": 55.133303,
  "lon": 39.548519
}, {
  "val": [70,90],
  "id": 24,
  "name": "Протекино",
  "info": "Глубина скважины 70,90 м.",
  "lat": 54.824399,
  "lon": 38.79459
}, {
  "val": [70,110],
  "id": 25,
  "name": "Макеево",
  "info": "Глубина скважины 70, 110 м.",
  "lat": 54.443233,
  "lon": 39.481886
}, {
  "val": [60,80],
  "id": 26,
  "name": "Алферьево",
  "info": "Глубина скважины 60, 80 м.",
  "lat": 54.654808,
  "lon": 38.748129
}, {
  "val": [115,120,90],
  "id": 27,
  "name": "Дедовск",
  "info": "Глубина скважин 115, 120, 90 м.",
  "lat": 55.860226,
  "lon": 37.130676
}, {
  "val": [120,86],
  "id": 28,
  "name": "Истра",
  "info": "Глубина скважины 120,86 м.",
  "lat": 55.913742,
  "lon": 36.853744
}, {
  "val": [120,200],
  "id": 29,
  "name": "Новопетровское",
  "info": "Глубина скважины 120, 200 м.",
  "lat": 55.98786,
  "lon": 36.472795
}, {
  "val": [140],
  "id": 30,
  "name": "Алехново",
  "info": "Глубина скважины 140 м.",
  "lat": 56.02771,
  "lon": 36.808433
}, {
  "val": [80,60],
  "id": 31,
  "name": "Кашира",
  "info": "Глубина скважины 80,60 м.",
  "lat": 54.840915,
  "lon": 38.189655
}, {
  "val": [70,80],
  "id": 32,
  "name": "Каменка",
  "info": "Глубина скважин 70,80 м.<br>.",
  "lat": 54.710308,
  "lon": 38.323495
}, {
  "val": [100,140],
  "id": 33,
  "name": "Барабаново",
  "info": "Глубина скважины 100,140 м.",
  "lat": 54.71437,
  "lon": 38.165122
}, {
  "val": [150],
  "id": 34,
  "name": "Кузнецово",
  "info": "Глубина скважины 150 м.",
  "lat": 56.12692,
  "lon": 36.656824
}, {
  "val": [140,180],
  "id": 35,
  "name": "Клин",
  "info": "Глубина скважин 140, 180 м.",
  "lat": 56.344955,
  "lon": 36.72471
}, {
  "val": [40,60],
  "id": 36,
  "name": "Пески",
  "info": "Глубина скважины 40,60 м.",
  "lat": 55.209796,
  "lon": 38.774854
}, {
  "val": [50,43,78],
  "id": 37,
  "name": "Коломна",
  "info": "Глубина скважины 50,43,78 м.",
  "lat": 55.084296,
  "lon": 38.798453
}, {
  "val": [60],
  "id": 38,
  "name": "Акатьево",
  "info": "Глубина скважины 60 м.",
  "lat": 54.979201,
  "lon": 38.754283
}, {
  "val": [80,100],
  "id": 39,
  "name": "Нахабино",
  "info": "Глубина скважины 80,100 м.",
  "lat": 55.848038,
  "lon": 37.171792
}, {
  "val": [70,90,83],
  "id": 40,
  "name": "Ильинское",
  "info": "Глубина скважин 70,90,83 м.",
  "lat": 55.75864,
  "lon": 37.237837
}, {
  "val": [90],
  "id": 41,
  "name": "Красногорск",
  "info": "Глубина скважины 90 м.",
  "lat": 55.826862,
  "lon": 37.296838
}, {
  "val": [30],
  "id": 42,
  "name": "Десна",
  "info": "Глубина скважины 30 м.",
  "lat": 55.523937,
  "lon": 37.376411
}, {
  "val": [33,60,65],
  "id": 43,
  "name": "Ошейкино",
  "info": "Глубина скважины 33,60,м. 65 м.- Самоизлив",
  "lat": 56.254446,
  "lon": 35.900379
}, {
  "val": [60],
  "id": 44,
  "name": "Лотошино",
  "info": "Глубина скважины 60 м.",
  "lat": 56.23487,
  "lon": 35.63977
}, {
  "val": [60],
  "id": 45,
  "name": "Введенское",
  "info": "Глубина скважины 60 м.",
  "lat": 56.374232,
  "lon": 35.630822
}, {
  "val": [20,24,50,32],
  "id": 46,
  "name": "Луховицы",
  "info": "Глубина скважин - 20, 24, 50 м.<br>ул. Мира - 32 м.",
  "lat": 54.959165,
  "lon": 39.031754
}, {
  "val": [50],
  "id": 47,
  "name": "Белоомут",
  "info": "Глубина скважины 50 м.",
  "lat": 54.943385,
  "lon": 39.34002
}, {
  "val": [40],
  "id": 48,
  "name": "Григорьевское",
  "info": "Хлябово<br>Глубина скважины 40 м.",
  "lat": 54.802588,
  "lon": 39.25654
}, {
  "val": [63,70,77],
  "id": 49,
  "name": "Можайск",
  "info": "Глубина скважин 63, 70,77 м.",
  "lat": 55.504726,
  "lon": 36.012534
}, {
  "val": [60,57],
  "id": 50,
  "name": "Ивакино",
  "info": "Глубина скважины 60,57 м.",
  "lat": 55.325544,
  "lon": 35.609119
}, {
  "val": [80],
  "id": 51,
  "name": "Поречье",
  "info": "Глубина скважины 80 м.",
  "lat": 55.714298,
  "lon": 35.546758
}, {
  "val": [90],
  "id": 52,
  "name": "Грибки",
  "info": "Глубина скважины 90 м.",
  "lat": 55.956406,
  "lon": 37.535385
}, {
  "val": [140],
  "id": 53,
  "name": "Протасово",
  "info": "Хлябово<br>Глубина скважины 140 м.",
  "lat": 56.135479,
  "lon": 37.599885
}, {
  "val": [96,120,105,125],
  "id": 54,
  "name": "Мытищи",
  "info": "Глубина скважин 96,120,105,125 м., СНТ \"Водоканал\"-41м  <br>Песчаный горизонт до 30 м.  деб - 2 м2",
  "lat": 55.918968,
  "lon": 37.749167
}, {
  "val": [53,60,66,70,74],
  "id": 55,
  "name": "Апрелевка",
  "info": "Глубина скважин - 53, 60, 66, 70, 74  м.",
  "lat": 55.548375,
  "lon": 37.057859
}, {
  "val": [30,40],
  "id": 56,
  "name": "Верея",
  "info": "Глубина скважин 30,40 м.",
  "lat": 55.344679,
  "lon": 36.182011
}, {
  "val": [120],
  "id": 57,
  "name": "Немчиновка",
  "info": "Хлябово<br>Глубина скважины 120 м.",
  "lat": 55.718978,
  "lon": 37.36953
}, {
  "val": [120],
  "id": 58,
  "name": "Немчиновка",
  "info": "Хлябово<br>Глубина скважины 120 м.",
  "lat": 55.718978,
  "lon": 37.36953
}, {
  "val": [70,76,93],
  "id": 59,
  "name": "Голицыно",
  "info": "Глубина скважины 70, 76, 93 м.",
  "lat": 55.60969,
  "lon": 36.985087
}, {
  "val": [45,55,57,68],
  "id": 60,
  "name": "Кубинка",
  "info": "Глубина скважин - 45, 55, 57, 68 м.",
  "lat": 55.5616336,
  "lon": 36.7015058
}, {
  "val": [60,80],
  "id": 61,
  "name": "Бояркино",
  "info": "Глубина скважин 60,80 м.",
  "lat": 54.956777,
  "lon": 38.52143
}, {
  "val": [80,100],
  "id": 62,
  "name": "Клишино",
  "info": "Глубина скважины 80,100 м.",
  "lat": 54.825981,
  "lon": 38.572904
}, {
  "val": [45,59,60,70,92,115,74,86,90,92,79],
  "id": 63,
  "name": "Куровское",
  "info": "Глубина скважины 45, 59, 60, 70, 92, 115 м.<br>СНТ \"Гуслица\" - 74 м.<br> СНТ \"Салют\"-86 м.<br>СНТ \"Рассвет\" - 90, 92 м.<br>ул. Горького - 79 м.",
  "lat": 55.580335,
  "lon": 38.917156
}, {
  "val": [80],
  "id": 64,
  "name": "Савинская",
  "info": "Глубина скважины 80 м.",
  "lat": 55.69038,
  "lon": 39.316646
}, {
  "val": [80,75,76],
  "id": 65,
  "name": "Орехово-Зуево",
  "info": "Глубина скважины 80,75,76 м.",
  "lat": 55.810891,
  "lon": 38.985168
}, {
  "val": [34,42,50,57,60,69,74,70,40,40,37,42,41,37,30,41,42,72,43,42,42,41],
  "id": 66,
  "name": "Павловский Посад",
  "info": "Глубина скважин - 34, 42, 50, 57, 60, 69, 74 м.<br>ул. Рябиновая - 70 м.<br>ул. Городковская - 40 м.<br>ул. Есенина - 40 м.<br>ул. Лесная - 37, 42 м.<br>Ул. Луговая - 41 м<br>ул. Московская - 37 м.<br>ДНП \"Грибово\" - 30, 41, 42 м.<br>СНТ \"Пингвин\" - 72 м.<br>ДНП \"Дубрава\" - 43 м.<br>1-й Лесной переулок - 42 м.<br>3-й Лесной переулок - 42 м.<br>Мишутинское шоссе - 41 м.",
  "lat": 55.7757107,
  "lon": 38.6528182
}, {
  "val": [37,70,70,42,35],
  "id": 67,
  "name": "Электрогорск",
  "info": "Глубина скважин - 35, 70 м.<br>СНТ \"Пингвин\" - 70 м.<br>ул. Пушкина - 42 м.<br>мкр. Соловки: ул. Озёрная - 35 м.",
  "lat": 55.87896,
  "lon": 38.785598
}, {
  "val": [30,40],
  "id": 68,
  "name": "Кузовлево",
  "info": "Глубина скважины 30,40 м.",
  "lat": 55.183518,
  "lon": 37.001553
}, {
  "val": [40,60],
  "id": 69,
  "name": "Шишкин Лес",
  "info": "Глубина скважины 40,60 м.",
  "lat": 55.412145,
  "lon": 37.189696
}, {
  "val": [60,80],
  "id": 70,
  "name": "Климовск",
  "info": "Глубина скважины 60,80 м.",
  "lat": 55.3584781,
  "lon": 37.5221063
}, {
  "val": [90,120,160],
  "id": 71,
  "name": "Красноармейск",
  "info": "Глубина скважины 90, 120,160 м.",
  "lat": 56.109792,
  "lon": 38.130016
}, {
  "val": [130,140],
  "id": 72,
  "name": "Ашукино",
  "info": "Глубина скважины 130,140 м.",
  "lat": 56.174104,
  "lon": 37.949383
}, {
  "val": [22,41,50,76],
  "id": 73,
  "name": "Ульянино",
  "info": "Глубина скважины 22, 41, 50, 76 м.",
  "lat": 55.35051,
  "lon": 38.429254
}, {
  "val": [40,90,80,30,35,40],
  "id": 74,
  "name": "Раменское",
  "info": "Глубина скважин - 40, 90 м.<br>мкр. Гостиницы - 80 м.<br>ДНП Честный - 30 м<br>\"Рябинка -1\" -35 м <br>КП \"Лукошкино\" - 40 м",
  "lat": 55.574258,
  "lon": 38.226962
}, {
  "val": [32,33,34,36,37,39,45,28,32,25,27,39,45,100,27,28,100,32,36,30],
  "id": 75,
  "name": "Полтево",
  "info": "Глубина скважин - 32, 33, 34, 36, 37, 39, 45 м.<br>СНТ \"Медик\" - 28, 32 м.<br>СНТ \"Малиновка\" - 25, 27, 39, 45, 100 м.<br>СНТ \"Малиновка-1\" - 27, 28 м.<br>СНТ \"Малиновка-2\" - 100 м.<br>СНТ \"Полтево\" - 32, 36 м.<br>Ул. Фермерская - 30 м<br>ул. Никольская - 31, 37 м.",
  "lat": 55.7055159,
  "lon": 38.1361307
}, {
  "val": [56,62,70,95,120,46],
  "id": 76,
  "name": "Волоколамск",
  "info": "Глубина скважин - 56, 62, 70, 95, 120 м.<br>ул. Холстникова - 46 м.",
  "lat": 56.0355018,
  "lon": 35.9565321
}, {
  "val": [43],
  "id": 77,
  "name": "Берендино",
  "info": "Глубина скважины 43 м.",
  "lat": 55.411716,
  "lon": 38.808855
}, {
  "val": [163],
  "id": 78,
  "name": "Абрамцево",
  "info": "Глубина скважины 163 м.",
  "lat": 56.217941,
  "lon": 37.966559
}, {
  "val": [74],
  "id": 79,
  "name": "Игнатьево",
  "info": "Глубина скважины 74 м.",
  "lat": 56.408836,
  "lon": 38.216192
}, {
  "val": [43],
  "id": 80,
  "name": "Берендино",
  "info": "Глубина скважины 43 м.",
  "lat": 55.411716,
  "lon": 38.808855
}, {
  "val": [90,55],
  "id": 81,
  "name": "Барановское",
  "info": "Глубина скважины 90,55 м.",
  "lat": 55.406354,
  "lon": 38.753223
}, {
  "val": [115],
  "id": 82,
  "name": "Ворщиково",
  "info": "Глубина скважины 115 м.",
  "lat": 55.4574867,
  "lon": 38.3758591
}, {
  "val": [38,50,52,56],
  "id": 83,
  "name": "Золотово",
  "info": "Глубина скважин 38, 50, 52, 56 м.",
  "lat": 55.430476,
  "lon": 38.529812
}, {
  "val": [45,63,65,84,66,75,84,66,70],
  "id": 84,
  "name": "Цибино",
  "info": "Глубина скважины 45, 63, 65, 84 м.<br>ул. Моёвка - 66 м.<br>ул. Весенняя - 75, 84 м.<br>ДП \"Три Жеребенка\" - 66, 70 м.  песчаный горизонт с высоким уровнем - 15 м. качество воды плохое.",
  "lat": 55.46882,
  "lon": 38.4114465
}, {
  "val": [40,58,62,50,70],
  "id": 85,
  "name": "Фаустово",
  "info": "Глубина скважин - 40, 58, 62 м.<br>КП \"Москва-Река\" - 50 м.<br>СНТ \"Нефтяник-92\" - 70 м.",
  "lat": 55.4390927,
  "lon": 38.4916213
}, {
  "val": [36],
  "id": 86,
  "name": "Борисово",
  "info": "Глубина скважины 36 м.",
  "lat": 55.358678,
  "lon": 38.051782
}, {
  "val": [62,39],
  "id": 87,
  "name": "Битягово",
  "info": "Глубина скважины 62,39 м.",
  "lat": 55.386185,
  "lon": 37.74154
}, {
  "val": [32,35,45,47,52,45,40,43],
  "id": 88,
  "name": "Востряково",
  "info": "Глубина скважин - 32, 35, 45, 47 м.<br>СНТ \"Пресса\" - 52 м.<br>СНТ \"ЗИЛ\" - 45 м.<br>СНТ \"Востряково-ЗИЛ\" - 40, 43 м.",
  "lat": 55.3991216,
  "lon": 37.8234523
}, {
  "val": [39,40,35,39],
  "id": 89,
  "name": "Красный Путь",
  "info": "Глубина скважин - 39, 40 м.<br>СНТ \"Аист\" - 35 м.<br>ул. Майская - 39 м.",
  "lat": 55.34258,
  "lon": 37.925982
}, {
  "val": [65],
  "id": 90,
  "name": "Старосъяново",
  "info": "Глубина скважины 65 м.",
  "lat": 55.487188,
  "lon": 37.791244
}, {
  "val": [25,51,54],
  "id": 91,
  "name": "Заболотье",
  "info": "Глубина скважины 25, 51, 54 м.",
  "lat": 55.448076,
  "lon": 37.674939
}, {
  "val": [28],
  "id": 92,
  "name": "Шубино",
  "info": "Глубина скважины 28 м.",
  "lat": 55.348457,
  "lon": 38.016083
}, {
  "val": [146,150,153,112],
  "id": 93,
  "name": "Икша",
  "info": "Глубина скважин - 146, 150, 153 м.<br>СНТ \"Плёс\" - 112 м.",
  "lat": 56.174184,
  "lon": 37.503405
}, {
  "val": [176,157,171],
  "id": 94,
  "name": "Дмитров",
  "info": "Глубина скважины 176, 157,171 м.",
  "lat": 56.357415,
  "lon": 37.529924
}, {
  "val": [157],
  "id": 95,
  "name": "Лотосово",
  "info": "Глубина скважины 157 м.",
  "lat": 56.185197,
  "lon": 37.618803
}, {
  "val": [126],
  "id": 96,
  "name": "Овсянниково",
  "info": "Глубина скважины 126 м.",
  "lat": 56.380503,
  "lon": 37.651115
}, {
  "val": [183,186],
  "id": 97,
  "name": "Подъячево",
  "info": "Глубина скважин - 183, 186 м.",
  "lat": 56.2607284,
  "lon": 37.2515771
}, {
  "val": [110],
  "id": 98,
  "name": "Рыбаки",
  "info": "Глубина скважины 110 м.",
  "lat": 56.055794,
  "lon": 37.357097
}, {
  "val": [135],
  "id": 99,
  "name": "Ульянки",
  "info": "Глубина скважины 135 м.",
  "lat": 56.258513,
  "lon": 37.590982
}, {
  "val": [155],
  "id": 100,
  "name": "Удино",
  "info": "Глубина скважины 155 м.",
  "lat": 56.148659,
  "lon": 37.316951
}, {
  "val": [167],
  "id": 101,
  "name": "Кромино",
  "info": "Глубина скважины 167 м.",
  "lat": 56.27227,
  "lon": 37.514419
}, {
  "val": [140],
  "id": 102,
  "name": "Измайлово",
  "info": "Глубина скважины 140 м.",
  "lat": 56.508605,
  "lon": 37.77016
}, {
  "val": [42],
  "id": 103,
  "name": "Подрядниково",
  "info": "Глубина скважины 42 м.",
  "lat": 55.316544,
  "lon": 39.334064
}, {
  "val": [50,61,45,47,48,51,52],
  "id": 104,
  "name": "Щеголево",
  "info": "Глубина скважин - 50, 61 м.<br>СНТ \"Красаная Лента\" - 45, 47, 48, 51, 52 м.",
  "lat": 55.3258048,
  "lon": 39.1693292
}, {
  "val": [48],
  "id": 105,
  "name": "Федякино",
  "info": "Глубина скважины 48 м.",
  "lat": 55.4213475,
  "lon": 39.2359167
}, {
  "val": [87,95,93,100],
  "id": 106,
  "name": "Аносино",
  "info": "Глубина скважин - 87, 95 м.<br>КП \"Рига Парк\" - 93, 100 м.",
  "lat": 55.8398952,
  "lon": 37.0089871
}, {
  "val": [87,86],
  "id": 107,
  "name": "Ивановское",
  "info": "Глубина скважины 87, 86 м. (сероводород)",
  "lat": 55.926091,
  "lon": 36.960545
}, {
  "val": [113],
  "id": 108,
  "name": "Лисавино",
  "info": "Глубина скважины 113 м.",
  "lat": 55.965214,
  "lon": 37.000259
}, {
  "val": [40,35],
  "id": 109,
  "name": "Первомайский",
  "info": "Глубина скважин 40, 35 м.",
  "lat": 55.912324,
  "lon": 36.806178
}, {
  "val": [94,110],
  "id": 110,
  "name": "Турово",
  "info": "Глубина скважины 94, 110 м.",
  "lat": 55.902984,
  "lon": 37.113132
}, {
  "val": [70],
  "id": 111,
  "name": "Петровское",
  "info": "Глубина скважины 70 м.",
  "lat": 55.903771,
  "lon": 37.08656
}, {
  "val": [84,90],
  "id": 112,
  "name": "Чесноково",
  "info": "Глубина скважин - 84, 90 м.",
  "lat": 55.782349,
  "lon": 37.047331
}, {
  "val": [180],
  "id": 113,
  "name": "Елгозино",
  "info": "Глубина скважины 180 м.",
  "lat": 56.23392,
  "lon": 36.359042
}, {
  "val": [130,180,181],
  "id": 114,
  "name": "Клин",
  "info": "Глубина скважины 130,180,181 м.",
  "lat": 56.344955,
  "lon": 36.72471
}, {
  "val": [170],
  "id": 115,
  "name": "Троицкое",
  "info": "Глубина скважины 170 м.",
  "lat": 56.302867,
  "lon": 36.496646
}, {
  "val": [27,67,79],
  "id": 116,
  "name": "Болшое Карасево",
  "info": "Глубина скважины 27,67,79 м.",
  "lat": 55.000864,
  "lon": 38.633441
}, {
  "val": [30],
  "id": 117,
  "name": "Малое Уварово",
  "info": "Глубина скважины 30 м.",
  "lat": 55.037417,
  "lon": 38.548568
}, {
  "val": [95,60],
  "id": 118,
  "name": "Петрово-Дальнее",
  "info": "Глубина скважины 95,60 м.",
  "lat": 55.748954,
  "lon": 37.178314
}, {
  "val": [63,115,89,76],
  "id": 119,
  "name": "Нахабино",
  "info": "Глубина скважин 63,115,89,76 м.",
  "lat": 55.848038,
  "lon": 37.171792
}, {
  "val": [80,92,95,125],
  "id": 120,
  "name": "Аристово",
  "info": "Глубина скважин - 80, 92, 95, 125 м.",
  "lat": 55.8939406,
  "lon": 37.2832187
}, {
  "val": [98,100,96,102],
  "id": 121,
  "name": "Желябино",
  "info": "Глубина скважины 98,100, 96,102 м.",
  "lat": 55.869051,
  "lon": 37.186201
}, {
  "val": [110],
  "id": 122,
  "name": "Степановское",
  "info": "Глубина скважины 110 м.",
  "lat": 55.776841,
  "lon": 37.142687
}, {
  "val": [85,35],
  "id": 123,
  "name": "Большое Саврасово",
  "info": "Глубина скважины 85 м. 35 м.",
  "lat": 55.496118,
  "lon": 37.913657
}, {
  "val": [65,80],
  "id": 124,
  "name": "Валуево",
  "info": "Глубина скважин 65,80 м.",
  "lat": 55.571296,
  "lon": 37.353027
}, {
  "val": [51,70,90,100,56],
  "id": 125,
  "name": "Видное",
  "info": "Глубина скважин - 51, 70, 90, 100 м.<br>СНТ \"Реформа\" - 56 м.",
  "lat": 55.546016,
  "lon": 37.6992389
}, {
  "val": [57,65],
  "id": 126,
  "name": "Ватутинки",
  "info": "Глубина скважины - 57 м.<br>Яковлево - 65 м.",
  "lat": 55.501773,
  "lon": 37.330776
}, {
  "val": [53,54],
  "id": 127,
  "name": "Троицк",
  "info": "Глубина скважины 53,54 м.",
  "lat": 55.479276,
  "lon": 37.294502
}, {
  "val": [80,65,61],
  "id": 128,
  "name": "Григорчиково",
  "info": "Глубина скважины 80, 65,61 м.<br>",
  "lat": 55.513142,
  "lon": 37.898871
}, {
  "val": [35,40,63,70,33],
  "id": 129,
  "name": "Десна",
  "info": "Глубина скважин - 35, 40, 63, 70 м.<br>Около реки 18 м.<br>СНТ \"Десна\" - 33 м.",
  "lat": 55.523937,
  "lon": 37.376411
}, {
  "val": [102],
  "id": 130,
  "name": "Дроздово",
  "info": "Глубина скважины 102 м.",
  "lat": 55.604132,
  "lon": 37.800829
}, {
  "val": [100,85],
  "id": 131,
  "name": "Картино",
  "info": "Глубина скважины 100,85 м.",
  "lat": 55.588232,
  "lon": 37.784318
}, {
  "val": [60,65],
  "id": 132,
  "name": "Суханово",
  "info": "Глубина скважины 60,65 м.",
  "lat": 55.519677,
  "lon": 37.65373
}, {
  "val": [98,185],
  "id": 133,
  "name": "Мисайлово",
  "info": "Глубина скважины 98,185 м.",
  "lat": 55.563579,
  "lon": 37.817016
}, {
  "val": [57,70,80,31],
  "id": 134,
  "name": "Красково",
  "info": "Глубина скважины 75, 70, 80 м., <br>ул. Новая стройка - 18 м (на песок)<br>СНТ \"Заречье\" - 31м",
  "lat": 55.6576311,
  "lon": 37.9844404
}, {
  "val": [61,62,65,70,73,75,80,80,77,76,77],
  "id": 135,
  "name": "Малаховка",
  "info": "Глубина скважин - 61, 62, 65, 70, 73, 75, 80 м.<br>ул. Толстого- 80 м.<br>ул. Герцена - 77 м.<br>ул. Мамина-Сибиряка - 76 м.                             ул. Шоссейная- 77м",
  "lat": 55.643668,
  "lon": 38.009031
}, {
  "val": [32,76],
  "id": 136,
  "name": "Машково",
  "info": "Глубина скважины 32, 76 м.",
  "lat": 55.686533,
  "lon": 37.974239
}, {
  "val": [48,75,98,40],
  "id": 137,
  "name": "Лыткарино",
  "info": "Глубина скважин 48, 75, 98, 40 м.",
  "lat": 55.576839,
  "lon": 37.923476
}, {
  "val": [54,74,80,73,70],
  "id": 138,
  "name": "Томилино",
  "info": "Глубина скважин - 54, 74, 80 м.<br>ул. Гаршина - 73 м.<br>ул. Серафимовича - 70 м.",
  "lat": 55.654741,
  "lon": 37.94526
}, {
  "val": [92,110],
  "id": 139,
  "name": "Вешки",
  "info": "Глубина скважин - 92, 110 м.",
  "lat": 55.926282,
  "lon": 37.611724
}, {
  "val": [109],
  "id": 140,
  "name": "Болтино",
  "info": "Глубина скважины 109 м.",
  "lat": 55.96803,
  "lon": 37.670492
}, {
  "val": [82],
  "id": 141,
  "name": "Жостово",
  "info": "Глубина скважины 82 м.",
  "lat": 56.00538,
  "lon": 37.64728
}, {
  "val": [85,117,125],
  "id": 142,
  "name": "Лобня",
  "info": "Глубина скважин - 85, 117, 125 м.",
  "lat": 56.033877,
  "lon": 37.469764
}, {
  "val": [86],
  "id": 143,
  "name": "Марфино",
  "info": "Глубина скважины 86 м.",
  "lat": 56.073665,
  "lon": 37.5577
}, {
  "val": [70],
  "id": 144,
  "name": "Осташково",
  "info": "Глубина скважины 70 м.",
  "lat": 55.998665,
  "lon": 37.593749
}, {
  "val": [64],
  "id": 145,
  "name": "Ульянково",
  "info": "Глубина скважины 64 м.",
  "lat": 56.000356,
  "lon": 37.71141
}, {
  "val": [71,100,74,67],
  "id": 146,
  "name": "Борисово",
  "info": "Глубина скважин - 71, 100 м.<br>СНТ \"Берег-2\" - 74 м. (самоизлив).<br>ДНП \"Прибрежный\" - 67 м (самоизлив)",
  "lat": 55.418809,
  "lon": 36.051243
}, {
  "val": [60],
  "id": 147,
  "name": "Тропарево",
  "info": "Глубина скважины 60 м.",
  "lat": 55.376416,
  "lon": 35.900308
}, {
  "val": [43,55,60,50,51],
  "id": 148,
  "name": "Клементьево",
  "info": "Глубина скважин - 43, 55, 60 м.<br>КП \"Тихие просторы\" - 50 м, 51 м",
  "lat": 55.6460762,
  "lon": 36.0311107
}, {
  "val": [41,42,43,69,42,47,50],
  "id": 149,
  "name": "Шаликово",
  "info": "Глубина скважин - 41, 42, 43 м.<br>СНТ \"Ока\" - 69 м.<br>ул. Лесная - 42 м.<br>ДНП \"Захарьино-2\" - 47 м.<br>ДНП \"Можайское раздолье\" - 50 м.",
  "lat": 55.512398,
  "lon": 36.219758
}, {
  "val": [75],
  "id": 150,
  "name": "Рогозинино",
  "info": "Глубина скважины 75 м - ул. Луговая",
  "lat": 55.536787,
  "lon": 37.194116
}, {
  "val": [48,67,33],
  "id": 151,
  "name": "Верея",
  "info": "Глубина скважин - 48, 67 м.<br>СНТ \"Берёза\" - 33 м.",
  "lat": 55.344923,
  "lon": 36.1798652
}, {
  "val": [35,43,49],
  "id": 152,
  "name": "Башкино",
  "info": "Глубина скважин - 35 м.<br>КИЗ Гамби - 43, 49 м.",
  "lat": 55.319464,
  "lon": 36.670317
}, {
  "val": [82],
  "id": 153,
  "name": "Жихарево",
  "info": "Глубина скважины 82 м.",
  "lat": 55.4842829,
  "lon": 36.6322429
}, {
  "val": [65,70],
  "id": 154,
  "name": "Крекшино",
  "info": "Глубина скважин 65,70 м.",
  "lat": 55.5802811,
  "lon": 37.1242519
}, {
  "val": [65,69,70],
  "id": 155,
  "name": "Кокошкино",
  "info": "Глубина скважин -  65, 69, 70 м.",
  "lat": 55.6019,
  "lon": 37.174074
}, {
  "val": [48,60,56],
  "id": 156,
  "name": "Могутово",
  "info": "Глубина скважины 48, 60 м.<br>СНТ \"Ветеран\" - 56 м.",
  "lat": 55.354435,
  "lon": 36.892129
}, {
  "val": [45],
  "id": 157,
  "name": "Настасьино",
  "info": "Глубина скважины 45 м.",
  "lat": 55.532314,
  "lon": 37.129212
}, {
  "val": [97,77],
  "id": 158,
  "name": "Шапкино",
  "info": "Глубина скважин 97 м.<br>КП \"Лесные пруды\" - 77 м.",
  "lat": 55.36071,
  "lon": 36.547499
}, {
  "val": [63,102],
  "id": 159,
  "name": "Авдотьино",
  "info": "Глубина скважин 63,102 м.",
  "lat": 55.92485,
  "lon": 38.234751
}, {
  "val": [102],
  "id": 160,
  "name": "Ивашево",
  "info": "Глубина скважины 102 м.",
  "lat": 55.805052,
  "lon": 38.294471
}, {
  "val": [35,40],
  "id": 161,
  "name": "Ельня",
  "info": "Глубина скважин 35, 40 м.",
  "lat": 55.843434,
  "lon": 38.338192
}, {
  "val": [27,41,33,32,34],
  "id": 162,
  "name": "Стулово",
  "info": "Глубина скважины 27, 41 - с/т Энергия <br>33 м. <br>КП \"Родничок - 32, 34 м",
  "lat": 55.847978,
  "lon": 38.301127
}, {
  "val": [96,37],
  "id": 163,
  "name": "Пашуково",
  "info": "Глубина скважины 96, 37 м.",
  "lat": 55.907899,
  "lon": 38.259014
}, {
  "val": [35,36,38,40],
  "id": 164,
  "name": "Пешково",
  "info": "Глубина скважины 35, 36, 38 м.<br>Мкрн \"Солнечный\" 40 м",
  "lat": 55.854457,
  "lon": 38.3984264
}, {
  "val": [80,103],
  "id": 165,
  "name": "Горки-10",
  "info": "Глубина скважин 80,103 м.",
  "lat": 55.705539,
  "lon": 37.022259
}, {
  "val": [60,99,105],
  "id": 166,
  "name": "Ершово",
  "info": "Глубина скважин 60, 99, 105 м.",
  "lat": 55.767215,
  "lon": 36.85943
}, {
  "val": [92, 88,110],
  "id": 167,
  "name": "Жаворонки",
  "info": "Глубина скважины 92, 88, 110м.",
  "lat": 55.648524,
  "lon": 37.093109
}, {
  "val": [103,60],
  "id": 168,
  "name": "Клопово",
  "info": "Глубина скважин 103,60 м.",
  "lat": 55.694703,
  "lon": 36.851067
}, {
  "val": [77,82],
  "id": 169,
  "name": "Кезьмино",
  "info": "Глубина скважины 77, 82 м.",
  "lat": 55.792979,
  "lon": 36.912
}, {
  "val": [94],
  "id": 170,
  "name": "Лесной Городок",
  "info": "Глубина скважины 94 м.",
  "lat": 55.641016,
  "lon": 37.207716
}, {
  "val": [80,105],
  "id": 171,
  "name": "Малые Вяземы",
  "info": "Глубина скважин 80,105 м.",
  "lat": 55.632571,
  "lon": 37.022214
}, {
  "val": [98,119],
  "id": 172,
  "name": "Одинцово",
  "info": "Глубина скважины 98,119 м.",
  "lat": 55.670539,
  "lon": 37.270769
}, {
  "val": [80,90,127],
  "id": 173,
  "name": "Успенское",
  "info": "Глубина скважин 80,90, 127 м.",
  "lat": 55.715145,
  "lon": 37.070453
}, {
  "val": [87],
  "id": 174,
  "name": "Шульгино",
  "info": "Глубина скважины 87 м.",
  "lat": 55.724393,
  "lon": 37.294691
}, {
  "val": [85],
  "id": 175,
  "name": "Ямищево",
  "info": "Глубина скважины 85 м.",
  "lat": 55.618496,
  "lon": 37.144169
}, {
  "val": [39],
  "id": 176,
  "name": "Острово",
  "info": "Глубина скважины 39 м.",
  "lat": 55.681306,
  "lon": 38.871216
}, {
  "val": [86],
  "id": 177,
  "name": "Хотеичи",
  "info": "Глубина скважины 86 м.",
  "lat": 55.5034,
  "lon": 38.781457
}, {
  "val": [25,23,24,26,32,27,32],
  "id": 178,
  "name": "Назарьево",
  "info": "Глубина скважины 25, 23, 24, 26, 32 м.<br>Петровский луч - 27 м.<br>Ул.Железнодорожная - 32 м",
  "lat": 55.750641,
  "lon": 38.777648
}, {
  "val": [64],
  "id": 179,
  "name": "Борисовка",
  "info": "Глубина скважины 64 м.",
  "lat": 55.479072,
  "lon": 37.603181
}, {
  "val": [34,62],
  "id": 180,
  "name": "Быковка",
  "info": "Глубина скважины 34,62 м.",
  "lat": 55.477454,
  "lon": 37.620213
}, {
  "val": [40,50,61,70,65],
  "id": 181,
  "name": "Вороново",
  "info": "Глубина скважин - 40, 50, 61, 70 м.<br>СНТ \"Электрик\" - 65 м.",
  "lat": 55.3230463,
  "lon": 37.1593394
}, {
  "val": [35,42,43,65,41],
  "id": 182,
  "name": "Кленово",
  "info": "Глубина скважин - 35, 42, 43, 65 м.<br>п. Звезда 95 - 41 м.",
  "lat": 55.322389,
  "lon": 37.357052
}, {
  "val": [76],
  "id": 183,
  "name": "Ерино",
  "info": "Глубина скважины 76 м.",
  "lat": 55.4548566,
  "lon": 37.505715
}, {
  "val": [41,50,33,53,62],
  "id": 184,
  "name": "Новогромово",
  "info": "Глубина скважин 41, 50, 33,53, 62 м.",
  "lat": 55.274185,
  "lon": 37.234387
}, {
  "val": [24,30,44,39,57,63,86],
  "id": 185,
  "name": "Подольск",
  "info": "Глубина скважин 24, 30,44,39,57,63,86 м.",
  "lat": 55.439196,
  "lon": 37.544997
}, {
  "val": [55,74,100],
  "id": 186,
  "name": "Потапово",
  "info": "Глубина скважины 55,74, 100 м. ",
  "lat": 55.510752,
  "lon": 37.673987
}, {
  "val": [25,75,90],
  "id": 187,
  "name": "Щербинка",
  "info": "Глубина скважины 25,75,90 м.",
  "lat": 55.504894,
  "lon": 37.550666
}, {
  "val": [33],
  "id": 188,
  "name": "Холопово",
  "info": "Глубина скважины 33 м.",
  "lat": 55.457424,
  "lon": 37.641854
}, {
  "val": [77,185],
  "id": 189,
  "name": "Бортнево, Новое Бортнево",
  "info": "Глубина скважины 77 ,185м.",
  "lat": 56.154846,
  "lon": 37.807458
}, {
  "val": [82,98,133,93],
  "id": 190,
  "name": "Братовщина",
  "info": "Глубина скважины 82,98,133, ул. Липки - 93 м.",
  "lat": 56.052054,
  "lon": 37.878021
}, {
  "val": [30,188,167],
  "id": 191,
  "name": "Герасимиха",
  "info": "Глубина скважины на песок 30 м.,<br>Известняк 188, 167 м.",
  "lat": 56.221349,
  "lon": 37.778883
}, {
  "val": [178,105],
  "id": 192,
  "name": "Степаньково",
  "info": "Глубина скважины 178,105 м.",
  "lat": 56.065364,
  "lon": 37.813136
}, {
  "val": [55],
  "id": 193,
  "name": "Лесные Поляны",
  "info": "Глубина скважины 55 м.",
  "lat": 55.959666,
  "lon": 37.865624
}, {
  "val": [43,49,67,70,82,90,100,50,69],
  "id": 194,
  "name": "Пушкино",
  "info": "Глубина скважин - 43, 49, 67, 70, 82, 90, 100 м.<br>СНТ \"Сосенки\" - 50 м.<br>мкр. Заветы Ильича - 69 м.",
  "lat": 55.9871198,
  "lon": 37.8435832
}, {
  "val": [61],
  "id": 195,
  "name": "Черкизово",
  "info": "Глубина скважины 61 м.",
  "lat": 55.962332,
  "lon": 37.793813
}, {
  "val": [24,35,38,67,55],
  "id": 196,
  "name": "Антоново",
  "info": "Глубина скважин - 24, 35, 38, 67  м.<br>ул. Совхозная - 55 м.",
  "lat": 55.577261,
  "lon": 38.579003
}, {
  "val": [47,65,70,79,84,79,48,50,55,56],
  "id": 197,
  "name": "Бояркино",
  "info": "Глубина скважины 47, 65, 70, 79, 84 м.<br>ДНП \"Старая мельница\" 79 м.<br>КП \"Ромашкино\" - 48, 50, 55, 56 м.",
  "lat": 55.456182,
  "lon": 38.3008572
}, {
  "val": [42,45,60,65,55],
  "id": 198,
  "name": "Бронницы",
  "info": "Глубина скважин - 42, 45, 60 м.<br>п. \"Белаго\" - 65м.<br>СНТ \"Ромашкино\" - 55 м.",
  "lat": 55.419524,
  "lon": 38.250885
}, {
  "val": [95],
  "id": 199,
  "name": "Воскресенское",
  "info": "Глубина скважины 95 м.",
  "lat": 55.4239982,
  "lon": 38.0551068
}, {
  "val": [32,45,73,85,90,92,95,87,91,111],
  "id": 200,
  "name": "Вялки",
  "info": "Глубина скважин - 32, 45, 73, 85, 90, 92, 95 м.<br>ул. Новослободская - 87 м.<br>ул. 1-я Ясная - 91 м.<br>ул.Звездная - 111м",
  "lat": 55.6528765,
  "lon": 38.091997
}, {
  "val": [55],
  "id": 201,
  "name": "Дементьево",
  "info": "Глубина скважины 55 м.",
  "lat": 55.610895,
  "lon": 38.290455
}, {
  "val": [70,65,40,46],
  "id": 202,
  "name": "Жуково",
  "info": "Глубина скважины 70, 65,40, 46 м.",
  "lat": 55.505956,
  "lon": 38.015785
}, {
  "val": [60,77],
  "id": 203,
  "name": "Захарово",
  "info": "Глубина скважины 60,77 м.",
  "lat": 55.409907,
  "lon": 38.363731
}, {
  "val": [40],
  "id": 204,
  "name": "Зеленая Слобода",
  "info": "Глубина скважины 40 м.",
  "lat": 55.526699,
  "lon": 37.998763
}, {
  "val": [80,81,84,24,98,70,81,85,84,93],
  "id": 205,
  "name": "Ильинский",
  "info": "Глубина скважин - 80, 81, 84 м.<br>ул. Островского - 24 м.<br>Бывший Пивзавод - 98 м.<br>ул. Некрасова - 70 м.<br>ул. Гоголя - 81 м.<br>ул. 40 лет Октября - 85 м.<br>ул. Октябрьская - 84 м.<br>ул. Хрипаньское поле - 93 м.",
  "lat": 55.6237088,
  "lon": 38.1056332
}, {
  "val": [54,61,78,79,80,89,90,75,81,70,80,66,85,74,105,70,75,83,87,89,86,70,70,85,72,73,72,87,55,75],
  "id": 206,
  "name": "Кратово",
  "info": "Глубина скважин - 54, 61, 78, 79, 80, 89, 90 м.<br>ул. Гоголя -75 м.<br>ул. Народная - 81 м.<br>ул. Октябрьская - 70, 80 м.<br>ул. Красковская - 66 м.<br>ул. Нижняя Береговая - 85 м.<br>ул. Кирова - 74 м.<br>ул. Бирюза - 105 м.<br>ул. Сосновая - 70 м.<br>ул. Маяковского - 75 м.<br>ул. Толстого - 83, 87 м.<br>ул. Яблочкова - 89 м.<br>ул. Фрезерная - 86 м.<br>ул. Менделеева - 70 м.<br>ул. Дружная - 70 м.<br>ул. 3-я Западная - 85 м.<br>ул. Муромская - 72 м.<br>ул. Кооперативная - 73 м.<br>ул. Большая Московская - 72 м.<br>ул. Интернациональная - 87 м.<br>ул. Кратовская - 55 м.<br>ул. Конечная - 75 м.",
  "lat": 55.596981,
  "lon": 38.162868
}, {
  "val": [66,62,59,73,60,60],
  "id": 207,
  "name": "Литвиново",
  "info": "Глубина скважин 66,62,59,73,60 м. ДНП Литвиново-2009 , ул. Радужная, 60 м ",
  "lat": 55.539614,
  "lon": 38.319058
}, {
  "val": [72],
  "id": 208,
  "name": "Михнево",
  "info": "Глубина скважины 72 м.",
  "lat": 55.620021,
  "lon": 37.999707
}, {
  "val": [40,42,51,60,63,43],
  "id": 209,
  "name": "Никитское",
  "info": "Глубина скважин - 40, 42, 51, 60, 63 м.<br>СНТ \" Яблоневая Усадьба\" - 43 м.",
  "lat": 55.299563,
  "lon": 38.4627897
}, {
  "val": [60,95,75],
  "id": 210,
  "name": "Осеченки",
  "info": "Глубина скважин 60,95,75 м.",
  "lat": 55.656458,
  "lon": 38.105807
}, {
  "val": [42,50,65,80,65,60],
  "id": 211,
  "name": "Островцы",
  "info": "Глубина скважин - 42,5; 50; 65; 80 м.<br>ул. 3-я Лесная - 65 м.<br>ул. Совхозная - 60м",
  "lat": 55.590969,
  "lon": 37.994416
}, {
  "val": [38,42,80,90,40,20,42],
  "id": 212,
  "name": "Полушкино",
  "info": "Глубина скважин - 38, 42, 80, 90 м., <br>СНТ \"Юбилейное\" - 40 м.<br>СНТ \"Ясная поляна\" - 20 м.<br>сп. Вялковское ул. Солнечная - 42 м.",
  "lat": 55.6871557,
  "lon": 38.0906478
}, {
  "val": [70,74,80,25,19],
  "id": 213,
  "name": "Речицы",
  "info": "Глубина скважин - 70, 74, 80 м.<br>СНТ \"Русь\" - 25 м.<br>СНТ \"Росток-1\" - 19 м",
  "lat": 55.5998673,
  "lon": 38.4639377
}, {
  "val": [60,65,73,75,76,87,89,92,80,85,92,82,89,80,87],
  "id": 214,
  "name": "Родники",
  "info": "Глубина скважин - 60, 65, 73, 75, 76, 87, 89, 92 м. СНТ \"Здоровье\" - 80, 85 м.<br>ул. Рябиновая - 92 м.<br>ул. Вертолётная - 82 м.<br>ул. Геонедр - 89 м.<br>ул. 300 лет флота - 80, 87 м.  ",
  "lat": 55.650282,
  "lon": 38.06205
}, {
  "val": [23,31,42,55,80,35],
  "id": 215,
  "name": "Салтыково",
  "info": "Глубина скважин - 23, 31, 42, 55, 80 м.<br>СНТ \"Долина озёр\" - 35 м.",
  "lat": 55.385213,
  "lon": 38.123665
}, {
  "val": [42,46,49,55,56,57,58,60,62,56,58,59,60,42,49,56,57,49],
  "id": 216,
  "name": "Синьково",
  "info": "Глубина скважин - 42, 46, 49, 55, 56, 57, 58, 60, 62 м.<br>КП \"Берёзовый парк\" - 56, 58, 59, 60 м.<br>КП \"Берёзка\" - 42 м.<br>СНТ \"Берёзовая опушка\" - 49, 56, 57 м.<br>сп. Софьинское - 49 м.",
  "lat": 55.5087676,
  "lon": 38.1110838
}, {
  "val": [77,55,65,52],
  "id": 217,
  "name": "Толмачево",
  "info": "Глубина скважин - 77 м.<br>СНТ \"Тюльпан\" - 55, 65 м.<br>КП \"Никоново\" - 52 м.",
  "lat": 55.361574,
  "lon": 38.223989
}, {
  "val": [55,65,82],
  "id": 218,
  "name": "Удельная",
  "info": "Глубина скважины 55,65,82 м.",
  "lat": 55.634974,
  "lon": 38.041945
}, {
  "val": [42,47],
  "id": 219,
  "name": "Федино",
  "info": "Глубина скважины 42,47 м.",
  "lat": 55.416116,
  "lon": 38.31038
}, {
  "val": [82],
  "id": 220,
  "name": "Фенино",
  "info": "Глубина скважины 82 м.",
  "lat": 55.580243,
  "lon": 38.403859
}, {
  "val": [75],
  "id": 221,
  "name": "Шилово",
  "info": "Глубина скважины 75 м.",
  "lat": 55.5270311,
  "lon": 38.1336527
}, {
  "val": [47,48,7073,75,54,80],
  "id": 222,
  "name": "Юрово",
  "info": "Глубина скважин - 47, 48, 70, 73 м.<br>ул. Космонавтов - 75 м.<br>КП \"Лесной городок\" - 54 м.<br>СНТ \"Минерал\" - 80 м.",
  "lat": 55.5086692,
  "lon": 38.3747512
}, {
  "val": [40,50,60],
  "id": 223,
  "name": "Тучково",
  "info": "Глубина скважины 40,50,60 м.",
  "lat": 55.59807,
  "lon": 36.463174
}, {
  "val": [60],
  "id": 224,
  "name": "Товарково",
  "info": "Глубина скважины 60 м.",
  "lat": 55.614399,
  "lon": 36.193159
}, {
  "val": [58],
  "id": 225,
  "name": "Хотебцово",
  "info": "Глубина скважины 58 м.",
  "lat": 55.776507,
  "lon": 36.180421
}, {
  "val": [163,150],
  "id": 226,
  "name": "Абрамцево",
  "info": "Глубина скважины 163, 150 м. (11-20 песок)",
  "lat": 56.217941,
  "lon": 37.966559
}, {
  "val": [74],
  "id": 227,
  "name": "Игнатьево",
  "info": "Глубина скважины 74 м. (на песок).",
  "lat": 56.408836,
  "lon": 38.216192
}, {
  "val": [128,141,143],
  "id": 228,
  "name": "Лешково",
  "info": "Глубина скважин 128, 141, 143м.",
  "lat": 56.201953,
  "lon": 38.078029
}, {
  "val": [48],
  "id": 229,
  "name": "Ланьшино",
  "info": "Глубина скважины 48 м.",
  "lat": 54.842662,
  "lon": 37.291915
}, {
  "val": [53,67,68,69,73,159],
  "id": 230,
  "name": "Тульчино",
  "info": "Глубина скважин 53,67,68,69,73 м.<br>Тяжёлые геологические разрезы, начинать со 159 трубы.",
  "lat": 54.834112,
  "lon": 37.707485
}, {
  "val": [18,63],
  "id": 231,
  "name": "Московка",
  "info": "Глубина скважины 18, 63 м.",
  "lat": 55.009419,
  "lon": 37.391233
}, {
  "val": [39],
  "id": 232,
  "name": "Рыжиково",
  "info": "Глубина скважины 39 м.",
  "lat": 55.040771,
  "lon": 37.445913
}, {
  "val": [66,73],
  "id": 233,
  "name": "Подмоклово",
  "info": "Глубина скважин - 66, 73 м.",
  "lat": 54.863839,
  "lon": 37.342607
}, {
  "val": [60],
  "id": 234,
  "name": "Алексеевское",
  "info": "Глубина скважины 60 м.",
  "lat": 56.099606,
  "lon": 36.976499
}, {
  "val": [115,118,121,135],
  "id": 235,
  "name": "Бакеево",
  "info": "Глубина скважин - 115, 118 м.<br>КП \"Бакеево\" - 121, 135 м.",
  "lat": 55.950186,
  "lon": 37.097178
}, {
  "val": [120,130,160,143],
  "id": 236,
  "name": "Солнечногорск",
  "info": "Глубина скважины 120,130, 160,143 м.",
  "lat": 56.185157,
  "lon": 36.977002
}, {
  "val": [129,165],
  "id": 237,
  "name": "Соколово",
  "info": "Глубина скважин - 129, 165 м.",
  "lat": 56.0368787,
  "lon": 36.9057801
}, {
  "val": [65,85],
  "id": 238,
  "name": "Рузино",
  "info": "Глубина скважины 65,85м.",
  "lat": 55.945322,
  "lon": 37.18789
}, {
  "val": [169],
  "id": 239,
  "name": "Шахматово",
  "info": "Глубина скважины 169 м.",
  "lat": 56.237719,
  "lon": 36.737201
}, {
  "val": [87],
  "id": 240,
  "name": "Чашниково",
  "info": "Глубина скважины 87 м.",
  "lat": 55.98789,
  "lon": 37.408588
}, {
  "val": [81,82],
  "id": 241,
  "name": "Фирсановка",
  "info": "Глубина скважины 81, 82 м.",
  "lat": 55.952711,
  "lon": 37.244268
}, {
  "val": [27,40],
  "id": 242,
  "name": "Грызлово",
  "info": "Глубина скважин - 27 м.<br>ул. Александровская - 40 м. (разведочная скважина, воды нет).",
  "lat": 55.021777,
  "lon": 37.822784
}, {
  "val": [42],
  "id": 243,
  "name": "Верзилово",
  "info": "Глубина скважины 42 м.",
  "lat": 55.024105,
  "lon": 38.089556
}, {
  "val": [21],
  "id": 244,
  "name": "Воскресенки",
  "info": "Глубина скважины 21 м.",
  "lat": 54.953246,
  "lon": 38.062885
}, {
  "val": [35,44,48],
  "id": 245,
  "name": "Михнево",
  "info": "Глубина скважин - 35, 44 м.<br>КП \"Ясные зори\" - 48 м.",
  "lat": 55.118771,
  "lon": 37.958294
}, {
  "val": [25,23],
  "id": 246,
  "name": "Дубечино",
  "info": "Глубина скважины 25, 23 м.",
  "lat": 55.077128,
  "lon": 37.742429
}, {
  "val": [25,36],
  "id": 247,
  "name": "Жилево",
  "info": "Глубина скважины 25,36 м.",
  "lat": 55.014205,
  "lon": 38.011708
}, {
  "val": [41,42],
  "id": 248,
  "name": "Хомутово",
  "info": "Глубина скважин - 41, 42 м.",
  "lat": 55.190996,
  "lon": 38.244749
}, {
  "val": [100],
  "id": 249,
  "name": "Большое Курапово",
  "info": "Глубина скважины 100 м.",
  "lat": 56.899488,
  "lon": 37.592033
}, {
  "val": [105,85,88,130,128,120,90,82,114],
  "id": 250,
  "name": "Вербилки",
  "info": "Глубина скважины 105, 85,88,130,128,120,90,82,114 м.",
  "lat": 56.534852,
  "lon": 37.59127
}, {
  "val": [98],
  "id": 251,
  "name": "Петрино",
  "info": "Глубина скважины 98 м.",
  "lat": 56.608571,
  "lon": 37.573878
}, {
  "val": [66],
  "id": 252,
  "name": "Вашутино",
  "info": "Глубина скважины 66 м.",
  "lat": 55.926171,
  "lon": 37.430345
}, {
  "val": [79],
  "id": 253,
  "name": "Новогорск",
  "info": "Глубина скважины 79 м.",
  "lat": 55.893031,
  "lon": 37.354222
}, {
  "val": [105],
  "id": 254,
  "name": "Терехово",
  "info": "Глубина скважины 105 м.",
  "lat": 55.930221,
  "lon": 37.482618
}, {
  "val": [38,60,27,28],
  "id": 255,
  "name": "Алексеевка",
  "info": "Глубина скважин - 38, 60 м.<br>ул. Хуторская - 27 м.<br>СНТ \"Валынское\" - 28 м.",
  "lat": 55.240307,
  "lon": 37.213205
}, {
  "val": [25,26,35,41,43,53,31,32,33,35,35,37,25],
  "id": 256,
  "name": "Васькино",
  "info": "Глубина скважин - 25, 26(самоизл), 35, 41, 43 м.<br>ул. Радужная - 53 м.<br>КП \"Сосновый Аромат\" - 31, 32, 33, 35 м.<br>КП \"Соколиная гора\" - 35 м.<br>КП \"Земляничный\" - 37 м.<br>СНТ \"Боровик\" - 25 м.",
  "lat": 55.1346885,
  "lon": 37.5986364
}, {
  "val": [56,63,34],
  "id": 257,
  "name": "Крюково",
  "info": "Глубина скважин - 56, 63 м.<br>СНТ \"Ветеран\" - 34 м.",
  "lat": 55.095992,
  "lon": 37.544108
}, {
  "val": [25,39,40,45,43,41,38],
  "id": 258,
  "name": "Мещерское",
  "info": "Глубина скважин - 25, 39, 40, 45 м.<br>С/Т Дубрава - 43 м.<br>СНТ \"Дубрава\" - 41 м.<br>СНТ \" Мещерское\" - 38 м.",
  "lat": 55.2686967,
  "lon": 37.6246675
}, {
  "val": [50,60,70,29],
  "id": 259,
  "name": "Новоселки",
  "info": "Глубина скважин - 50, 60, 70 м.<br>29 м.",
  "lat": 55.1295414,
  "lon": 37.5316447
}, {
  "val": [23,53,21],
  "id": 260,
  "name": "Новый Быт",
  "info": "Глубина скважин - 23, 53 м.<br>Промзона - 21 м.",
  "lat": 55.061127,
  "lon": 37.604834
}, {
  "val": [50],
  "id": 261,
  "name": "Оксино",
  "info": "Глубина скважин 50 м.",
  "lat": 55.158858,
  "lon": 37.598627
}, {
  "val": [53,25],
  "id": 262,
  "name": "Растовка",
  "info": "Глубина скважины 53,25 м.",
  "lat": 55.117824,
  "lon": 37.151086
}, {
  "val": [30,40],
  "id": 263,
  "name": "Солнышково",
  "info": "Глубина скважин 30,40 м.",
  "lat": 55.120516,
  "lon": 37.486445
}, {
  "val": [26,32],
  "id": 264,
  "name": "Троицкое",
  "info": "Глубина скважин - 26, 32 м.",
  "lat": 55.245691,
  "lon": 37.62855
}, {
  "val": [35,39,40,41,42],
  "id": 265,
  "name": "Чепелево",
  "info": "Глубина скважин 35,39,40,41,42 м.",
  "lat": 55.182274,
  "lon": 37.486993
}, {
  "val": [44,49],
  "id": 266,
  "name": "Чудиново",
  "info": "Глубина скважин 44,49 м.",
  "lat": 55.1518016,
  "lon": 37.5358771
}, {
  "val": [32,60,51,25,44,45],
  "id": 267,
  "name": "Чехов",
  "info": "Глубина скважин - 32, 60 м.<br>ул. Гагарина - 51 м.<br>ул. Комсомольская - 25 м.<br>ул. Цветочная - 44 м.<br>СНТ \"Луч\" -  45 м.",
  "lat": 55.149393,
  "lon": 37.454259
}, {
  "val": [12,57,64],
  "id": 268,
  "name": "Плешкино",
  "info": "Глубина скважины 12, 57, 64 м.",
  "lat": 55.033646,
  "lon": 37.583077
}, {
  "val": [90],
  "id": 269,
  "name": "Лобаново",
  "info": "Глубина скважины 90 м.",
  "lat": 56.04312,
  "lon": 35.540101
}, {
  "val": [43],
  "id": 270,
  "name": "Корпуса",
  "info": "Глубина скважины 43 м.",
  "lat": 55.876263,
  "lon": 38.234239
}, {
  "val": [56,61],
  "id": 271,
  "name": "Супонево",
  "info": "Глубина скважины 56,61 м.",
  "lat": 55.880485,
  "lon": 37.942089
}, {
  "val": [54],
  "id": 272,
  "name": "Соколово",
  "info": "Глубина скважины 54 м.",
  "lat": 55.856482,
  "lon": 38.132038
}, {
  "val": [41,35,56],
  "id": 273,
  "name": "Свердловский",
  "info": "Глубина скважины 41,35 м.<br>ДНП \"Дубки\" - 56 м",
  "lat": 55.904756,
  "lon": 38.140257
}, {
  "val": [50],
  "id": 274,
  "name": "Монино",
  "info": "Глубина скважины 50 м.",
  "lat": 55.841574,
  "lon": 38.192252
}, {
  "val": [51,50],
  "id": 275,
  "name": "Моносеево",
  "info": "Глубина скважины 51,50 м.",
  "lat": 55.841058,
  "lon": 38.10887
}, {
  "val": [35,41,51,43],
  "id": 276,
  "name": "Райки",
  "info": "Глубина скважин - 35, 41, 51 м.<br>СНТ \"Лужки\" - 43 м.",
  "lat": 55.925173,
  "lon": 38.135676
}, {
  "val": [73,78,73],
  "id": 277,
  "name": "Бражниково",
  "info": "Глубина скважин - 73, 78 м.<br>КП \"Пятница\" - 73 м.            ",
  "lat": 55.841002,
  "lon": 35.8684024
}, {
  "val": [89,93,106,140,46,81],
  "id": 278,
  "name": "Звенигород",
  "info": "Глубина скважин - 89, 93, 106, 140 м.- на горе.<br>46 м. - в низине<br>ГП \"Сурьмино-2\" - 81 м.",
  "lat": 55.723901,
  "lon": 36.855648
}, {
  "val": [56,36,42],
  "id": 279,
  "name": "Загорново",
  "info": "Глубина скважин 56,36 м. СНТ Золотая антилопа - 42",
  "lat": 55.53343,
  "lon": 38.325202
}, {
  "val": [57],
  "id": 280,
  "name": "Наро-Фоминск",
  "info": "Глубина скважины 57 м.",
  "lat": 55.383014,
  "lon": 36.730675
}, {
  "val": [64,107],
  "id": 281,
  "name": "Малоярославец",
  "info": "Удино<br>Глубина скважины 64, 107 м.",
  "lat": 55.017669,
  "lon": 36.464845
}, {
  "val": [49,51,52,54,60,65,85],
  "id": 282,
  "name": "Бритово",
  "info": "Глубина скважин - 49, 51,52, 54, 60, 65, 85 м.",
  "lat": 55.477929,
  "lon": 38.152115
}, {
  "val": [103],
  "id": 283,
  "name": "Старая купавна",
  "info": "Глубина скважины 103 м.",
  "lat": 55.803369,
  "lon": 38.160766
}, {
  "val": [27,80,85],
  "id": 284,
  "name": "Хатунь",
  "info": "Глубина скважины 27 м.<br>СНТ \"Санта\" - 80, 85 м",
  "lat": 55.002873,
  "lon": 37.828685
}, {
  "val": [80,83,85,86,87,90,93,95,102,81,80,94],
  "id": 285,
  "name": "Хрипань",
  "info": "Глубина скважин - 80, 83, 85 (под ЛЭП), 86, 87, 90, 93, 95, 102 м.<br>ул. 2-я Рябиновая - 81 м.<br>ул. 5-я Рябиновая - 80 м.<br>ул. Садовая - 94 м.",
  "lat": 55.62759,
  "lon": 38.158421
}, {
  "val": [55,70],
  "id": 286,
  "name": "Пласкинино",
  "info": "Глубина скважин - 55 м.<br>КП \"Радужный\" - 70 м.",
  "lat": 55.539976,
  "lon": 38.427431
}, {
  "val": [50,53,60,68,58,65,63,82],
  "id": 287,
  "name": "Птичное",
  "info": "Глубина скважин 50,53,60,68,58,65, 63,82 м.",
  "lat": 55.51881,
  "lon": 37.224865
}, {
  "val": [55,57,102,93,82,103,106,95],
  "id": 288,
  "name": "Цюрупы",
  "info": "Глубина скважин 55, 57, 102 м.<br>ул. Радужная - 93 м.<br>ул. Левчинская - 82, 103 м,<br>ул. Юбилейная - 106 м.<br>ул. Красная - 95 м.",
  "lat": 55.490631,
  "lon": 38.66031
}, {
  "val": [53,40],
  "id": 289,
  "name": "Малино",
  "info": "Глубина скважин 53,40 м.",
  "lat": 55.108375,
  "lon": 38.177762
}, {
  "val": [110],
  "id": 290,
  "name": "Горки-8",
  "info": "Глубина скважины 110 м.",
  "lat": 55.7050905,
  "lon": 37.1535034
}, {
  "val": [31,50,30,33],
  "id": 291,
  "name": "Воскресенск",
  "info": "Глубина скважин - 31, 50 м.<br>ул. Барышевская - 30, 33 м.",
  "lat": 55.31701,
  "lon": 38.672608
}, {
  "val": [85],
  "id": 292,
  "name": "Москва Шоссейная улица, 82с1",
  "info": "Глубина скважины 85 м.",
  "lat": 55.669671,
  "lon": 37.71883
}, {
  "val": [95,120,115],
  "id": 293,
  "name": "Сабурово",
  "info": "Глубина скважин 95,120, 115 м.",
  "lat": 55.879738,
  "lon": 37.265828
}, {
  "val": [24],
  "id": 294,
  "name": "Троицк",
  "info": "Глубина скважины 24 м.",
  "lat": 55.475597,
  "lon": 37.296964
}, {
  "val": [28,26,32,35,25],
  "id": 295,
  "name": "Бортнево",
  "info": "Глубина скважин 28,26,32,35,25 м.",
  "lat": 55.1409342,
  "lon": 37.6339605
}, {
  "val": [60],
  "id": 296,
  "name": "Алексеевская",
  "info": "Глубина скважины 60 м.",
  "lat": 55.487234,
  "lon": 38.817865
}, {
  "val": [60,184],
  "id": 297,
  "name": "Подосинки",
  "info": "Глубина скважины 60,184 м.",
  "lat": 56.203633,
  "lon": 37.548294
}, {
  "val": [31,35,62,65,53],
  "id": 298,
  "name": "Никитское",
  "info": "Глубина скважин - 31, 35, 62, 65 м.<br>СНТ \"Ласточка\" - 53 м.",
  "lat": 55.408455,
  "lon": 37.738198
}, {
  "val": [132],
  "id": 299,
  "name": "Марфино",
  "info": "Глубина скважины 132 м.",
  "lat": 55.7029273,
  "lon": 37.3833281
}, {
  "val": [60],
  "id": 300,
  "name": "район Крылатское Москва",
  "info": "Глубина скважины 60 м.",
  "lat": 55.761036,
  "lon": 37.415119
}, {
  "val": [34,37],
  "id": 301,
  "name": "Лукошкино",
  "info": "Глубина скважин - 42 м.<br>СНТ \"Лукошкино\" - 34, 37 м.",
  "lat": 55.32369,
  "lon": 37.266232
}, {
  "val": [40],
  "id": 302,
  "name": "Константиновское",
  "info": "Глубина скважины 40 м.",
  "lat": 55.158966,
  "lon": 37.965643
}, {
  "val": [78,129],
  "id": 303,
  "name": "Жуковка",
  "info": "Глубина скважин - 78, 129 м.",
  "lat": 55.738242,
  "lon": 37.25318
}, {
  "val": [75,70],
  "id": 304,
  "name": "Зеленково",
  "info": "Глубина скважины 75, 70 м.",
  "lat": 55.835058,
  "lon": 37.069115
}, {
  "val": [60,61,63],
  "id": 305,
  "name": "Становое",
  "info": "Глубина скважин - 60, 61, 63 м.",
  "lat": 55.4988112,
  "lon": 38.1390276
}, {
  "val": [60,60,69,51,66,65,56,47,50],
  "id": 306,
  "name": "Воровского",
  "info": "Глубина скважин - 60 м.<br>ул. Полевая - 60, 69 м.<br>СНТ \"Ветеран\" - 51, 66 м.<br>СНТ \"Гипрокаучук\" - 65 м.<br>СНТ \"Транспорт\" - 56 м.<br>СНТ \"Светлячок -2\" - 47 м.<br>СНТ \"Дзержинец\" - 50 м ",
  "lat": 55.732417,
  "lon": 38.305698
}, {
  "val": [54,45,53,61],
  "id": 307,
  "name": "Киселиха",
  "info": "Глубина скважин 54,45,53,61 м.",
  "lat": 55.475761,
  "lon": 37.797972
}, {
  "val": [60,75,80,60,61],
  "id": 308,
  "name": "Конобеево",
  "info": "Глубина скважин - 60, 75, 80 м, 61<br>ул. Центральная - 60",
  "lat": 55.407131,
  "lon": 38.664289
}, {
  "val": [91],
  "id": 309,
  "name": "Ступино",
  "info": "Глубина скважины 91 м.",
  "lat": 54.887269,
  "lon": 38.071482
}, {
  "val": [69,75],
  "id": 310,
  "name": "Поливаново",
  "info": "Глубина скважины 69,75 м.",
  "lat": 55.392669,
  "lon": 37.620025
}, {
  "val": [34,37,41,45,48,41],
  "id": 311,
  "name": "Серебрянь",
  "info": "Глубина скважин - 34, 37, 41, 45, 48 м.<br>ул. Пронская - 41 м.",
  "lat": 54.246508,
  "lon": 38.834574
}, {
  "val": [43,50,108,39,46,47,40,41,42,44,60,74,39],
  "id": 312,
  "name": "Электросталь",
  "info": "Глубина скважин - 43, 50, 108 м.<br>СНТ \"Медик\" - 39, 46, 47 м.<br>СНТ \"Горелый лес\" - 40, 41, 42, 44, 60, 74 м.<br>СНТ \"Восход\" - 51 м.<br>СНТ \"Ивушка\" - 42 м.                                                     СНТ \"Металлург\" - 39 м. <br> ",
  "lat": 55.7817445,
  "lon": 38.4535395
}, {
  "val": [46,55,47],
  "id": 313,
  "name": "Жеребятьево",
  "info": "Глубина скважины 46, 55 м.<br>ул. Лесная - 47 м.",
  "lat": 55.4674229,
  "lon": 37.8341242
}, {
  "val": [16,15,77],
  "id": 314,
  "name": "Судимля",
  "info": "Глубина скважины 16,15, 77 м.",
  "lat": 54.97098,
  "lon": 37.38525
}, {
  "val": [35],
  "id": 315,
  "name": "Борисково",
  "info": "Глубина скважины 35 м.",
  "lat": 55.153159,
  "lon": 36.942066
}, {
  "val": [60],
  "id": 316,
  "name": "Горки",
  "info": "Глубина скважины 60 м.",
  "lat": 55.508228,
  "lon": 37.756416
}, {
  "val": [21],
  "id": 317,
  "name": "Надежда",
  "info": "Глубина скважины 21 м.",
  "lat": 55.065004,
  "lon": 37.538089
}, {
  "val": [132],
  "id": 318,
  "name": "Зеленоград",
  "info": "Глубина скважины 132 м.",
  "lat": 55.980749,
  "lon": 37.174999
}, {
  "val": [35],
  "id": 319,
  "name": "Пестово",
  "info": "Глубина скважины 35 м.",
  "lat": 55.360797,
  "lon": 37.986412
}, {
  "val": [70],
  "id": 320,
  "name": "Сутоки",
  "info": "Глубина скважины 70 м.",
  "lat": 55.953558,
  "lon": 35.450252
}, {
  "val": [43,45,70],
  "id": 321,
  "name": "Ивантеевка",
  "info": "Глубина скважины - 43, 45, 70 м.",
  "lat": 55.969653,
  "lon": 37.911735
}, {
  "val": [15],
  "id": 322,
  "name": "Беливо",
  "info": "Глубина скважины на песок 15 м.",
  "lat": 55.62728,
  "lon": 39.011309
}, {
  "val": [51],
  "id": 323,
  "name": "Березниково",
  "info": "Глубина скважины 51 м.",
  "lat": 56.154485,
  "lon": 36.280107
}, {
  "val": [66],
  "id": 324,
  "name": "Мещерино",
  "info": "Глубина скважины 66 м.",
  "lat": 55.196999,
  "lon": 38.359931
}, {
  "val": [18,29,40],
  "id": 325,
  "name": "Новый Милет",
  "info": "Глубина скважин 18,29 м.<br>СНТ \"Якорь\" - 40 м.",
  "lat": 55.70806,
  "lon": 38.056516
}, {
  "val": [61,65],
  "id": 326,
  "name": "Старая Руза",
  "info": "Глубина скважины 61, 65 м.",
  "lat": 55.644831,
  "lon": 36.3299
}, {
  "val": [52,70],
  "id": 327,
  "name": "Середниково",
  "info": "Глубина скважины 52,70 м.",
  "lat": 55.8308828,
  "lon": 35.8202342
}, {
  "val": [27,29,31,38,42,46,72,34,102,38,36,32,25,32,20,30,22,36,37,42,61],
  "id": 328,
  "name": "Русавкино-Романово",
  "info": "Глубина скважин - 27, 29, 31, 38, 42, 46, 72 м.<br>ул. Лучевая - 34, 102 м.<br>ул. Речная - 38 м.<br>ул. Радужная - 36 м.<br>ул. Вишнёвая - 32 м.<br>ул. Виноградная - 25, 32 м.<br>ул. Энергетическая 20, 30 м.<br>СНТ \"Вьюнка\" - 22, 36, 37 м.<br>3-й Граничный проспект - 42 м.<br>2-й Граничный проспект - 61 м.",
  "lat": 55.7044312,
  "lon": 38.0429527
}, {
  "val": [49],
  "id": 329,
  "name": "Столбищево",
  "info": "Глубина скважины 49 м.",
  "lat": 55.275118,
  "lon": 37.707125
}, {
  "val": [15,38,39,41,29,51,45,49],
  "id": 330,
  "name": "Натальино",
  "info": "Глубина скважин - 15, 38, 39 м.<br>СНТ \"Кулон\" - 41 м.<br>СНТ \"Победа\" - 29, 51 м.<br>СНТ \"Натальино\" - 45 м.<br>СНТ \"Зелёное ожерелье\" - 49 м.",
  "lat": 55.320207,
  "lon": 38.315195
}, {
  "val": [255],
  "id": 331,
  "name": "Мишутино",
  "info": "Глубина скважины  255 м. (37 м. песок)",
  "lat": 56.385993,
  "lon": 38.125046
}, {
  "val": [85],
  "id": 332,
  "name": "Чулково Клаб",
  "info": "Глубина скважины 85 м.",
  "lat": 55.555263,
  "lon": 38.048342
}, {
  "val": [27],
  "id": 333,
  "name": "Пестовка",
  "info": "Глубина скважины 27 м.",
  "lat": 55.302151,
  "lon": 38.109265
}, {
  "val": [65,66,64],
  "id": 334,
  "name": "Гостилово",
  "info": "Глубина скважин - 65, 66 м.<br>СНТ \"Химик\" - 64 м.",
  "lat": 55.30051,
  "lon": 38.611302
}, {
  "val": [38,57],
  "id": 335,
  "name": "Исаково",
  "info": "Глубина скважины 38, 57 м.",
  "lat": 55.419922,
  "lon": 38.577979
}, {
  "val": [33,60],
  "id": 336,
  "name": "Петровское",
  "info": "Глубина скважины 33 м.<br>СНТ \"Малинки-2\" - 60 м",
  "lat": 55.4652105,
  "lon": 38.0914301
}, {
  "val": [52,35],
  "id": 337,
  "name": "Прохорово",
  "info": "Глубина скважины 52,35 м.",
  "lat": 55.300101,
  "lon": 37.641234
}, {
  "val": [127],
  "id": 338,
  "name": "Ясенок",
  "info": "Глубина скважины 127 м.",
  "lat": 53.82173,
  "lon": 40.37902
}, {
  "val": [39,49],
  "id": 339,
  "name": "Родионовка",
  "info": "Глубина скважины 39,49 м.",
  "lat": 55.026628,
  "lon": 37.427929
}, {
  "val": [72,48],
  "id": 340,
  "name": "Бисерово",
  "info": "Глубина скважины 72,48 м.",
  "lat": 55.5150152,
  "lon": 38.4329094
}, {
  "val": [108],
  "id": 341,
  "name": "Барвиха",
  "info": "Глубина скважины 108 м.",
  "lat": 55.725194,
  "lon": 37.280884
}, {
  "val": [32,33,46,47,41,32,46],
  "id": 342,
  "name": "Заворово",
  "info": "Глубина скважин - 32, 33, 46, 47м.<br>КП \"Никоновский квартал\" - 41 м.<br>СНТ \"Мрия\" - 32 м.<br>сп. Никоновское СНТ \"Журавушка\" - 46 м.",
  "lat": 55.344147,
  "lon": 38.229181
}, {
  "val": [81],
  "id": 343,
  "name": "СНТ \"Каштан\"",
  "info": "Глубина скважины 81 м.",
  "lat": 55.562521,
  "lon": 38.908546
}, {
  "val": [55,60],
  "id": 344,
  "name": "Захарково",
  "info": "Глубина скважин 55,60 м.",
  "lat": 55.780507,
  "lon": 37.320266
}, {
  "val": [30,35,42,37],
  "id": 345,
  "name": "Евсеево",
  "info": "Глубина скважин - 30, 35 м.<br>СНТ \"Природа\" - 42 м.<br>ДНТ \"Опушкино-2\" - 37 м.",
  "lat": 55.756427,
  "lon": 38.7090213
}, {
  "val": [65,92],
  "id": 346,
  "name": "СНТ Ясная Поляна",
  "info": "Глубина скважин - 65, 92 м.",
  "lat": 55.6935348,
  "lon": 38.0737012
}, {
  "val": [54],
  "id": 347,
  "name": "Мирный",
  "info": "Глубина скважины 54 м.",
  "lat": 55.622838,
  "lon": 37.950362
}, {
  "val": [32,41,46,36],
  "id": 348,
  "name": "Шелково",
  "info": "Глубина скважин - 32, 41, 46 м.<br>ул. Яблоневая - 36 м.",
  "lat": 55.0654283,
  "lon": 37.7192034
}, {
  "val": [31,73],
  "id": 349,
  "name": "Петровское",
  "info": "Глубина скважины 31,5 м.<br>СНТ \"Южные дачи\" - 73 м.",
  "lat": 55.023409,
  "lon": 37.45617
}, {
  "val": [36],
  "id": 350,
  "name": "Павловка",
  "info": "Глубина скважины 36 м.",
  "lat": 54.923124,
  "lon": 37.175458
}, {
  "val": [37],
  "id": 351,
  "name": "СНТ Маврино",
  "info": "Глубина скважины 37 м.",
  "lat": 55.276129,
  "lon": 37.269664
}, {
  "val": [169],
  "id": 352,
  "name": "Елизаветино",
  "info": "Глубина скважины 169 м.",
  "lat": 56.316798,
  "lon": 37.467338
}, {
  "val": [43,38,42],
  "id": 353,
  "name": "Пучково",
  "info": "Глубина скважин<br>ул. Светская поляна - 43 м.<br>ул. Светлая поляна - 38, 42 м.",
  "lat": 55.486571,
  "lon": 37.263672
}, {
  "val": [27],
  "id": 354,
  "name": "Барсуки",
  "info": "Глубина скважины 27 м.",
  "lat": 55.057894,
  "lon": 36.965162
}, {
  "val": [57,70],
  "id": 355,
  "name": "Пушкарка",
  "info": "Глубина скважины 57 м.<br>СНТ \"Пушкарка\" - 70 м.",
  "lat": 55.422298,
  "lon": 36.127573
}, {
  "val": [77,139,80],
  "id": 356,
  "name": "Захарово",
  "info": "Глубина скважины 77, 139 м.<br>ул. Лесная - 80м",
  "lat": 55.656484,
  "lon": 38.312105
}, {
  "val": [57,73,80,83,90,93,65,78,82,85,85],
  "id": 357,
  "name": "Быково",
  "info": "Глубина скважин - 57, 73 ,80, 83, 90, 93 м.<br>СНТ \"Пенсионер\" - 65 м.<br>ул.Осенняя - 78 м. <br>пер. Щорса - 82 м.<br>ул. Осеченская - 85 м.<br>ул. Карла- Маркса - 85 м.",
  "lat": 55.6115466,
  "lon": 38.0561911
}, {
  "val": [80,85],
  "id": 358,
  "name": "Клетино",
  "info": "Глубина скважин 80, 85 м.",
  "lat": 55.000874,
  "lon": 41.203836
}, {
  "val": [82],
  "id": 359,
  "name": "Беседы",
  "info": "Глубина скважины 82 м.",
  "lat": 55.612807,
  "lon": 37.788827
}, {
  "val": [93],
  "id": 360,
  "name": "Казарь",
  "info": "Глубина скважины 93 м.",
  "lat": 54.568547,
  "lon": 40.090203
}, {
  "val": [105],
  "id": 361,
  "name": "Сергеевка",
  "info": "Глубина скважины 105 м.",
  "lat": 54.543046,
  "lon": 39.523546
}, {
  "val": [130],
  "id": 362,
  "name": "Ложки",
  "info": "Глубина скважины 130 м.",
  "lat": 56.094153,
  "lon": 37.110294
}, {
  "val": [54],
  "id": 363,
  "name": "Юсупово",
  "info": "Глубина скважины 54 м.",
  "lat": 55.395502,
  "lon": 37.707054
}, {
  "val": [46],
  "id": 364,
  "name": "Речицы",
  "info": "Глубина скважины 46 м.",
  "lat": 54.909137,
  "lon": 38.402889
}, {
  "val": [30],
  "id": 365,
  "name": "СНТ Пахра",
  "info": "Глубина скважины 30 м.",
  "lat": 55.475465,
  "lon": 37.788216
}, {
  "val": [74],
  "id": 366,
  "name": "Овчагино",
  "info": "Глубина скважины 74 м.",
  "lat": 55.401749,
  "lon": 39.156665
}, {
  "val": [49],
  "id": 367,
  "name": "Столбищево",
  "info": "Глубина скважины 49 м.",
  "lat": 55.275118,
  "lon": 37.707125
}, {
  "val": [69],
  "id": 368,
  "name": "Пущино",
  "info": "Глубина скважины 69 м.",
  "lat": 54.940788,
  "lon": 37.352236
}, {
  "val": [38],
  "id": 369,
  "name": "Малые Решники",
  "info": "Глубина скважины 38 м.",
  "lat": 55.666442,
  "lon": 35.62978
}, {
  "val": [47],
  "id": 370,
  "name": "Квасьево",
  "info": "Глубина скважины 47 м.",
  "lat": 54.90247,
  "lon": 41.754449
}, {
  "val": [83],
  "id": 371,
  "name": "Сеитово",
  "info": "Глубина скважины 83 м.",
  "lat": 54.76528,
  "lon": 41.556604
}, {
  "val": [87],
  "id": 372,
  "name": "Поздняково",
  "info": "Глубина скважины 87 м.",
  "lat": 54.81971,
  "lon": 41.45893
}, {
  "val": [42],
  "id": 373,
  "name": "Ярыгино",
  "info": "Глубина скважины 42 м.",
  "lat": 55.051855,
  "lon": 41.307205
}, {
  "val": [90],
  "id": 374,
  "name": "Даньково",
  "info": "Глубина скважины 90 м.",
  "lat": 55.034487,
  "lon": 41.258004
}, {
  "val": [70],
  "id": 375,
  "name": "Балушево-Починки",
  "info": "Глубина скважины 70 м.",
  "lat": 54.767586,
  "lon": 41.622864
}, {
  "val": [77,80],
  "id": 376,
  "name": "Захарово",
  "info": "Глубина скважин - 77 м.<br>ул. Лесная - 80 м.",
  "lat": 55.656484,
  "lon": 38.312105
}, {
  "val": [48],
  "id": 377,
  "name": "Сиверка",
  "info": "Глубина скважины 48 м.",
  "lat": 54.709335,
  "lon": 41.384424
}, {
  "val": [80],
  "id": 378,
  "name": "Щербатовка",
  "info": "Глубина скважины 80 м.",
  "lat": 54.809282,
  "lon": 41.753039
}, {
  "val": [63,60],
  "id": 379,
  "name": "Забелино",
  "info": "Глубина скважины 63,60 м.",
  "lat": 54.993221,
  "lon": 41.152811
}, {
  "val": [85],
  "id": 380,
  "name": "Шегошаново",
  "info": "Глубина скважины 85 м.",
  "lat": 54.908381,
  "lon": 41.543004
}, {
  "val": [37],
  "id": 381,
  "name": "Белясево",
  "info": "Глубина скважины 37 м.",
  "lat": 55.074102,
  "lon": 41.094008
}, {
  "val": [25],
  "id": 382,
  "name": "Мимишкино",
  "info": "Глубина скважины 25 м.",
  "lat": 55.067391,
  "lon": 41.294997
}, {
  "val": [79],
  "id": 383,
  "name": "Поляны",
  "info": "Глубина скважины 79 м.",
  "lat": 54.945604,
  "lon": 41.490245
}, {
  "val": [52],
  "id": 384,
  "name": "Захарово",
  "info": "Глубина скважины 52 м.",
  "lat": 54.368474,
  "lon": 39.28021
}, {
  "val": [80],
  "id": 385,
  "name": "Толстые",
  "info": "Глубина скважины 80 м.",
  "lat": 54.481333,
  "lon": 38.543322
}, {
  "val": [115],
  "id": 386,
  "name": "Дягилево",
  "info": "Глубина скважины 115 м.",
  "lat": 54.661578,
  "lon": 39.582457
}, {
  "val": [120],
  "id": 387,
  "name": "Грязное",
  "info": "Глубина скважины 120 м.",
  "lat": 54.04121,
  "lon": 39.113375
}, {
  "val": [51,53],
  "id": 388,
  "name": "Городище",
  "info": "Глубина скважины 51, 53 м.",
  "lat": 55.533476,
  "lon": 37.434595
}, {
  "val": [87],
  "id": 389,
  "name": "Большое Еськино",
  "info": "Глубина скважины 87 м.",
  "lat": 54.797492,
  "lon": 38.980191
}, {
  "val": [45,50,54],
  "id": 390,
  "name": "Малышево",
  "info": "Глубина скважин - 45, 50, 54 м.",
  "lat": 55.369669,
  "lon": 38.146042
}, {
  "val": [94],
  "id": 391,
  "name": "Игумново",
  "info": "Глубина скважины 94 м.",
  "lat": 55.620555,
  "lon": 38.303733
}, {
  "val": [45],
  "id": 392,
  "name": "Холуденево",
  "info": "Глубина скважины 45 м.",
  "lat": 55.459387,
  "lon": 38.187973
}, {
  "val": [80],
  "id": 393,
  "name": "Староходыкино",
  "info": "Глубина скважины 80 м.",
  "lat": 54.943359,
  "lon": 38.859493
}, {
  "val": [39,51,84],
  "id": 394,
  "name": "Верхние Велеми",
  "info": "Глубина скважин - 39, 51 м.<br>ДНП \"Велеми\" - 84 м.",
  "lat": 55.043267,
  "lon": 37.361912
}, {
  "val": [73],
  "id": 395,
  "name": "Завидовка",
  "info": "Глубина скважины 73 м.",
  "lat": 54.264859,
  "lon": 38.815197
}, {
  "val": [15,18],
  "id": 396,
  "name": "Кобелево",
  "info": "Глубина скважин на песок 15,18 м.",
  "lat": 55.638236,
  "lon": 39.500648
}, {
  "val": [60],
  "id": 397,
  "name": "Ивашково",
  "info": "Глубина скважины 60 м.",
  "lat": 56.221875,
  "lon": 35.35645
}, {
  "val": [33,45,40,35,39],
  "id": 398,
  "name": "станция Купавна ",
  "info": "Глубина скважины - 33 м.<br>СНТ \"Строитель\" - 45 м.<br>СНТ \"Биолог\" - 40 м. <br>СНТ \"Краб\" -35,5 м.<br>СНТ \"Минвуз\" - 39 м.",
  "lat": 55.753281,
  "lon": 38.120413
}, {
  "val": [73],
  "id": 399,
  "name": "Северное шоссе",
  "info": "Глубина скважины 73 м.",
  "lat": 56.045187,
  "lon": 35.967511
}, {
  "val": [65],
  "id": 400,
  "name": "Глазово",
  "info": "Глубина скважины 65 м.",
  "lat": 55.804693,
  "lon": 35.923206
}, {
  "val": [130],
  "id": 401,
  "name": "Новопавловское",
  "info": "Глубина скважины 130 м.",
  "lat": 55.940371,
  "lon": 36.15057
}, {
  "val": [151,176],
  "id": 402,
  "name": "Курово",
  "info": "Глубина скважины 151,176 м.",
  "lat": 56.27358,
  "lon": 37.556882
}, {
  "val": [175],
  "id": 403,
  "name": "Лишенино",
  "info": "Глубина скважины 175 м.",
  "lat": 56.358482,
  "lon": 37.271245
}, {
  "val": [165],
  "id": 404,
  "name": "Сазонки",
  "info": "Глубина скважины 165 м.",
  "lat": 56.203738,
  "lon": 37.618596
}, {
  "val": [48],
  "id": 405,
  "name": "Михеево",
  "info": "Глубина скважины 48 м.",
  "lat": 55.348969,
  "lon": 37.843696
}, {
  "val": [35,53,55],
  "id": 406,
  "name": "Белые Столбы",
  "info": "Глубина скважин - 35, 53, 55 м.",
  "lat": 55.33044,
  "lon": 37.847927
}, {
  "val": [84,93,97],
  "id": 407,
  "name": "Борисково",
  "info": "Глубина скважин - 84,93, 97 м.",
  "lat": 55.83936,
  "lon": 36.958901
}, {
  "val": [88],
  "id": 408,
  "name": "Борки",
  "info": "Глубина скважины 88 м.",
  "lat": 55.836681,
  "lon": 36.941258
}, {
  "val": [108,140,106,106],
  "id": 409,
  "name": "Бужарово",
  "info": "Глубина скважин - 108, 140 м.<br>СНТ \"Фрунзенец\" - 106 м.<br>СНТ \"Торлопово - 106 м.",
  "lat": 55.984219,
  "lon": 36.793611
}, {
  "val": [97,84],
  "id": 410,
  "name": "Воронино",
  "info": "Глубина скважины 84, 97 м.",
  "lat": 55.797083,
  "lon": 36.990791
}, {
  "val": [103,79],
  "id": 411,
  "name": "Ивановское",
  "info": "Глубина скважины 103,79 м.",
  "lat": 55.789259,
  "lon": 37.100583
}, {
  "val": [120],
  "id": 412,
  "name": "Котово",
  "info": "Глубина скважины 120 м.",
  "lat": 55.865803,
  "lon": 36.771234
}, {
  "val": [122],
  "id": 413,
  "name": "Лечищево",
  "info": "Глубина скважины 122 м.",
  "lat": 56.049988,
  "lon": 36.81703
}, {
  "val": [116],
  "id": 414,
  "name": "Максимовка",
  "info": "Глубина скважины 116 м.",
  "lat": 55.961495,
  "lon": 36.849737
}, {
  "val": [90,120],
  "id": 415,
  "name": "Манихино",
  "info": "Глубина скважин - 90, 120 м.",
  "lat": 55.876693,
  "lon": 36.968423
}, {
  "val": [148],
  "id": 416,
  "name": "Рождествено",
  "info": "Глубина скважины 148 м..",
  "lat": 55.854062,
  "lon": 37.053844
}, {
  "val": [176],
  "id": 417,
  "name": "Чудцево",
  "info": "Глубина скважины 176 м.",
  "lat": 56.056005,
  "lon": 36.530665
}, {
  "val": [111,140],
  "id": 418,
  "name": "Огниково",
  "info": "Глубина скважины 111,140 м.",
  "lat": 56.005309,
  "lon": 36.916347
}, {
  "val": [90],
  "id": 419,
  "name": "станция Новоиерусалимская",
  "info": "Глубина скважины 90 м.",
  "lat": 55.911562,
  "lon": 36.82259
}, {
  "val": [25,35,24,46],
  "id": 420,
  "name": "Полушкино",
  "info": "Глубина скважин 25, 35 м., <br>СНТ \"Солнечный Луч\" - 24м.<br>СНТ \"Лесная поляна\" - 46 м.",
  "lat": 55.129128,
  "lon": 37.774149
}, {
  "val": [78],
  "id": 421,
  "name": "Масюгино",
  "info": "Глубина скважины 78 м.",
  "lat": 56.337322,
  "lon": 36.567388
}, {
  "val": [107,80],
  "id": 422,
  "name": "Поздняково",
  "info": "Глубина скважины 107, 80 м.",
  "lat": 55.789689,
  "lon": 37.215468
}, {
  "val": [84],
  "id": 423,
  "name": "Коробово",
  "info": "Глубина скважин 84 м.",
  "lat": 55.53369,
  "lon": 37.821256
}, {
  "val": [90],
  "id": 424,
  "name": "Ст. Истья - 2",
  "info": "Глубина скважины 90 м.",
  "lat": 55.152597,
  "lon": 36.791669
}, {
  "val": [63,48],
  "id": 425,
  "name": "Воробьи",
  "info": "Глубина скважины 63, 48 м.",
  "lat": 55.147124,
  "lon": 36.802055
}, {
  "val": [78,76],
  "id": 426,
  "name": "Стромынь",
  "info": "Глубина скважины 78, 76 м.",
  "lat": 56.042225,
  "lon": 38.48185
}, {
  "val": [60],
  "id": 427,
  "name": "СНТ Хуторок",
  "info": "Глубина скважины 60 м.",
  "lat": 55.574594,
  "lon": 38.538274
}, {
  "val": [32],
  "id": 428,
  "name": "Карпово",
  "info": "Глубина скважины 32 м.",
  "lat": 55.579541,
  "lon": 38.559824
}, {
  "val": [32,35,32],
  "id": 429,
  "name": "Игнатьево",
  "info": "Глубина скважины 32, 35 м.<br>ДНП \"Игнатьево\" - 32 м.",
  "lat": 55.599143,
  "lon": 38.512869
}, {
  "val": [20],
  "id": 430,
  "name": "Володино",
  "info": "Глубина скважины 20 м.",
  "lat": 55.596203,
  "lon": 38.500832
}, {
  "val": [100,107],
  "id": 431,
  "name": "Сафонтьево",
  "info": "Глубина скважины - 100, 107 м.",
  "lat": 55.977279,
  "lon": 36.831034
}, {
  "val": [38,40,47,60,31,105,51,37,31],
  "id": 432,
  "name": "Шарапова Охота",
  "info": "Глубина скважины 38, 40, 47, 60 м.<br>СНТ \"Дружба\": - 31 м.<br>ул. Белинского - 105 м.<br>ул. Широкая - 51 м.<br>СНТ \"Весна\" - 37 м.<br>СНТ \"Шарапова Охота\" - 31 м.",
  "lat": 55.036937,
  "lon": 37.476816
}, {
  "val": [82],
  "id": 433,
  "name": "платформа Никольское",
  "info": "Глубина скважины 82 м.",
  "lat": 55.759892,
  "lon": 37.897694
}, {
  "val": [120],
  "id": 434,
  "name": "Бурцево",
  "info": "Глубина скважины 120м -сильно окремненный известняк.",
  "lat": 54.727755,
  "lon": 38.339773
}, {
  "val": [70,40],
  "id": 435,
  "name": "Ожерелье",
  "info": "Глубина скважины 70,40 м.",
  "lat": 54.784696,
  "lon": 38.271797
}, {
  "val": [84],
  "id": 436,
  "name": "Яковское",
  "info": "Глубина скважины 84 м.",
  "lat": 54.748442,
  "lon": 38.267432
}, {
  "val": [80,110],
  "id": 437,
  "name": "Иваньково",
  "info": "Глубина скважины 80, 110 м.",
  "lat": 54.739825,
  "lon": 37.93846
}, {
  "val": [43,42],
  "id": 438,
  "name": "Старая Ситня",
  "info": "Глубина скважин - 43 м.<br>КП \"Лесной край\" - 42 м.",
  "lat": 54.946917,
  "lon": 38.141946
}, {
  "val": [20,33],
  "id": 439,
  "name": "Кузьмино-Фильчаково",
  "info": "Глубина скважин - 20 м.<br>СНТ \"Люторка\" - 33 м.",
  "lat": 55.1293739,
  "lon": 37.5110233
}, {
  "val": [60],
  "id": 440,
  "name": "Ожигово",
  "info": "Глубина скважины 60 м.",
  "lat": 55.460854,
  "lon": 36.884772
}, {
  "val": [40,60],
  "id": 441,
  "name": "Старая купавна",
  "info": "Глубина скважины 40, 60 м.",
  "lat": 55.804184,
  "lon": 38.182716
}, {
  "val": [40,45,47],
  "id": 442,
  "name": "Бисерово",
  "info": "Глубина скважины 40, 45, 47 м.",
  "lat": 55.775781,
  "lon": 38.108277
}, {
  "val": [30,40],
  "id": 443,
  "name": "Новая Купавна",
  "info": "Глубина скважины 30, 40 м.",
  "lat": 55.812206,
  "lon": 38.108556
}, {
  "val": [87],
  "id": 444,
  "name": "Шульгино",
  "info": "Глубина скважины 87 м.",
  "lat": 55.804127,
  "lon": 38.226208
}, {
  "val": [23,24,25,30,35,48,59,32,24],
  "id": 445,
  "name": "Колонтаево",
  "info": "Глубина скважины 23, 24, 25, 30, 35, 48, 59 м. ДНП \"Прилесье\" - 32 м.<br>КП \"Инициатива\" - 24 м. ",
  "lat": 55.789876,
  "lon": 38.260164
}, {
  "val": [40,45,83],
  "id": 446,
  "name": "Зеленый",
  "info": "Глубина скважин - 40, 45 м.<br>СНТ \"Русичи\" - 83 м.",
  "lat": 55.809408,
  "lon": 38.096581
}, {
  "val": [40],
  "id": 447,
  "name": "Луч",
  "info": "Глубина скважины 40 м.",
  "lat": 55.094599,
  "lon": 37.488099
}, {
  "val": [41,28],
  "id": 448,
  "name": "Репниково",
  "info": "Глубина скважин 41,28 м.",
  "lat": 55.186124,
  "lon": 37.455669
}, {
  "val": [40,60],
  "id": 449,
  "name": "Алачково",
  "info": "Глубина скважин 40,60 м.",
  "lat": 55.206334,
  "lon": 37.567833
}, {
  "val": [33,41],
  "id": 450,
  "name": "Томарово",
  "info": "Глубина скважин - 33, 41 м.",
  "lat": 55.265866,
  "lon": 37.611518
}, {
  "val": [34,40],
  "id": 451,
  "name": "Зыкеево",
  "info": "Глубина скважин - 34, 40 м.",
  "lat": 55.258633,
  "lon": 37.604493
}, {
  "val": [41,46],
  "id": 452,
  "name": "Степыгино",
  "info": "Глубина скважины 41,46 м.",
  "lat": 55.209637,
  "lon": 37.714312
}, {
  "val": [38,45],
  "id": 453,
  "name": "Повадино",
  "info": "Глубина скважин - 38, 45 м.",
  "lat": 55.1887188,
  "lon": 37.7460888
}, {
  "val": [40],
  "id": 454,
  "name": "Кравцово",
  "info": "Глубина скважины 40 м.",
  "lat": 55.054212,
  "lon": 37.807782
}, {
  "val": [130],
  "id": 455,
  "name": "Буланино",
  "info": "Глубина скважины 130 м.",
  "lat": 55.927155,
  "lon": 36.439576
}, {
  "val": [49, 40],
  "id": 456,
  "name": "Тополиный",
  "info": "Глубина скважины 49 м.<br>СНТ \" Фруктовый сад\" - 40 м.",
  "lat": 55.78207,
  "lon": 39.0596536
}, {
  "val": [30,40,60,31,71,23],
  "id": 457,
  "name": "Снопок Новый",
  "info": "Глубина скважин - 30, 40, 60 м.<br>СНТ \"Химик\" - 31 м.<br>СНТ \"Орбита\" - 71 м.<br>СНТ \"Юбилейное\" - 23 м.",
  "lat": 55.772158,
  "lon": 39.159746
}, {
  "val": [40,50,70,38],
  "id": 458,
  "name": "Тополиный",
  "info": "Глубина скважин - 40, 50, 70 м.<br>СНТ \"Осенний сад\" - 38 м.",
  "lat": 55.786703,
  "lon": 39.055362
}, {
  "val": [82],
  "id": 459,
  "name": "Тельвяково",
  "info": "Глубина скважины 82 м.",
  "lat": 56.106098,
  "lon": 39.01951
}, {
  "val": [86],
  "id": 460,
  "name": "Полутино",
  "info": "Глубина скважины 86 м.",
  "lat": 56.103196,
  "lon": 38.938698
}, {
  "val": [93],
  "id": 461,
  "name": "Ефаново",
  "info": "Глубина скважин 93 м.",
  "lat": 56.162396,
  "lon": 38.931152
}, {
  "val": [190],
  "id": 462,
  "name": "Кольчугино",
  "info": "Глубина скважин 190 м.",
  "lat": 56.302533,
  "lon": 39.36599
}, {
  "val": [42,41],
  "id": 463,
  "name": "Степановское",
  "info": "Глубина скважины 42 м.                                             ДП\" Ясная поляна\" 41м.                                 ",
  "lat": 55.296892,
  "lon": 38.421313
}, {
  "val": [30,42,47,45],
  "id": 464,
  "name": "Бубново",
  "info": "Глубина скважин - 30, 42, 47 м.<br>ДНТ \"Яблоневая усадьба\" - 45 м.",
  "lat": 55.317241,
  "lon": 38.503778
}, {
  "val": [42],
  "id": 465,
  "name": "Костино",
  "info": "Глубина скважины 42 м.",
  "lat": 55.324509,
  "lon": 38.478428
}, {
  "val": [34,61,70],
  "id": 466,
  "name": "Фоминское",
  "info": "Глубина скважины 34, 61,70 м.",
  "lat": 55.268502,
  "lon": 38.4641
}, {
  "val": [40],
  "id": 467,
  "name": "Булгаково",
  "info": "Глубина скважины 40 м.",
  "lat": 55.247411,
  "lon": 38.420567
}, {
  "val": [36],
  "id": 468,
  "name": "Новотроицкое",
  "info": "Глубина скважины 36 м.",
  "lat": 55.273841,
  "lon": 38.49749
}, {
  "val": [33],
  "id": 469,
  "name": "Максимовка",
  "info": "Глубина скважины 33 м.",
  "lat": 55.280107,
  "lon": 38.520298
}, {
  "val": [25,42],
  "id": 470,
  "name": "Поддубье",
  "info": "Глубина скважин - 25 м.<br>КП \"Акварель\" - 42 м.",
  "lat": 55.323726,
  "lon": 38.432147
}, {
  "val": [37,56,60,74,45,55,74],
  "id": 471,
  "name": "Першино",
  "info": "Глубина скважин - 37, 56, 60, 74 м.<br>КП \"Поречье\" - 45, 55, 74 м.",
  "lat": 55.340087,
  "lon": 38.403005
}, {
  "val": [70,109,105],
  "id": 472,
  "name": "Устиновка",
  "info": "Глубина скважины 70,109, 105 м.",
  "lat": 55.66503,
  "lon": 38.139799
}, {
  "val": [45,51],
  "id": 473,
  "name": "Капустино",
  "info": "Глубина скважины 45, 51 м.",
  "lat": 55.655661,
  "lon": 38.129073
}, {
  "val": [97,81],
  "id": 474,
  "name": "Шмеленки",
  "info": "Глубина скважины 97,81 м.",
  "lat": 55.645243,
  "lon": 38.148953
}, {
  "val": [35,90],
  "id": 475,
  "name": "Власово",
  "info": "Глубина скважин - 35, 90 м.",
  "lat": 55.670361,
  "lon": 38.157586
}, {
  "val": [35,80,50,52,32,107],
  "id": 476,
  "name": "Строкино",
  "info": "Глубина скважин - 35, 80 м. (28-34 кремень),<br>ул. Школьная - 50, 52 м.<br>ул. Солнечная - 32 м.                                                ул. Строкино - 107 м",
  "lat": 55.6769357,
  "lon": 38.1788473
}, {
  "val": [115],
  "id": 477,
  "name": "Донино",
  "info": "Глубина скважины 115 м.",
  "lat": 55.635289,
  "lon": 38.317135
}, {
  "val": [25],
  "id": 478,
  "name": "Фенино",
  "info": "Глубина скважины 25 м.",
  "lat": 55.016471,
  "lon": 37.479609
}, {
  "val": [50,55],
  "id": 479,
  "name": "Глазово",
  "info": "Глубина скважин 50,55 м.",
  "lat": 54.950355,
  "lon": 37.365604
}, {
  "val": [35],
  "id": 480,
  "name": "Гавшино",
  "info": "Глубина скважины 35 м.",
  "lat": 54.95644,
  "lon": 37.336984
}, {
  "val": [70,80,54],
  "id": 481,
  "name": "Вашутино",
  "info": "Глубина скважин 70,80,54 м.",
  "lat": 55.152696,
  "lon": 36.553087
}, {
  "val": [45],
  "id": 482,
  "name": "Добрино",
  "info": "Глубина скважины 45 м.",
  "lat": 55.230343,
  "lon": 36.703249
}, {
  "val": [32,55],
  "id": 483,
  "name": "Ворсино",
  "info": "Глубина скважин 32, 55 м.",
  "lat": 55.230841,
  "lon": 36.660399
}, {
  "val": [57],
  "id": 484,
  "name": "Толмачевка",
  "info": "Глубина скважины 57 м.",
  "lat": 54.196256,
  "lon": 38.721081
}, {
  "val": [28,56],
  "id": 485,
  "name": "Белая",
  "info": "Глубина скважин - 28 м.<br>СНТ \"Фабричка\" - 56 м.",
  "lat": 55.7502,
  "lon": 38.202286
}, {
  "val": [28,31,39,48,51,54,55,56,57,74,82,55,45,50,51,43,31,70],
  "id": 486,
  "name": "Кудиново",
  "info": "Глубина скважин - 28, 31, 39, 48, 51, 54, 55, 56, 57, 74, 82 м.<br>СНТ \"Солнышко\" - 55 м.<br>СНТ \"Овощевод\" - 45, 50, 51 м.<br>СНТ \"Интерорейс\" - 43 м.<br>СНТ \"ТЕЦ\" - 31 м.<br>СНТ \"Керамик\" - 70 м.",
  "lat": 55.763088,
  "lon": 38.220674
}, {
  "val": [50,55,61,107,66],
  "id": 487,
  "name": "Тимохово",
  "info": "Глубина скважины 50, 55, 61, 107, 66 м.",
  "lat": 55.774335,
  "lon": 38.280664
}, {
  "val": [39,55,56,52],
  "id": 488,
  "name": "Алексеевка",
  "info": "Глубина скважин - 39, 55, 56 м.<br>На 52 метрах полное поглащение   ",
  "lat": 55.786662,
  "lon": 38.313848
}, {
  "val": [45,49],
  "id": 489,
  "name": "Есино",
  "info": "Глубина скважины 45,49 м.",
  "lat": 55.715738,
  "lon": 38.374295
}, {
  "val": [35,37,37],
  "id": 490,
  "name": "Иванисово",
  "info": "Глубина скважин - 35, 37 м.<br>СНТ \"Иванисово\" - 37 м.",
  "lat": 55.742316,
  "lon": 38.461216
}, {
  "val": [70],
  "id": 491,
  "name": "Фрязево",
  "info": "Глубина скважины 70 м.",
  "lat": 55.733999,
  "lon": 38.468088
}, {
  "val": [30],
  "id": 492,
  "name": "Игнатово",
  "info": "Глубина скважины 30 м.",
  "lat": 55.7401294,
  "lon": 38.5867842
}, {
  "val": [67,69,72,78],
  "id": 493,
  "name": "Ищеино",
  "info": "Глубина скважин - 67, 69, 72, 78 м.",
  "lat": 55.1007312,
  "lon": 36.1373627
}, {
  "val": [34,40],
  "id": 494,
  "name": "Верховье",
  "info": "Глубина скважин 34, 40 м.",
  "lat": 55.076731,
  "lon": 36.681564
}, {
  "val": [28,40,42,43,48,49],
  "id": 495,
  "name": "Нефедьево",
  "info": "Глубина скважин - 28, 40 м.<br>КП \"Ясные зори - 42, 43, 48, 49 м.",
  "lat": 55.1797754,
  "lon": 38.1823378
}, {
  "val": [45,51,63],
  "id": 496,
  "name": "Щапово",
  "info": "Глубина скважин - 45 ,51, 63 м.",
  "lat": 55.162494,
  "lon": 38.186727
}, {
  "val": [165],
  "id": 497,
  "name": "Новожилово",
  "info": "Глубина скважины 165 м.",
  "lat": 56.242594,
  "lon": 38.486944
}, {
  "val": [35,40,80,65,89,120,80,69,76],
  "id": 498,
  "name": "Балашиха",
  "info": "Глубина скважин - 35, 40 м.<br>ул. Вишнёвая - 80 м.<br>кв-п Зворыкино ул. Поповка - 65 м.<br>Квартал Хомутово - 89 м.<br> Абрамцево - 120 м.<br>СНТ \"Забота\" - 80 м.<br>СНТ \"Металлург\" - 69 м<br>СНТ \"Металлург-1\" - 76 м ",
  "lat": 55.80105,
  "lon": 37.981695
}, {
  "val": [40,42,46,50],
  "id": 499,
  "name": "Поддубье",
  "info": "Глубина скважины 40, 42, 46, 50 м.",
  "lat": 55.323726,
  "lon": 38.432147
}, {
  "val": [25,27],
  "id": 500,
  "name": "Фенино",
  "info": "Глубина скважины 25,27 м.",
  "lat": 55.016471,
  "lon": 37.479609
}, {
  "val": [87],
  "id": 501,
  "name": "Рыльково",
  "info": "Глубина скважины 87 м.",
  "lat": 55.492441,
  "lon": 36.081202
}, {
  "val": [50],
  "id": 502,
  "name": "Богатищево",
  "info": "Глубина скважины 50 м.",
  "lat": 54.68168,
  "lon": 38.525491
}, {
  "val": [40],
  "id": 503,
  "name": "Степаново",
  "info": "Глубина скважины 40 м.",
  "lat": 55.721782,
  "lon": 38.459078
}, {
  "val": [80,95,95,99,110],
  "id": 504,
  "name": "Потаповское",
  "info": "Глубина скважин - 80, 95 м.<br>СНТ \"Литейщик\" - 95, 99 м.<br>СНТ \"Ветеран\" - 110 м.",
  "lat": 55.3917559,
  "lon": 38.7982573
}, {
  "val": [75,98,100],
  "id": 505,
  "name": "Княжое",
  "info": "Глубина скважины 75,98,100 м.",
  "lat": 53.893604,
  "lon": 40.175004
}, {
  "val": [74],
  "id": 506,
  "name": "Морозовы-Борки",
  "info": "Глубина скважины 74 м.",
  "lat": 53.959543,
  "lon": 40.908955
}, {
  "val": [50,150],
  "id": 507,
  "name": "Богатищево",
  "info": "Глубина скважины 50,150 м.",
  "lat": 54.68168,
  "lon": 38.525491
}, {
  "val": [97],
  "id": 508,
  "name": "Сорокино",
  "info": "Глубина скважины 97 м.",
  "lat": 56.658177,
  "lon": 37.618057
}, {
  "val": [105],
  "id": 509,
  "name": "Дубки",
  "info": "Глубина скважины 105 м.",
  "lat": 56.590583,
  "lon": 37.617869
}, {
  "val": [60,45,84],
  "id": 510,
  "name": "Железнодорожный",
  "info": "Глубина скважин - 60 м.<br>с/п Бархат - 45 м.<br>ул. Советская - 84 м.",
  "lat": 55.744252,
  "lon": 38.015903
}, {
  "val": [50,55],
  "id": 511,
  "name": "Сенино",
  "info": "Глубина скважины 50, 55 м.",
  "lat": 55.08592,
  "lon": 37.388789
}, {
  "val": [30],
  "id": 512,
  "name": "Светлый",
  "info": "Глубина скважины 30 м.",
  "lat": 55.743816,
  "lon": 38.149411
}, {
  "val": [36],
  "id": 513,
  "name": "Жиливо",
  "info": "Глубина скважины 36 м.",
  "lat": 54.93106,
  "lon": 38.722824
}, {
  "val": [21,65,60,61,62,66],
  "id": 514,
  "name": "Глазово",
  "info": "Глубина скважин - 21 м.<br>КП \"Берег Нары\" - 65 м.<br>ДНП \"Нарские Горки\" - 60, 61, 62, 66 м.",
  "lat": 54.950355,
  "lon": 37.365604
}, {
  "val": [25],
  "id": 515,
  "name": "Верхняя Вязовня",
  "info": "Глубина скважины 25 м.",
  "lat": 54.90262,
  "lon": 37.019007
}, {
  "val": [120],
  "id": 516,
  "name": "Стегачево",
  "info": "Глубина скважины 120 м.",
  "lat": 56.140189,
  "lon": 36.891446
}, {
  "val": [119,120,135,140],
  "id": 517,
  "name": "Лопотово",
  "info": "Глубина скважин 119.120,135,140 м.",
  "lat": 56.064329,
  "lon": 36.85678
}, {
  "val": [50,65,76,77,79,60,65,79,61,72],
  "id": 518,
  "name": "Клишева",
  "info": "Глубина скважин -50, 65, 76, 77, 79 м.<br>ул. Дружбы - 60 м.<br>ул.Красная - 65 м.<br>ул. Майская - 79м.<br>ул. Весенняя - 61 м.<br>Ул. Озёрная - 72 м",
  "lat": 55.549124,
  "lon": 38.245405
}, {
  "val": [30,42,53,30,45,47,65],
  "id": 519,
  "name": "Коренево",
  "info": "Глубина скважин - 30, 42 м.<br>ГК \"Росток\" - 53 м.<br>СНТ \"Долина\" - 30, 45, 47 м.                  ул.Гаршина- 65 м",
  "lat": 55.6730754,
  "lon": 37.999868
}, {
  "val": [36],
  "id": 520,
  "name": "Трегубово",
  "info": "Глубина скважины 36 м.",
  "lat": 54.911471,
  "lon": 38.738185
}, {
  "val": [52,61,74],
  "id": 521,
  "name": "Еганово",
  "info": "Глубина скважин - 52, 61м.<br>СНТ \"Исток\" - 74 м.",
  "lat": 55.534169,
  "lon": 38.029441
}, {
  "val": [43,58,63,51],
  "id": 522,
  "name": "Кулаково",
  "info": "Глубина скважины 43, 58, 63 м.                            На 51 метре полное поглащение",
  "lat": 55.563569,
  "lon": 38.060568
}, {
  "val": [30,35],
  "id": 523,
  "name": "Дьяково",
  "info": "Глубина скважины 30,35 м.",
  "lat": 55.437996,
  "lon": 38.16267
}, {
  "val": [30,35],
  "id": 524,
  "name": "Кочина Гора",
  "info": "Глубина скважины 30,35 м.",
  "lat": 55.412329,
  "lon": 38.169982
}, {
  "val": [47],
  "id": 525,
  "name": "Пушкино",
  "info": "Глубина скважины 47 м.",
  "lat": 55.405434,
  "lon": 38.19854
}, {
  "val": [35,55,37,48],
  "id": 526,
  "name": "Панино",
  "info": "Глубина скважин 35,55, 37,48 м.",
  "lat": 55.388558,
  "lon": 38.184993
}, {
  "val": [70],
  "id": 527,
  "name": "Ильинское",
  "info": "Глубина скважины 70 м.",
  "lat": 55.4372335,
  "lon": 38.0869262
}, {
  "val": [145,190],
  "id": 528,
  "name": "Ольгово",
  "info": "Глубина скважины 145,190 м.",
  "lat": 56.270261,
  "lon": 37.341116
}, {
  "val": [60],
  "id": 529,
  "name": "Курово",
  "info": "Глубина скважины 60 м.",
  "lat": 55.80738,
  "lon": 35.999733
}, {
  "val": [60],
  "id": 530,
  "name": "Гармониха",
  "info": "Глубина скважины 60 м.",
  "lat": 55.68498,
  "lon": 39.757368
}, {
  "val": [90],
  "id": 532,
  "name": "Грибаново",
  "info": "Глубина скважины 90м.",
  "lat": 55.744439,
  "lon": 37.123005
}, {
  "val": [80],
  "id": 533,
  "name": "Завидовка",
  "info": "Глубина скважин 80 м.",
  "lat": 54.264859,
  "lon": 38.815197
}, {
  "val": [32,35,43,46,65,55,65,60,70,71,32,41,47],
  "id": 534,
  "name": "Кривцы",
  "info": "Глубина скважины 32, 35, 43, 46, 65 м., <br>КП \"Белаго\" - 55, 65, 60, 70, 71 м<br>КП \"Велино\" - 32, 41, 47 м.",
  "lat": 55.46312,
  "lon": 38.198648
}, {
  "val": [45,48,50,54,35,46,42,41,51,45],
  "id": 535,
  "name": "Старые Кузьменки",
  "info": "Глубина скважин - 45, 48, 50, 54 м.<br>ДНТ \"Берег\" - 35, 46 м.<br>ул. Успенская - 42 м.<br>ул. Цветочная - 41 м.<br>КП \"Берег-2\" - 51 м.:<br>ул. Фруктовая - 45 м",
  "lat": 55.038821,
  "lon": 37.408355
}, {
  "val": [46,54],
  "id": 536,
  "name": "СНТ Алёшинские сады",
  "info": "Глубина скважин 46, 54 м.",
  "lat": 55.714143,
  "lon": 38.348461
}, {
  "val": [112],
  "id": 537,
  "name": "Высокое",
  "info": "Глубина скважины 112 м.",
  "lat": 54.518857,
  "lon": 39.416359
}, {
  "val": [160],
  "id": 538,
  "name": "Токмаково",
  "info": "Глубина скважины 160 м.",
  "lat": 54.721073,
  "lon": 42.250184
}, {
  "val": [58,71,73],
  "id": 539,
  "name": "Полухтино",
  "info": "Глубина скважины 58,71,73 м.",
  "lat": 55.02675,
  "lon": 41.111291
}, {
  "val": [102],
  "id": 540,
  "name": "Шилово",
  "info": "Глубина скважины 102 м.",
  "lat": 54.013956,
  "lon": 39.89967
}, {
  "val": [110],
  "id": 541,
  "name": "Дубки",
  "info": "Глубина скважины 110 м.",
  "lat": 55.679128,
  "lon": 38.170126
}, {
  "val": [60],
  "id": 542,
  "name": "Ям",
  "info": "Глубина скважины 60 м.",
  "lat": 55.437102,
  "lon": 37.768094
}, {
  "val": [91,95],
  "id": 543,
  "name": "Расторгуево",
  "info": "Глубина скважин - 91, 95 м.",
  "lat": 55.548406,
  "lon": 37.686015
}, {
  "val": [89],
  "id": 544,
  "name": "Рубцово",
  "info": "Глубина скважины 89 м.",
  "lat": 54.593958,
  "lon": 39.919092
}, {
  "val": [85],
  "id": 545,
  "name": "Тимохино",
  "info": "Глубина скважины 85 м.",
  "lat": 54.938498,
  "lon": 41.084719
}, {
  "val": [105],
  "id": 546,
  "name": "Кощейково",
  "info": "Глубина скважины 105 м.",
  "lat": 56.084661,
  "lon": 37.919173
}, {
  "val": [100],
  "id": 547,
  "name": "Софрино",
  "info": "Глубина скважины 100 м.",
  "lat": 56.152926,
  "lon": 37.96885
}, {
  "val": [40],
  "id": 548,
  "name": "Халтурино",
  "info": "Глубина скважины 40 м.",
  "lat": 55.675732,
  "lon": 39.408795
}, {
  "val": [25,29,30,26,28,23,24,25,28,30],
  "id": 549,
  "name": "Красное",
  "info": "Глубина скважин 25, 29 (самоизлив), 30 м.<br>СНТ \"Надежда\" - 26, 28 м.<br>СНТ \"Озерки\" - 23, 24, 25, 28, 30 м.",
  "lat": 55.6164158,
  "lon": 39.4094096
}, {
  "val": [35],
  "id": 550,
  "name": "Филиппово",
  "info": "Глубина скважины 35 м.",
  "lat": 55.725432,
  "lon": 39.410726
}, {
  "val": [58],
  "id": 551,
  "name": "Березово",
  "info": "Глубина скважины 58 м.",
  "lat": 54.094492,
  "lon": 39.290954
}, {
  "val": [45,52,32],
  "id": 552,
  "name": "Кабаново",
  "info": "Глубина скважины 45, 52 м.<br>ДНП Лесное - 32 м.",
  "lat": 55.884085,
  "lon": 38.276002
}, {
  "val": [73,74],
  "id": 553,
  "name": "Завидовка",
  "info": "Глубина скважины 73,74 м.",
  "lat": 54.264859,
  "lon": 38.815197
}, {
  "val": [47],
  "id": 554,
  "name": "Яковлевское",
  "info": "Глубина скважины 47 м.",
  "lat": 55.465458,
  "lon": 36.93885
}, {
  "val": [33,56],
  "id": 555,
  "name": "Белеутово",
  "info": "Глубина скважины 33,56 м.",
  "lat": 55.504664,
  "lon": 37.73986
}, {
  "val": [65],
  "id": 556,
  "name": "Грибово",
  "info": "Глубина скважины 65 м.",
  "lat": 56.009024,
  "lon": 37.96787
}, {
  "val": [15],
  "id": 557,
  "name": "Ильинское",
  "info": "Глубина скважины 15 м. - Само излив дебет 30 м3",
  "lat": 56.337496,
  "lon": 35.61097
}, {
  "val": [50],
  "id": 558,
  "name": "Клюквенный",
  "info": "Глубина скважины 50 м.",
  "lat": 56.034591,
  "lon": 38.17769
}, {
  "val": [95,106,30,55],
  "id": 559,
  "name": "Костино",
  "info": "Глубина скважины 95-106 м. (с сероводородом).<br>СНТ \"Северный\" - 30 м. (дебит 0,8 м3/ч).<br>ул. Подольская - 55 м.",
  "lat": 54.948939,
  "lon": 37.535565
}, {
  "val": [35,92],
  "id": 560,
  "name": "Левое Ящерово",
  "info": "Глубина скважин - 35, 92 м.",
  "lat": 54.942884,
  "lon": 37.521129
}, {
  "val": [48],
  "id": 561,
  "name": "Нефедово",
  "info": "Глубина скважины 48 м.",
  "lat": 54.945392,
  "lon": 37.462891
}, {
  "val": [140],
  "id": 562,
  "name": "Калязин",
  "info": "Глубина скважины 140 м.",
  "lat": 57.238936,
  "lon": 37.832404
}, {
  "val": [62,70,72,94,95,69,61],
  "id": 563,
  "name": "Пласкинино",
  "info": "Глубина скважин 62, 70, 72, 94, 95 м.<br>ДНП \"Полесье\" - 69 м.<br>п. Радужный - 61 м.",
  "lat": 55.539976,
  "lon": 38.427431
}, {
  "val": [54,55],
  "id": 564,
  "name": "Шеметово",
  "info": "Глубина скважины 54, 55 м.",
  "lat": 55.160293,
  "lon": 38.623434
}, {
  "val": [170],
  "id": 565,
  "name": "Новая Шурма",
  "info": "Глубина скважины 170 м.",
  "lat": 56.548539,
  "lon": 38.237778
}, {
  "val": [25,32,32,34,31],
  "id": 566,
  "name": "Бывалино",
  "info": "Глубина скважин - 25 м.<br>КП \"Луговой\" - 32 м.<br>п. Луговой - 32 м.<br>ДНП \"Луговой\" - 34 м.<br>СНТ \"Луговой\" - 31 м.",
  "lat": 55.728327,
  "lon": 38.765673
}, {
  "val": [30,31],
  "id": 567,
  "name": "Логиново",
  "info": "Глубина скважины 30, 31.5 м.",
  "lat": 55.706655,
  "lon": 38.731582
}, {
  "val": [65],
  "id": 568,
  "name": "Шебаново",
  "info": "Глубина скважины 65 м.",
  "lat": 55.632972,
  "lon": 38.714056
}, {
  "val": [60],
  "id": 569,
  "name": "Коноково",
  "info": "Глубина скважины 60 м.",
  "lat": 57.215652,
  "lon": 33.991954
}, {
  "val": [70],
  "id": 570,
  "name": "Мешково",
  "info": "Глубина скважин 70 м.",
  "lat": 55.591426,
  "lon": 37.320643
}, {
  "val": [140],
  "id": 571,
  "name": "Тимоново",
  "info": "Глубина скважины 140 м.",
  "lat": 56.224988,
  "lon": 37.031287
}, {
  "val": [122,128],
  "id": 572,
  "name": "Сысоево",
  "info": "Глубина скважины 122,128 м.",
  "lat": 55.958487,
  "lon": 36.939201
}, {
  "val": [75],
  "id": 573,
  "name": "Поливаново",
  "info": "Глубина скважины 75 м.",
  "lat": 55.454279,
  "lon": 37.39815
}, {
  "val": [39,37],
  "id": 574,
  "name": "Верховье",
  "info": "Глубина скважины - 39 м.<br>СНТ \"Надежда\" - 37 м.",
  "lat": 55.076731,
  "lon": 36.681564
}, {
  "val": [60,70],
  "id": 575,
  "name": "Пушкарка",
  "info": "Глубина скважины 60,70 м.",
  "lat": 55.422298,
  "lon": 36.127573
}, {
  "val": [65,66,67,68,57,65,67,68,70],
  "id": 576,
  "name": "Дятловка",
  "info": "Глубина скважины 65, 66, 67, 68 м.<br>КП \"Купавна-Лайф\" - 57, 65, 67, 68, 70 м.",
  "lat": 55.732631,
  "lon": 38.067008
}, {
  "val": [68],
  "id": 577,
  "name": "Пушкари",
  "info": "Глубина скважины 68 м.",
  "lat": 54.275091,
  "lon": 39.087567
}, {
  "val": [45],
  "id": 578,
  "name": "Дерменцево",
  "info": "Глубина скважины 45 м.",
  "lat": 55.837783,
  "lon": 35.787111
}, {
  "val": [120],
  "id": 579,
  "name": "Румянцево",
  "info": "Глубина скважин 120 м.",
  "lat": 55.632225,
  "lon": 37.42439
}, {
  "val": [100],
  "id": 580,
  "name": "Дудкино",
  "info": "Глубина скважин 100 м.",
  "lat": 55.630304,
  "lon": 37.447413
}, {
  "val": [52,70,71],
  "id": 581,
  "name": "Сосенки",
  "info": "Глубина скважины 52, 70, 71 м.",
  "lat": 55.563859,
  "lon": 37.43976
}, {
  "val": [42,54,52,41],
  "id": 582,
  "name": "Новлянское",
  "info": "Глубина скважин - 42, 54 м.<br>Осенний бульвар - 52 м.<br>Ул Береговая - 41 м.",
  "lat": 55.913406,
  "lon": 35.7392151
}, {
  "val": [49],
  "id": 583,
  "name": "Мешково",
  "info": "Глубина скважины 49 м.",
  "lat": 55.591426,
  "lon": 37.320643
}, {
  "val": [47],
  "id": 584,
  "name": "Авиатор",
  "info": "Глубина скважины 47 м.",
  "lat": 55.413162,
  "lon": 37.839816
}, {
  "val": [104,147,160],
  "id": 585,
  "name": "Поварово",
  "info": "Глубина скважины 104, 147, 160 м.",
  "lat": 56.07584,
  "lon": 37.061659
}, {
  "val": [200],
  "id": 586,
  "name": "Марьино",
  "info": "Глубина скважины 200 м.",
  "lat": 56.018348,
  "lon": 37.016016
}, {
  "val": [44,58,42],
  "id": 587,
  "name": "Пущино",
  "info": "Глубина скважин 44, 58 м.<br>Коопр. \"Ока\" - 42 м.",
  "lat": 54.8390551,
  "lon": 37.6260081
}, {
  "val": [15,20],
  "id": 588,
  "name": "Старосемейкино",
  "info": "Глубина скважины 15-20 м.",
  "lat": 53.410872,
  "lon": 50.269445
}, {
  "val": [35,40],
  "id": 589,
  "name": "Лбище",
  "info": "Глубина скважины 35-40 м.",
  "lat": 53.157904,
  "lon": 49.565776
}, {
  "val": [113],
  "id": 590,
  "name": "Хлюпино",
  "info": "Глубина скважин 113 м.",
  "lat": 55.662984,
  "lon": 36.965881
}, {
  "val": [113,118,112],
  "id": 591,
  "name": "Чигасово",
  "info": "Глубина скважин - 113 м.<br>СНТ \"Горицвет\" - 118 м.<br>СНТ \" Чигасово\" - 112 м.",
  "lat": 55.688817,
  "lon": 36.958604
}, {
  "val": [65],
  "id": 592,
  "name": "Татаринцево",
  "info": "КП \"Боярово\" - 65 м.",
  "lat": 55.358893,
  "lon": 38.347741
}, {
  "val": [70],
  "id": 593,
  "name": "СНТ Лесная Сказка",
  "info": "Глубина скважин 70 м.",
  "lat": 55.691942,
  "lon": 39.433633
}, {
  "val": [28,29,31,60],
  "id": 594,
  "name": "Плещеево",
  "info": "Глубина скважин 28, 29, 31, 60 м.",
  "lat": 55.457781,
  "lon": 37.602921
}, {
  "val": [60],
  "id": 595,
  "name": "Игнатьевское",
  "info": "Глубина скважин 60 м.",
  "lat": 55.047585,
  "lon": 36.353571
}, {
  "val": [45],
  "id": 596,
  "name": "Артюкино",
  "info": "Глубина скважины 45 м. (песчаник)",
  "lat": 58.037193,
  "lon": 39.082752
}, {
  "val": [73],
  "id": 597,
  "name": "Медведово",
  "info": "Глубина скважины 73 м.",
  "lat": 57.94045,
  "lon": 39.845924
}, {
  "val": [80],
  "id": 598,
  "name": "Поповское",
  "info": "Глубина скважины 80 м.",
  "lat": 57.318165,
  "lon": 38.910724
}, {
  "val": [21],
  "id": 599,
  "name": "Заборново",
  "info": "Глубина скважины 21 м.",
  "lat": 57.519014,
  "lon": 40.12813
}, {
  "val": [40],
  "id": 600,
  "name": "Мостец",
  "info": "Глубина скважины 40 м.",
  "lat": 57.636013,
  "lon": 39.984948
}, {
  "val": [42,60],
  "id": 601,
  "name": "Бынино",
  "info": "Глубина скважины 42 ,60 м.",
  "lat": 55.955322,
  "lon": 38.833137
}, {
  "val": [27,28,30,32],
  "id": 602,
  "name": "Нефедьево",
  "info": "Глубина скважины 27,28,30,32 м.",
  "lat": 54.649818,
  "lon": 37.937894
}, {
  "val": [170,175],
  "id": 603,
  "name": "Новый Стан",
  "info": "Глубина скважины 170,175 м.",
  "lat": 56.295515,
  "lon": 37.002119
}, {
  "val": [61,70,62],
  "id": 604,
  "name": "Михалево",
  "info": "Глубина скважин - 61, 70 м.<br>ул. Новая - 62 м.",
  "lat": 55.4473,
  "lon": 38.432039
}, {
  "val": [52],
  "id": 605,
  "name": "Гришенки",
  "info": "Глубина скважины 52 м.",
  "lat": 55.097373,
  "lon": 37.429546
}, {
  "val": [33,51],
  "id": 606,
  "name": "Демихово",
  "info": "Глубина скважин - 33 м.<br>СНТ \"Лесные дали\" - 51 м.",
  "lat": 55.680159,
  "lon": 35.65523
}, {
  "val": [27,30,35,45],
  "id": 607,
  "name": "Константиново",
  "info": "Глубина скважин - 27, 30, 35, 45 м",
  "lat": 55.338167,
  "lon": 38.617891
}, {
  "val": [60,95,99,115,31],
  "id": 608,
  "name": "Вороново",
  "info": "ДНП \"Усадьба Вороново\" 60, 95, 99, 115 м<br>Глубина скважин 31 м.",
  "lat": 55.598421,
  "lon": 38.577773
}, {
  "val": [40],
  "id": 609,
  "name": "Медвежье",
  "info": "Глубина скважины 40 м.",
  "lat": 54.305456,
  "lon": 40.045458
}, {
  "val": [80,23],
  "id": 610,
  "name": "Трошково",
  "info": "Глубина скважины<br>ул. Родниковая - 80 м.<br>ул. Речная - 23 м.",
  "lat": 55.6015653,
  "lon": 38.4188196
}, {
  "val": [65],
  "id": 611,
  "name": "Бабино-Булыгино",
  "info": "Глубина скважины 65 м.",
  "lat": 54.924744,
  "lon": 41.329636
}, {
  "val": [30],
  "id": 612,
  "name": "Лощинино",
  "info": "Глубина скважины 30 м.",
  "lat": 54.957014,
  "lon": 41.31034
}, {
  "val": [89],
  "id": 613,
  "name": "Рубцово",
  "info": "Глубина скважины 89 м.",
  "lat": 54.593958,
  "lon": 39.919092
}, {
  "val": [40],
  "id": 614,
  "name": "Соколова Пустынь",
  "info": "Глубина скважины  С/Т Сокол - 40 м.",
  "lat": 54.843284,
  "lon": 38.04809
}, {
  "val": [48,55,51],
  "id": 615,
  "name": "Троице-Лобаново",
  "info": "Глубина скважин - 48, 55 м.<br>ул. Мира - 51 м.",
  "lat": 55.253014,
  "lon": 38.281338
}, {
  "val": [95],
  "id": 616,
  "name": "Расторгуево 1-й Футбольный проезд",
  "info": "Глубина скважины 95 м.",
  "lat": 55.537612,
  "lon": 37.652238
}, {
  "val": [50,75,54,55,74],
  "id": 617,
  "name": "Тяжино",
  "info": "Глубина скважин - 50, 75 м.<br>Новое Тяжино - 54, 55 м.<br>ул. Заречная - 74 м.",
  "lat": 55.45043,
  "lon": 38.188182
}, {
  "val": [65,60],
  "id": 618,
  "name": "Карпово",
  "info": "Глубина скважины 65 м.<br>Кантри Клаб 60 м.",
  "lat": 55.579541,
  "lon": 38.559824
}, {
  "val": [59],
  "id": 619,
  "name": "Деминская",
  "info": "Глубина скважины 59 м.",
  "lat": 55.401958,
  "lon": 39.204231
}, {
  "val": [95,51],
  "id": 620,
  "name": "ПГТ Горки Ленинские",
  "info": "Глубина скважины 95,51 м.",
  "lat": 55.505567,
  "lon": 37.777481
}, {
  "val": [38,60,70],
  "id": 621,
  "name": "Ям",
  "info": "Глубина скважины 38,60,70 м.",
  "lat": 55.484183,
  "lon": 37.754709
}, {
  "val": [75],
  "id": 622,
  "name": "Ибердус",
  "info": "Глубина скважины 75 м.",
  "lat": 54.905741,
  "lon": 41.044133
}, {
  "val": [33,30],
  "id": 623,
  "name": "Лощинино",
  "info": "Глубина скважины 33,30 м.",
  "lat": 54.957014,
  "lon": 41.31034
}, {
  "val": [52,50,53],
  "id": 624,
  "name": "Левино",
  "info": "Глубина скважины 52,50,53 м.",
  "lat": 55.032232,
  "lon": 41.125772
}, {
  "val": [85],
  "id": 625,
  "name": "Нагорное",
  "info": "Глубина скважины 85 м.",
  "lat": 54.80085,
  "lon": 39.461886
}, {
  "val": [119],
  "id": 626,
  "name": "Чевкино",
  "info": "Глубина скважины 119 м.",
  "lat": 54.372424,
  "lon": 40.429856
}, {
  "val": [35,37,25],
  "id": 627,
  "name": "Рубецкое",
  "info": "Глубина скважины 35, 37,25 м.",
  "lat": 54.813339,
  "lon": 41.136219
}, {
  "val": [121],
  "id": 628,
  "name": "Стольное",
  "info": "Глубина скважины 121 м.",
  "lat": 55.662105,
  "lon": 37.336058
}, {
  "val": [96],
  "id": 629,
  "name": "Клушино",
  "info": "Глубина скважины 96,5 м.",
  "lat": 56.034098,
  "lon": 37.280435
}, {
  "val": [115],
  "id": 630,
  "name": "Воскресенки",
  "info": "Глубина скважины 115 м.",
  "lat": 55.842868,
  "lon": 36.631069
}, {
  "val": [91],
  "id": 631,
  "name": "Красный Воин",
  "info": "Глубина скважины 91 м.",
  "lat": 56.032509,
  "lon": 37.206324
}, {
  "val": [41],
  "id": 632,
  "name": "Хитрово",
  "info": "Глубина скважины 41 м.",
  "lat": 55.115012,
  "lon": 36.236862
}, {
  "val": [21],
  "id": 633,
  "name": "Лапшинка",
  "info": "Глубина скважины 21 м.",
  "lat": 55.180732,
  "lon": 36.624413
}, {
  "val": [30],
  "id": 634,
  "name": "Ярцево",
  "info": "Глубина скважины 30 м.",
  "lat": 55.397081,
  "lon": 37.1196
}, {
  "val": [38],
  "id": 635,
  "name": "Нащекино",
  "info": "Глубина скважины 38 м.",
  "lat": 55.330839,
  "lon": 38.061484
}, {
  "val": [34,30,60],
  "id": 636,
  "name": "Митяево",
  "info": "Глубина скважины 34,30,60 м.",
  "lat": 55.371081,
  "lon": 36.143922
}, {
  "val": [125],
  "id": 637,
  "name": "Зенькино",
  "info": "Глубина скважины 125 м.",
  "lat": 55.941844,
  "lon": 36.77453
}, {
  "val": [80],
  "id": 638,
  "name": "Тростье",
  "info": "Глубина скважины 80 м.",
  "lat": 55.014422,
  "lon": 36.94451
}, {
  "val": [42],
  "id": 639,
  "name": "Октябрьское",
  "info": "Глубина скважины 42 м.",
  "lat": 55.101844,
  "lon": 38.991447
}, {
  "val": [60,80],
  "id": 640,
  "name": "Южное Бутово",
  "info": "Глубина скважины 60,80 м.",
  "lat": 55.525466,
  "lon": 37.539805
},