[{"ID":1,"Name":"Огниково","Info":"Глубина 1000000000000м","LocationLat":56.004908,"LocationLng":36.920242},{"ID":2,"Name":"Акатово","Info":"Глубина 70м","LocationLat":56.109193,"LocationLng":36.592712},{"ID":3,"Name":"Ногово","Info":"Глубина 40м","LocationLat":56.161994,"LocationLng":36.380539},{"ID":4,"Name":"Снегири","Info":"Глубина 50м","LocationLat":55.896876,"LocationLng":37.039032},{"ID":5,"Name":"Меры","Info":"Текст","LocationLat":55.812086,"LocationLng":36.621552},{"ID":6,"Name":"Гуляевы","Info":"Не указано","LocationLat":55.391592,"LocationLng":37.018433},{"ID":7,"Name":"Мачихино","Info":"Не указано","LocationLat":55.324457,"LocationLng":36.915436},{"ID":8,"Name":"Шарапово","Info":"Не указано","LocationLat":55.1969,"LocationLng":37.257385},{"ID":9,"Name":"Васьково","Info":"Не указано","LocationLat":55.078367,"LocationLng":38.39447},{"ID":10,"Name":"Жилево","Info":"Не указано","LocationLat":54.99101,"LocationLng":38.036041},{"ID":11,"Name":"Рудаково","Info":"Не указано","LocationLat":54.978402,"LocationLng":38.431549},{"ID":12,"Name":"Точка 12","Info":"Не указано","LocationLat":54.760293,"LocationLng":38.405456},{"ID":13,"Name":"Фаустово","Info":"Не указано","LocationLat":55.444595,"LocationLng":38.527679},{"ID":14,"Name":"Данилово","Info":"Не указано","LocationLat":55.675261,"LocationLng":38.765259},{"ID":15,"Name":"Жилино","Info":"Не указано","LocationLat":55.912273,"LocationLng":38.538666},{"ID":16,"Name":"Огуднево","Info":"Не указано","LocationLat":56.061303,"LocationLng":38.268127},{"ID":17,"Name":"Таратино","Info":"Не указано","LocationLat":56.246402,"LocationLng":38.553772},{"ID":18,"Name":"Точка 20","Info":"Не указано","LocationLat":56.166965,"LocationLng":35.529785},{"ID":19,"Name":"Точка 21","Info":"Не указано","LocationLat":56.532229,"LocationLng":35.326538},{"ID":20,"Name":"Точка 19","Info":"Не указано","LocationLat":55.572134,"LocationLng":35.991211},{"ID":21,"Name":"Точка 22","Info":"Не указано","LocationLat":56.483729,"LocationLng":33.590698},{"ID":22,"Name":"Зендиково","Info":"Глубина скважин 56,57,60,64,70 м","LocationLat":54.8066,"LocationLng":38.1566},{"ID":23,"Name":"Щукино","Info":"Глубина скважин 42 68 м.","LocationLat":54.4679,"LocationLng":37.0102},{"ID":24,"Name":"Хлябово","Info":"Глубина скважины 160 м.","LocationLat":56.1222,"LocationLng":37.5476},{"ID":25,"Name":"Панино","Info":"Глубина скважины 30 м.","LocationLat":55.2424,"LocationLng":37.4085},{"ID":26,"Name":"Дубечино","Info":"Глубина скважин 25,31 м.","LocationLat":55.0771,"LocationLng":37.7424},{"ID":27,"Name":"Протвино","Info":"Глубина скважины 50 м.","LocationLat":54.8801,"LocationLng":37.2189},{"ID":28,"Name":"Головлино","Info":"Глубина скважины 60 м.","LocationLat":54.8617,"LocationLng":37.9644},{"ID":29,"Name":"Салтыковка","Info":"Глубина скважин 149, 78, 103, 143 м.","LocationLat":55.7609,"LocationLng":37.916},{"ID":30,"Name":"Проскурниково","Info":"Глубина скважин 30, 40, 38, м.","LocationLat":55.1818,"LocationLng":37.9686},{"ID":31,"Name":"Прокшино","Info":"Глубина скважины 50, 60 м.","LocationLat":54.819,"LocationLng":37.368},{"ID":32,"Name":"Егорьевск","Info":"Глубина скважины 98,51,50,57,62 м.","LocationLat":55.3837,"LocationLng":39.0434},{"ID":33,"Name":"Хомутово","Info":"Глубина скважины 41 м.","LocationLat":55.191,"LocationLng":38.2447},{"ID":34,"Name":"Коченягино","Info":"Глубина скважины 50 м.","LocationLat":55.1707,"LocationLng":37.7323},{"ID":35,"Name":"Балашиха","Info":"Глубина скважины ул. Вишневая 80 м.","LocationLat":55.7926,"LocationLng":37.9404},{"ID":36,"Name":"Салтыковка","Info":"Глубина скважин 80, 145, 103, 70 м.","LocationLat":55.7609,"LocationLng":37.916},{"ID":37,"Name":"Болычево","Info":"Глубина скважины 80 м.","LocationLat":55.7612,"LocationLng":35.7203},{"ID":38,"Name":"Чисмена","Info":"Глубина скважины 160, 175 м.","LocationLat":56.0201,"LocationLng":36.2148},{"ID":39,"Name":"Волоколамск","Info":"Глубина скважин 62,70,120 м.","LocationLat":56.0312,"LocationLng":35.9474},{"ID":40,"Name":"Теряево","Info":"Глубина скважины 160, 100, 121 м.","LocationLat":56.1732,"LocationLng":36.1207},{"ID":41,"Name":"Некрасовский","Info":"Глубина скважин 115, 120 м.","LocationLat":56.0841,"LocationLng":37.5001},{"ID":42,"Name":"Аксеново","Info":"Глубина скважин 59, 106 м.","LocationLat":55.674,"LocationLng":38.2426},{"ID":43,"Name":"Рогачево","Info":"Глубина скважины 130 м.","LocationLat":56.4316,"LocationLng":37.1662},{"ID":44,"Name":"Яхрома","Info":"Глубина скважины 180,196 м.","LocationLat":56.293,"LocationLng":37.4824},{"ID":45,"Name":"Ольявидово","Info":"Глубина скважины 145 м.","LocationLat":56.5041,"LocationLng":37.7542},{"ID":46,"Name":"аэропорт Домодедово","Info":"Глубина скважин 45,60 м.","LocationLat":55.4154,"LocationLng":37.8988},{"ID":47,"Name":"Барыбино","Info":"Глубина скважин 50,70 м.","LocationLat":55.2226,"LocationLng":37.8348},{"ID":48,"Name":"Добрыниха","Info":"Глубина скважины 60 м.","LocationLat":55.1814,"LocationLng":37.7026},{"ID":49,"Name":"Рязановский","Info":"Глубина скважины 80 м.","LocationLat":55.1333,"LocationLng":39.5485},{"ID":50,"Name":"Протекино","Info":"Глубина скважины 70,90 м.","LocationLat":54.8244,"LocationLng":38.7946},{"ID":51,"Name":"Макеево","Info":"Глубина скважины 70,110 м.","LocationLat":54.4432,"LocationLng":39.4819},{"ID":52,"Name":"Алферьево","Info":"Глубина скважины 60,80 м.","LocationLat":54.6548,"LocationLng":38.7481},{"ID":53,"Name":"Дедовск","Info":"Глубина скважин 115,120, 90 м.","LocationLat":55.8602,"LocationLng":37.1307},{"ID":54,"Name":"Истра","Info":"Глубина скважины 120,86 м.","LocationLat":55.9137,"LocationLng":36.8537},{"ID":55,"Name":"Новопетровское","Info":"Глубина скважины 120, 200 м.","LocationLat":55.9879,"LocationLng":36.4728},{"ID":56,"Name":"Алехново","Info":"Глубина скважины 140 м.","LocationLat":56.0277,"LocationLng":36.8084},{"ID":57,"Name":"Кашира","Info":"Глубина скважины 80,60 м.","LocationLat":54.8409,"LocationLng":38.1897},{"ID":58,"Name":"Каменка","Info":"Глубина скважин 70,80 м.","LocationLat":54.7103,"LocationLng":38.3235},{"ID":59,"Name":"Барабаново","Info":"Глубина скважины 100,140 м.","LocationLat":54.7144,"LocationLng":38.1651},{"ID":60,"Name":"Кузнецово","Info":"Глубина скважины 150 м.","LocationLat":56.1269,"LocationLng":36.6568},{"ID":61,"Name":"Клин","Info":"Глубина скважин 140, 180 м.","LocationLat":56.345,"LocationLng":36.7247},{"ID":62,"Name":"Пески","Info":"Глубина скважины 40,60 м.","LocationLat":55.2098,"LocationLng":38.7749},{"ID":63,"Name":"Коломна","Info":"Глубина скважины 50,43,78 м.","LocationLat":55.0843,"LocationLng":38.7985},{"ID":64,"Name":"Акатьево","Info":"Глубина скважины 60 м.","LocationLat":54.9792,"LocationLng":38.7543},{"ID":65,"Name":"Нахабино","Info":"Глубина скважины 80,100 м.","LocationLat":55.848,"LocationLng":37.1718},{"ID":66,"Name":"Ильинское","Info":"Глубина скважин 70,90,83 м.","LocationLat":55.7586,"LocationLng":37.2378},{"ID":67,"Name":"Красногорск","Info":"Глубина скважины 90 м.","LocationLat":55.8269,"LocationLng":37.2968},{"ID":68,"Name":"Десна","Info":"Глубина скважины 30 м.","LocationLat":55.5239,"LocationLng":37.3764},{"ID":69,"Name":"Видное","Info":"Глубина скважины 70, 100 м.","LocationLat":55.5505,"LocationLng":37.7108},{"ID":70,"Name":"Ошейкино","Info":"Глубина скважины 33,60,м. 65 м.- Самоизлив","LocationLat":56.2544,"LocationLng":35.9004},{"ID":71,"Name":"Лотошино","Info":"Глубина скважины 60 м.","LocationLat":56.2349,"LocationLng":35.6398},{"ID":72,"Name":"Введенское","Info":"Глубина скважины 60 м.","LocationLat":56.3742,"LocationLng":35.6308},{"ID":73,"Name":"Луховицы","Info":"Хлябово","LocationLat":54.9592,"LocationLng":39.0318},{"ID":74,"Name":"Белоомут","Info":"Глубина скважины 50 м.","LocationLat":54.9434,"LocationLng":39.34},{"ID":75,"Name":"Григорьевское","Info":"Хлябово","LocationLat":54.8026,"LocationLng":39.2565},{"ID":76,"Name":"Можайск","Info":"Глубина скважин 63, 70,77 м.","LocationLat":55.5047,"LocationLng":36.0125},{"ID":77,"Name":"Ивакино","Info":"Глубина скважины 60,57 м.","LocationLat":55.3255,"LocationLng":35.6091},{"ID":78,"Name":"Поречье","Info":"Глубина скважины 80 м.","LocationLat":55.7143,"LocationLng":35.5468},{"ID":79,"Name":"Грибки","Info":"Глубина скважины 90 м.","LocationLat":55.9564,"LocationLng":37.5354},{"ID":80,"Name":"Протасово","Info":"Хлябово","LocationLat":56.1355,"LocationLng":37.5999},{"ID":81,"Name":"Мытищи","Info":"Глубина скважин 96,120,105,125 м., СНТ \"Водоканал\"-41м","LocationLat":55.919,"LocationLng":37.7492},{"ID":82,"Name":"Апрелевка","Info":"Глубина скважин 60, 70, 74,66 м.","LocationLat":55.5484,"LocationLng":37.0579},{"ID":83,"Name":"Верея","Info":"Хлябово","LocationLat":55.3447,"LocationLng":36.182},{"ID":84,"Name":"Ногинск","Info":"Хлябово","LocationLat":55.8604,"LocationLng":38.4537},{"ID":85,"Name":"Электроугли","Info":"Глубина скважины 45,52, 64 м., СТ \"Украина\"-46м","LocationLat":55.7343,"LocationLng":38.1853},{"ID":86,"Name":"Немчиновка","Info":"Хлябово","LocationLat":55.719,"LocationLng":37.3695},{"ID":87,"Name":"Немчиновка","Info":"Хлябово","LocationLat":55.719,"LocationLng":37.3695},{"ID":88,"Name":"Голицыно","Info":"Глубина скважины 70, 76, 93 м.","LocationLat":55.6097,"LocationLng":36.9851},{"ID":89,"Name":"Кубинка","Info":"Хлябово","LocationLat":55.5708,"LocationLng":36.7015},{"ID":90,"Name":"Бояркино","Info":"Глубина скважин 60,80 м.","LocationLat":54.9568,"LocationLng":38.5214},{"ID":91,"Name":"Клишино","Info":"Хлябово","LocationLat":54.826,"LocationLng":38.5729},{"ID":92,"Name":"Куровское","Info":"Глубина скважины 60,92,45,115,59 м.","LocationLat":55.5803,"LocationLng":38.9172},{"ID":93,"Name":"Савинская","Info":"Глубина скважины 80 м.","LocationLat":55.6904,"LocationLng":39.3166},{"ID":94,"Name":"Орехово-Зуево","Info":"Глубина скважины 80,75,76 м.","LocationLat":55.8109,"LocationLng":38.9852},{"ID":95,"Name":"Павловский Посад","Info":"Глубина скважин 50,60, 57, 42,74,34 м.                  ул. Рябиновая - 70м","LocationLat":55.7831,"LocationLng":38.659},{"ID":96,"Name":"Электрогорск","Info":"Глубина скважины 35,70,42 м.","LocationLat":55.879,"LocationLng":38.7856},{"ID":97,"Name":"Кузовлево","Info":"Глубина скважины 30,40 м.","LocationLat":55.1835,"LocationLng":37.0016},{"ID":98,"Name":"Шишкин Лес","Info":"Глубина скважины 40,60 м.","LocationLat":55.4121,"LocationLng":37.1897},{"ID":99,"Name":"Климовск","Info":"Глубина скважины 60,80 м.","LocationLat":55.3659,"LocationLng":37.5273},{"ID":100,"Name":"Красноармейск","Info":"Глубина скважины 120,160 м.","LocationLat":56.1098,"LocationLng":38.13},{"ID":101,"Name":"Ашукино","Info":"Глубина скважины 130,140 м.","LocationLat":56.1741,"LocationLng":37.9494},{"ID":102,"Name":"Пушкино","Info":"Глубина скважины 90,100 м.","LocationLat":56.0159,"LocationLng":37.8542},{"ID":103,"Name":"Ульянино","Info":"Глубина скважины 50,76 м.","LocationLat":55.3505,"LocationLng":38.4293},{"ID":104,"Name":"Раменское","Info":"Глубина скважин 40,80,90 м.","LocationLat":55.5743,"LocationLng":38.227},{"ID":105,"Name":"Соболиха","Info":"ПЕСОК - 20,5 м.                                                      Глубина скважины 70,58,68 м.","LocationLat":55.7285,"LocationLng":38.0433},{"ID":106,"Name":"Полтево","Info":"Глубина скважин 33,34,37, 39 м.","LocationLat":55.7068,"LocationLng":38.1339},{"ID":107,"Name":"Волоколамск","Info":"Глубина скважины 56, 120 м.","LocationLat":56.0312,"LocationLng":35.9474},{"ID":108,"Name":"Жданово","Info":"Глубина скважины 71 м., СНТ Созвездие 55,53 м.","LocationLat":55.9963,"LocationLng":35.9819},{"ID":109,"Name":"Берендино","Info":"Глубина скважины 43 м.","LocationLat":55.4117,"LocationLng":38.8089},{"ID":110,"Name":"Абрамцево","Info":"Глубина скважины 163 м.","LocationLat":56.2179,"LocationLng":37.9666},{"ID":111,"Name":"Игнатьево","Info":"Глубина скважины 74 м.","LocationLat":56.4088,"LocationLng":38.2162},{"ID":112,"Name":"Лешково","Info":"Глубина скважины 128 м.","LocationLat":56.2007,"LocationLng":38.0822},{"ID":113,"Name":"Берендино","Info":"Глубина скважины 43 м.","LocationLat":55.4117,"LocationLng":38.8089},{"ID":114,"Name":"Барановское","Info":"Глубина скважины 90,55 м.","LocationLat":55.4064,"LocationLng":38.7532},{"ID":115,"Name":"Ворщиково","Info":"Глубина скважины 115 м.","LocationLat":55.4555,"LocationLng":38.3749},{"ID":116,"Name":"Золотово","Info":"Глубина скважин 50,52,38 м.","LocationLat":55.4305,"LocationLng":38.5298},{"ID":117,"Name":"Цибино","Info":"Глубина скважины 45, 65, 66,84 м.","LocationLat":55.4647,"LocationLng":38.4127},{"ID":118,"Name":"Фаустово","Info":"Глубина скважины 58,40,62 м.","LocationLat":55.4429,"LocationLng":38.4877},{"ID":119,"Name":"Борисово","Info":"Глубина скважины 36 м.","LocationLat":55.3587,"LocationLng":38.0518},{"ID":120,"Name":"Битягово","Info":"Глубина скважины 62,39 м.","LocationLat":55.3862,"LocationLng":37.7415},{"ID":121,"Name":"Востряково","Info":"Глубина скважин 45,47, 52, 35,32 м.","LocationLat":55.3983,"LocationLng":37.8185},{"ID":122,"Name":"Красный Путь","Info":"Глубина скважин 40, 39 м.","LocationLat":55.3426,"LocationLng":37.926},{"ID":123,"Name":"Старосъяново","Info":"Глубина скважины 65 м.","LocationLat":55.4872,"LocationLng":37.7912},{"ID":124,"Name":"Заболотье","Info":"Глубина скважины 25,54 м.","LocationLat":55.4481,"LocationLng":37.6749},{"ID":125,"Name":"Шубино","Info":"Глубина скважины 28 м.","LocationLat":55.3485,"LocationLng":38.0161},{"ID":126,"Name":"Икша","Info":"Глубина скважины 146,150,153 м.","LocationLat":56.1742,"LocationLng":37.5034},{"ID":127,"Name":"Дмитров","Info":"Глубина скважины 176, 157,171 м.","LocationLat":56.3574,"LocationLng":37.5299},{"ID":128,"Name":"Лотосово","Info":"Глубина скважины 157 м.","LocationLat":56.1852,"LocationLng":37.6188},{"ID":129,"Name":"Овсянниково","Info":"Глубина скважины 126 м.","LocationLat":56.3805,"LocationLng":37.6511},{"ID":130,"Name":"Подъячево","Info":"Глубина скважины 186 м.","LocationLat":56.2628,"LocationLng":37.2471},{"ID":131,"Name":"Рыбаки","Info":"Глубина скважины 110 м.","LocationLat":56.0558,"LocationLng":37.3571},{"ID":132,"Name":"Ульянки","Info":"Глубина скважины 135 м.","LocationLat":56.2585,"LocationLng":37.591},{"ID":133,"Name":"Удино","Info":"Глубина скважины 155 м.","LocationLat":56.1487,"LocationLng":37.317},{"ID":134,"Name":"Кромино","Info":"Глубина скважины 167 м.","LocationLat":56.2723,"LocationLng":37.5144},{"ID":135,"Name":"Измайлово","Info":"Глубина скважины 140 м.","LocationLat":56.5086,"LocationLng":37.7702},{"ID":136,"Name":"Подрядниково","Info":"Глубина скважины 42 м.","LocationLat":55.3165,"LocationLng":39.3341},{"ID":137,"Name":"Щеголево","Info":"Глубина скважины 50 м.","LocationLat":55.3248,"LocationLng":39.172},{"ID":138,"Name":"Федякино","Info":"Глубина скважины 48 м.","LocationLat":55.4205,"LocationLng":39.2342},{"ID":139,"Name":"Аносино","Info":"Глубина скважины 95, 87 м., КП \"Рига Парк\" 93м.","LocationLat":55.8384,"LocationLng":37.0161},{"ID":140,"Name":"Ивановское","Info":"Глубина скважины 87, 86 м. (сероводород)","LocationLat":55.9261,"LocationLng":36.9605},{"ID":141,"Name":"Лисавино","Info":"Глубина скважины 113 м.","LocationLat":55.9652,"LocationLng":37.0003},{"ID":142,"Name":"Первомайский","Info":"Глубина скважин 40, 35 м.","LocationLat":55.9123,"LocationLng":36.8062},{"ID":143,"Name":"Турово","Info":"Глубина скважины 94, 110 м.","LocationLat":55.903,"LocationLng":37.1131},{"ID":144,"Name":"Петровское","Info":"Глубина скважины 70 м.","LocationLat":55.9038,"LocationLng":37.0866},{"ID":145,"Name":"Чесноково","Info":"Глубина скважины 90 м.","LocationLat":55.7823,"LocationLng":37.0473},{"ID":146,"Name":"Елгозино","Info":"Глубина скважины 180 м.","LocationLat":56.2339,"LocationLng":36.359},{"ID":147,"Name":"Клин","Info":"Глубина скважины 130,180,181 м.","LocationLat":56.345,"LocationLng":36.7247},{"ID":148,"Name":"Троицкое","Info":"Глубина скважины 170 м.","LocationLat":56.3029,"LocationLng":36.4966},{"ID":149,"Name":"Болшое Карасево","Info":"Глубина скважины 27,67,79 м.","LocationLat":55.0009,"LocationLng":38.6334},{"ID":150,"Name":"Малое Уварово","Info":"Глубина скважины 30 м.","LocationLat":55.0374,"LocationLng":38.5486},{"ID":151,"Name":"Петрово-Дальнее","Info":"Глубина скважины 95,60 м.","LocationLat":55.749,"LocationLng":37.1783},{"ID":152,"Name":"Нахабино","Info":"Глубина скважин 63,115,89,76 м.","LocationLat":55.848,"LocationLng":37.1718},{"ID":153,"Name":"Аристово","Info":"Глубина скважин 92,95,125,80 м.","LocationLat":55.8945,"LocationLng":37.2739},{"ID":154,"Name":"Желябино","Info":"Глубина скважины 98,100, 96,102 м.","LocationLat":55.8691,"LocationLng":37.1862},{"ID":155,"Name":"Степановское","Info":"Глубина скважины 110 м.","LocationLat":55.7768,"LocationLng":37.1427},{"ID":156,"Name":"Большое Саврасово","Info":"Глубина скважины 85 м. 35 м.","LocationLat":55.4961,"LocationLng":37.9137},{"ID":157,"Name":"Валуево","Info":"Глубина скважин 65,80 м.","LocationLat":55.5713,"LocationLng":37.353},{"ID":158,"Name":"Видное","Info":"Глубина скважин 70, 90,51 м.","LocationLat":55.5505,"LocationLng":37.7108},{"ID":159,"Name":"Ватутинки","Info":"Глубина скважины 57 м.","LocationLat":55.5018,"LocationLng":37.3308},{"ID":160,"Name":"Троицк","Info":"Глубина скважины 53,54 м.","LocationLat":55.4793,"LocationLng":37.2945},{"ID":161,"Name":"Григорчиково","Info":"Глубина скважины 80, 65,61 м.","LocationLat":55.5131,"LocationLng":37.8989},{"ID":162,"Name":"Десна","Info":"Глубина скважины 70, 40,35,63 м.","LocationLat":55.5239,"LocationLng":37.3764},{"ID":163,"Name":"Дроздово","Info":"Глубина скважины 102 м.","LocationLat":55.6041,"LocationLng":37.8008},{"ID":164,"Name":"Картино","Info":"Глубина скважины 100,85 м.","LocationLat":55.5882,"LocationLng":37.7843},{"ID":165,"Name":"Суханово","Info":"Глубина скважины 60,65 м.","LocationLat":55.5197,"LocationLng":37.6537},{"ID":166,"Name":"Мисайлово","Info":"Глубина скважины 98,185 м.","LocationLat":55.5636,"LocationLng":37.817},{"ID":167,"Name":"Красково","Info":"Глубина скважины 75,70,80 м., СНТ \"Заречье\" - 31м","LocationLat":55.6626,"LocationLng":37.9969},{"ID":168,"Name":"Вялки","Info":"Глубина скважины 87 м.","LocationLat":55.6543,"LocationLng":38.091},{"ID":169,"Name":"Малаховка","Info":"Глубина скважин 61, 62,65,70,73,75,77,80 м.","LocationLat":55.6437,"LocationLng":38.009},{"ID":170,"Name":"Машково","Info":"Глубина скважины 76 м.","LocationLat":55.6865,"LocationLng":37.9742},{"ID":171,"Name":"Лыткарино","Info":"Глубина скважин 48, 75, 98, 40 м.","LocationLat":55.5768,"LocationLng":37.9235},{"ID":172,"Name":"Томилино","Info":"Глубина скважины 70,54 м.","LocationLat":55.6547,"LocationLng":37.9453},{"ID":173,"Name":"Вешки","Info":"Глубина скважины 92, 110 м.","LocationLat":55.9263,"LocationLng":37.6117},{"ID":174,"Name":"Болтино","Info":"Глубина скважины 109 м.","LocationLat":55.968,"LocationLng":37.6705},{"ID":175,"Name":"Жостово","Info":"Глубина скважины 82 м.","LocationLat":56.0054,"LocationLng":37.6473},{"ID":176,"Name":"Лобня","Info":"Глубина скважин 117, 85, 125 м.","LocationLat":56.0339,"LocationLng":37.4698},{"ID":177,"Name":"Марфино","Info":"Глубина скважины 86 м.","LocationLat":56.0737,"LocationLng":37.5577},{"ID":178,"Name":"Осташково","Info":"Глубина скважины 70 м.","LocationLat":55.9987,"LocationLng":37.5938},{"ID":179,"Name":"Ульянково","Info":"Глубина скважины 64 м.","LocationLat":56.0004,"LocationLng":37.7114},{"ID":180,"Name":"Борисово","Info":"Глубина скважины 71,100,74 м.","LocationLat":55.4188,"LocationLng":36.0512},{"ID":181,"Name":"Тропарево","Info":"Глубина скважины 60 м.","LocationLat":55.3764,"LocationLng":35.9003},{"ID":182,"Name":"Клементьево","Info":"Глубина скважины 60, 43,55 м.","LocationLat":55.6417,"LocationLng":36.0305},{"ID":183,"Name":"Шаликово","Info":"Глубина скважины 42,41,43 м.","LocationLat":55.5124,"LocationLng":36.2198},{"ID":184,"Name":"Рогозинино","Info":"Глубина скважины 75 м - ул. Луговая","LocationLat":55.5368,"LocationLng":37.1941},{"ID":185,"Name":"Верея","Info":"Глубина скважины 48,67 м.","LocationLat":55.3447,"LocationLng":36.182},{"ID":186,"Name":"Башкино","Info":"Глубина скважины 35 м.","LocationLat":55.3195,"LocationLng":36.6703},{"ID":187,"Name":"Жихарево","Info":"Глубина скважины 82 м.","LocationLat":55.4851,"LocationLng":36.6281},{"ID":188,"Name":"Крекшино","Info":"Глубина скважины 70 м.","LocationLat":55.5803,"LocationLng":37.1242},{"ID":189,"Name":"Кокошкино","Info":"Глубина скважины 70 м.","LocationLat":55.6019,"LocationLng":37.1741},{"ID":190,"Name":"Могутово","Info":"Глубина скважины 48 м.","LocationLat":55.3544,"LocationLng":36.8921},{"ID":191,"Name":"Настасьино","Info":"Глубина скважины 45 м.","LocationLat":55.5323,"LocationLng":37.1292},{"ID":192,"Name":"Шапкино","Info":"Глубина скважин 97,77 м.","LocationLat":55.3607,"LocationLng":36.5475},{"ID":193,"Name":"Авдотьино","Info":"Глубина скважин 63,102 м.","LocationLat":55.9249,"LocationLng":38.2348},{"ID":194,"Name":"Ивашево","Info":"Глубина скважины 102 м.","LocationLat":55.8051,"LocationLng":38.2945},{"ID":195,"Name":"Ельня","Info":"Глубина скважин 35, 40 м.","LocationLat":55.8434,"LocationLng":38.3382},{"ID":196,"Name":"Стулово","Info":"Глубина скважины 27, 41 - с/т Энергия","LocationLat":55.848,"LocationLng":38.3011},{"ID":197,"Name":"Пашуково","Info":"Глубина скважины 96, 37 м.","LocationLat":55.9079,"LocationLng":38.259},{"ID":198,"Name":"Пешково","Info":"Глубина скважины 35 м.","LocationLat":55.8542,"LocationLng":38.3996},{"ID":199,"Name":"Горки-10","Info":"Глубина скважин 80,103 м.","LocationLat":55.7055,"LocationLng":37.0223},{"ID":200,"Name":"Ершово","Info":"Глубина скважин 60,105 м.","LocationLat":55.7672,"LocationLng":36.8594},{"ID":201,"Name":"Жаворонки","Info":"Глубина скважины 92, 88, 110м.","LocationLat":55.6485,"LocationLng":37.0931},{"ID":202,"Name":"Клопово","Info":"Глубина скважин 103,60 м.","LocationLat":55.6947,"LocationLng":36.8511},{"ID":203,"Name":"Кезьмино","Info":"Глубина скважины 77, 82 м.","LocationLat":55.793,"LocationLng":36.912},{"ID":204,"Name":"Лесной Городок","Info":"Глубина скважины 94 м.","LocationLat":55.641,"LocationLng":37.2077},{"ID":205,"Name":"Малые Вяземы","Info":"Глубина скважин 80,105 м.","LocationLat":55.6326,"LocationLng":37.0222},{"ID":206,"Name":"Одинцово","Info":"Глубина скважины 98,119 м.","LocationLat":55.6705,"LocationLng":37.2708},{"ID":207,"Name":"Успенское","Info":"Глубина скважин 80,90, 127 м.","LocationLat":55.7151,"LocationLng":37.0705},{"ID":208,"Name":"Шульгино","Info":"Глубина скважины 87 м.","LocationLat":55.7244,"LocationLng":37.2947},{"ID":209,"Name":"Ямищево","Info":"Глубина скважины 85 м.","LocationLat":55.6185,"LocationLng":37.1442},{"ID":210,"Name":"Острово","Info":"Глубина скважины 39 м.","LocationLat":55.6813,"LocationLng":38.8712},{"ID":211,"Name":"Хотеичи","Info":"Глубина скважины 86 м.","LocationLat":55.5034,"LocationLng":38.7815},{"ID":212,"Name":"Назарьево","Info":"Глубина скважины 25, 23 м.","LocationLat":55.7506,"LocationLng":38.7776},{"ID":213,"Name":"Борисовка","Info":"Глубина скважины 64 м.","LocationLat":55.4791,"LocationLng":37.6032},{"ID":214,"Name":"Быковка","Info":"Глубина скважины 34,62 м.","LocationLat":55.4775,"LocationLng":37.6202},{"ID":215,"Name":"Вороново","Info":"Глубина скважин 40,50,70,61,65 м.","LocationLat":55.32,"LocationLng":37.1585},{"ID":216,"Name":"Кленово","Info":"Глубина скважин 65,35,43,42 м.","LocationLat":55.3224,"LocationLng":37.3571},{"ID":217,"Name":"Ерино","Info":"Глубина скважины 76 м.","LocationLat":55.4585,"LocationLng":37.5067},{"ID":218,"Name":"Новогромово","Info":"Глубина скважин 41, 50, 33,53, 62 м.","LocationLat":55.2742,"LocationLng":37.2344},{"ID":219,"Name":"Подольск","Info":"Глубина скважины 30,44,39,57,63,86 м.","LocationLat":55.4392,"LocationLng":37.545},{"ID":220,"Name":"Потапово","Info":"Глубина скважины 55,74 м.","LocationLat":55.5108,"LocationLng":37.674},{"ID":221,"Name":"Щербинка","Info":"Глубина скважины 25,75,90 м.","LocationLat":55.5049,"LocationLng":37.5507},{"ID":222,"Name":"Холопово","Info":"Глубина скважины 33 м.","LocationLat":55.4574,"LocationLng":37.6419},{"ID":223,"Name":"Бортнево","Info":"Глубина скважины 77 м.","LocationLat":56.1548,"LocationLng":37.8075},{"ID":224,"Name":"Братовщина","Info":"Глубина скважины 82,98,133, ул. Липки - 93 м.","LocationLat":56.0521,"LocationLng":37.878},{"ID":225,"Name":"Герасимиха","Info":"Глубина скважины на песок 30 м.,","LocationLat":56.2213,"LocationLng":37.7789},{"ID":226,"Name":"Красноармейск","Info":"Глубина скважины 47 м.","LocationLat":56.1098,"LocationLng":38.13},{"ID":227,"Name":"Степаньково","Info":"Глубина скважины 178,105 м.","LocationLat":56.0654,"LocationLng":37.8131},{"ID":228,"Name":"Лесные Поляны","Info":"Глубина скважины 55 м.","LocationLat":55.9597,"LocationLng":37.8656},{"ID":229,"Name":"Пушкино","Info":"Глубина скважины 82,43,49,67,70 м.","LocationLat":56.0159,"LocationLng":37.8542},{"ID":230,"Name":"Черкизово","Info":"Глубина скважины 61 м.","LocationLat":55.9623,"LocationLng":37.7938},{"ID":231,"Name":"Антоново","Info":"Глубина скважины 67, 24, 38, 24,35, 55 м.","LocationLat":55.5773,"LocationLng":38.579},{"ID":232,"Name":"Бояркино","Info":"Глубина скважины 70,65,84 м.","LocationLat":55.4571,"LocationLng":38.2985},{"ID":233,"Name":"Бронницы","Info":"Глубина скважин 60,42,45 м П \"Белаго\" - 65мБуровая компания ООО \"АкваБур\"","LocationLat":55.4195,"LocationLng":38.2509},{"ID":234,"Name":"Власово","Info":"Глубина скважины 90 м.","LocationLat":55.6743,"LocationLng":38.1627},{"ID":235,"Name":"Воскресенское","Info":"Глубина скважины 95 м.","LocationLat":55.4258,"LocationLng":38.058},{"ID":236,"Name":"Вялки","Info":"Глубина скважин 45, 85, 73, 95, 32,90,87,92 м.","LocationLat":55.6543,"LocationLng":38.091},{"ID":237,"Name":"Гжель","Info":"Глубина скважины 55,90 м.","LocationLat":55.6082,"LocationLng":38.3937},{"ID":238,"Name":"Дементьево","Info":"Глубина скважины 55 м.","LocationLat":55.6109,"LocationLng":38.2905},{"ID":239,"Name":"Жуково","Info":"Глубина скважины 70, 65,40 м.","LocationLat":55.506,"LocationLng":38.0158},{"ID":240,"Name":"Захарово","Info":"Глубина скважины 60,77 м.","LocationLat":55.4099,"LocationLng":38.3637},{"ID":241,"Name":"Зеленая Слобода","Info":"Глубина скважины 40 м.","LocationLat":55.5267,"LocationLng":37.9988},{"ID":242,"Name":"Ильинский","Info":"Глубина скважин: 80,84,81 м","LocationLat":55.6265,"LocationLng":38.1057},{"ID":243,"Name":"Кратово","Info":"Глубина скважин:","LocationLat":55.597,"LocationLng":38.1629},{"ID":244,"Name":"Кузнецово","Info":"Глубина скважин 50, 65, 62,80 м.","LocationLat":55.5009,"LocationLng":38.3387},{"ID":245,"Name":"Литвиново","Info":"Глубина скважин 66,62,59,73,60 м.","LocationLat":55.5396,"LocationLng":38.3191},{"ID":246,"Name":"Михнево","Info":"Глубина скважины 72 м.","LocationLat":55.62,"LocationLng":37.9997},{"ID":247,"Name":"Никитское","Info":"Глубина скважин 40, 60,63 м.","LocationLat":55.2996,"LocationLng":38.4626},{"ID":248,"Name":"Осеченки","Info":"Глубина скважин 60,95,75 м.","LocationLat":55.6565,"LocationLng":38.1058},{"ID":249,"Name":"Островцы","Info":"Глубина скважины 80,50,65 м., ул. Совхозная-60м","LocationLat":55.591,"LocationLng":37.9944},{"ID":250,"Name":"Полушкино","Info":"Глубина скважин 42,80,90 м., СНТ \"Юбилейное\" - 40 м.","LocationLat":55.6844,"LocationLng":38.0931},{"ID":251,"Name":"Речицы","Info":"Глубина скважины 80, 74 м.","LocationLat":55.5985,"LocationLng":38.4684},{"ID":252,"Name":"Родники","Info":"Глубина скважин 65, 73, 92, 89, 87,60,75,76 м. - СНТ Здоровье, 80, 85 м. - 300 лет флота","LocationLat":55.6503,"LocationLng":38.062},{"ID":253,"Name":"Салтыково","Info":"Глубина скважины 80,55,35,23 м.","LocationLat":55.3852,"LocationLng":38.1237},{"ID":254,"Name":"Синьково","Info":"Глубина скважин 62, 55,49,56,57,46,60, 58 м.","LocationLat":55.5104,"LocationLng":38.115},{"ID":255,"Name":"Толмачево","Info":"Глубина скважины 55,77 м.","LocationLat":55.3616,"LocationLng":38.224},{"ID":256,"Name":"Удельная","Info":"Глубина скважины 55,82 м.","LocationLat":55.635,"LocationLng":38.0419},{"ID":257,"Name":"Федино","Info":"Глубина скважины 42,47 м.","LocationLat":55.4161,"LocationLng":38.3104},{"ID":258,"Name":"Фенино","Info":"Глубина скважины 82 м.","LocationLat":55.5802,"LocationLng":38.4039},{"ID":259,"Name":"Хрипань","Info":"Глубина скважины 102, 85 (под ЛЭП) м.","LocationLat":55.6353,"LocationLng":38.1713},{"ID":260,"Name":"Шилово","Info":"Глубина скважины 75 м.","LocationLat":55.5282,"LocationLng":38.1355},{"ID":261,"Name":"Юрово","Info":"Глубина скважины 48,54,70,73,75 м.","LocationLat":55.5039,"LocationLng":38.3743},{"ID":262,"Name":"Тучково","Info":"Глубина скважины 40,50,60 м.","LocationLat":55.5981,"LocationLng":36.4632},{"ID":263,"Name":"Товарково","Info":"Глубина скважины 60 м.","LocationLat":55.6144,"LocationLng":36.1932},{"ID":264,"Name":"Хотебцово","Info":"Глубина скважины 58 м.","LocationLat":55.7765,"LocationLng":36.1804},{"ID":265,"Name":"Абрамцево","Info":"Глубина скважины 163, 150 м. (11-20 песок)","LocationLat":56.2179,"LocationLng":37.9666},{"ID":266,"Name":"Игнатьево","Info":"Глубина скважины 74 м.","LocationLat":56.4088,"LocationLng":38.2162},{"ID":267,"Name":"Лешково","Info":"Глубина скважин 128, 141,143м.","LocationLat":56.202,"LocationLng":38.078},{"ID":268,"Name":"Арнеево","Info":"Глубина скважины 40 м. (дебет 1,5 -2 Куб.)","LocationLat":54.9693,"LocationLng":37.5733},{"ID":269,"Name":"Ланьшино","Info":"Глубина скважины 48 м.","LocationLat":54.8427,"LocationLng":37.2919},{"ID":270,"Name":"Тульчино","Info":"Глубина скважин 53,67,68,69,73 м.","LocationLat":54.8341,"LocationLng":37.7075},{"ID":271,"Name":"Московка","Info":"Глубина скважины 18 м.","LocationLat":55.0094,"LocationLng":37.3912},{"ID":272,"Name":"Рыжиково","Info":"Глубина скважины 39 м.","LocationLat":55.0408,"LocationLng":37.4459},{"ID":273,"Name":"Подмоклово","Info":"Глубина скважины 66 м.","LocationLat":54.8638,"LocationLng":37.3426},{"ID":274,"Name":"Алексеевское","Info":"Глубина скважины 60 м.","LocationLat":56.0996,"LocationLng":36.9765},{"ID":275,"Name":"Бакеево","Info":"Глубина скважины 118 м.","LocationLat":55.9502,"LocationLng":37.0972},{"ID":276,"Name":"Солнечногорск","Info":"Глубина скважины 120,130, 160,143 м.","LocationLat":56.1852,"LocationLng":36.977},{"ID":277,"Name":"Соколово","Info":"Глубина скважины 129, 165 м.","LocationLat":56.0393,"LocationLng":36.9078},{"ID":278,"Name":"Рузино","Info":"Глубина скважины 85 м.","LocationLat":55.9453,"LocationLng":37.1879},{"ID":279,"Name":"Шахматово","Info":"Глубина скважины 169 м.","LocationLat":56.2377,"LocationLng":36.7372},{"ID":280,"Name":"Чашниково","Info":"Глубина скважины 87 м.","LocationLat":55.9879,"LocationLng":37.4086},{"ID":281,"Name":"Фирсановка","Info":"Глубина скважины 81, 82 м.","LocationLat":55.9527,"LocationLng":37.2443},{"ID":282,"Name":"Грызлово","Info":"Глубина скважины 27 м.","LocationLat":55.0218,"LocationLng":37.8228},{"ID":283,"Name":"Верзилово","Info":"Глубина скважины 42 м.","LocationLat":55.0241,"LocationLng":38.0896},{"ID":284,"Name":"Воскресенки","Info":"Глубина скважины 21 м.","LocationLat":54.9532,"LocationLng":38.0629},{"ID":285,"Name":"Михнево","Info":"Глубина скважин 44,35 м.","LocationLat":55.1188,"LocationLng":37.9583},{"ID":286,"Name":"Дубечино","Info":"Глубина скважины 25, 23 м.","LocationLat":55.0771,"LocationLng":37.7424},{"ID":287,"Name":"Жилево","Info":"Глубина скважины 25,36 м.","LocationLat":55.0142,"LocationLng":38.0117},{"ID":288,"Name":"Хомутово","Info":"Глубина скважины 41,42 м.","LocationLat":55.191,"LocationLng":38.2447},{"ID":289,"Name":"Большое Курапово","Info":"Глубина скважины 100 м.","LocationLat":56.8995,"LocationLng":37.592},{"ID":290,"Name":"Вербилки","Info":"Глубина скважины 105, 85,88,130,128,120,90,82,114 м.","LocationLat":56.5349,"LocationLng":37.5913},{"ID":291,"Name":"Петрино","Info":"Глубина скважины 98 м.","LocationLat":56.6086,"LocationLng":37.5739},{"ID":292,"Name":"Вашутино","Info":"Глубина скважины 66 м.","LocationLat":55.9262,"LocationLng":37.4303},{"ID":293,"Name":"Новогорск","Info":"Глубина скважины 79 м.","LocationLat":55.893,"LocationLng":37.3542},{"ID":294,"Name":"Терехово","Info":"Глубина скважины 105 м.","LocationLat":55.9302,"LocationLng":37.4826},{"ID":295,"Name":"Алексеевка","Info":"Глубина скважины 60,28,38 м.","LocationLat":55.2403,"LocationLng":37.2132},{"ID":296,"Name":"Васькино","Info":"Глубина скважин 41,25,5, 45,35,26(самоизлив) м.","LocationLat":55.1343,"LocationLng":37.5892},{"ID":297,"Name":"Крюково","Info":"Глубина скважин 56, 34 м.","LocationLat":55.096,"LocationLng":37.5441},{"ID":298,"Name":"Мещерское","Info":"Глубина скважин 39,25,40,45 м.","LocationLat":55.2799,"LocationLng":37.6335},{"ID":299,"Name":"Новоселки","Info":"Глубина скважин 60,70,50 м.","LocationLat":55.13,"LocationLng":37.5487},{"ID":300,"Name":"Новый Быт","Info":"Глубина скважин 21,23,53 м.","LocationLat":55.0611,"LocationLng":37.6048},{"ID":301,"Name":"Оксино","Info":"Глубина скважин 50 м.","LocationLat":55.1589,"LocationLng":37.5986},{"ID":302,"Name":"Растовка","Info":"Глубина скважины 53,25 м.","LocationLat":55.1178,"LocationLng":37.1511},{"ID":303,"Name":"Солнышково","Info":"Глубина скважин 30,40 м.","LocationLat":55.1205,"LocationLng":37.4864},{"ID":304,"Name":"Троицкое","Info":"Глубина скважин 26,32 м.","LocationLat":55.2457,"LocationLng":37.6286},{"ID":305,"Name":"Чепелево","Info":"Глубина скважин 35,39,40,41,42 м.","LocationLat":55.1823,"LocationLng":37.487},{"ID":306,"Name":"Чудиново","Info":"Глубина скважин 44,49 м.","LocationLat":55.1479,"LocationLng":37.5395},{"ID":307,"Name":"Чехов","Info":"Глубина скважины 32,60 м.","LocationLat":55.1494,"LocationLng":37.4543},{"ID":308,"Name":"Плешкино","Info":"Глубина скважины 12,57 м.","LocationLat":55.0336,"LocationLng":37.5831},{"ID":309,"Name":"Лобаново","Info":"Глубина скважины 90 м.","LocationLat":56.0431,"LocationLng":35.5401},{"ID":310,"Name":"Корпуса","Info":"Глубина скважины 43 м.","LocationLat":55.8763,"LocationLng":38.2342},{"ID":311,"Name":"Супонево","Info":"Глубина скважины 56,61 м.","LocationLat":55.8805,"LocationLng":37.9421},{"ID":312,"Name":"Соколово","Info":"Глубина скважины 54 м.","LocationLat":55.8565,"LocationLng":38.132},{"ID":313,"Name":"Свердловский","Info":"Глубина скважины 41,35 м.","LocationLat":55.9048,"LocationLng":38.1403},{"ID":314,"Name":"Монино","Info":"Глубина скважины 50 м.","LocationLat":55.8416,"LocationLng":38.1923},{"ID":315,"Name":"Моносеево","Info":"Глубина скважины 51,50 м.","LocationLat":55.8411,"LocationLng":38.1089},{"ID":316,"Name":"Райки","Info":"Глубина скважины 41,51,35 м.","LocationLat":55.9252,"LocationLng":38.1357},{"ID":317,"Name":"Ищеино","Info":"Глубина скважин 72,78 м.","LocationLat":55.0993,"LocationLng":36.1337},{"ID":318,"Name":"Бражниково","Info":"Глубина скважины 78 м.","LocationLat":55.8433,"LocationLng":35.8656},{"ID":319,"Name":"Звенигород","Info":"Глубина скважин 89,93,106,140 - на горе м. 46 - в низине","LocationLat":55.7239,"LocationLng":36.8556},{"ID":320,"Name":"Загорново","Info":"Глубина скважин 56,36 м. СНТ Золотая антилопа - 42","LocationLat":55.5334,"LocationLng":38.3252},{"ID":321,"Name":"Наро-Фоминск","Info":"Глубина скважины 57 м.","LocationLat":55.383,"LocationLng":36.7307},{"ID":322,"Name":"Малоярославец","Info":"Удино","LocationLat":55.0177,"LocationLng":36.4648},{"ID":323,"Name":"Бритово","Info":"Глубина скважины 49,85 м.","LocationLat":55.4779,"LocationLng":38.1521},{"ID":324,"Name":"Старая купавна","Info":"Глубина скважины 103 м.","LocationLat":55.8034,"LocationLng":38.1608},{"ID":325,"Name":"Хатунь","Info":"Глубина скважины 27 м.","LocationLat":55.0029,"LocationLng":37.8287},{"ID":326,"Name":"Хрипань","Info":"Глубина скважины 87,83,85,80,95,93,90,86 м.","LocationLat":55.6276,"LocationLng":38.1584},{"ID":327,"Name":"Пласкинино","Info":"Глубина скважины 55 м.","LocationLat":55.54,"LocationLng":38.4274},{"ID":328,"Name":"Птичное","Info":"Глубина скважин 50,53,60,68,58,65, 63,82 м.","LocationLat":55.5188,"LocationLng":37.2249},{"ID":329,"Name":"Цюрупы","Info":"Глубина скважин 57?55 м.","LocationLat":55.4906,"LocationLng":38.6603},{"ID":330,"Name":"Малино","Info":"Глубина скважин 53,40 м.","LocationLat":55.1084,"LocationLng":38.1778},{"ID":331,"Name":"Горки-8","Info":"Глубина скважины 110 м.","LocationLat":55.7042,"LocationLng":37.1522},{"ID":332,"Name":"Воскресенск","Info":"ул. Барышевская 33 м","LocationLat":55.317,"LocationLng":38.6726},{"ID":333,"Name":"Москва Шоссейная улица, 82с1","Info":"Глубина скважины 85 м.","LocationLat":55.6697,"LocationLng":37.7188},{"ID":334,"Name":"Сабурово","Info":"Глубина скважин 95,120, 115 м.","LocationLat":55.8797,"LocationLng":37.2658},{"ID":335,"Name":"Троицк","Info":"Глубина скважины 24 м.","LocationLat":55.4756,"LocationLng":37.297},{"ID":336,"Name":"Бортнево","Info":"Глубина скважин 28,26,32,35,25 м.","LocationLat":55.1375,"LocationLng":37.6398},{"ID":337,"Name":"Алексеевская","Info":"Глубина скважины 60 м.","LocationLat":55.4872,"LocationLng":38.8179},{"ID":338,"Name":"Подосинки","Info":"Глубина скважины 60,184 м.","LocationLat":56.2036,"LocationLng":37.5483},{"ID":339,"Name":"Никитское","Info":"Глубина скважины 31,62,65 м.","LocationLat":55.4085,"LocationLng":37.7382},{"ID":340,"Name":"Марфино","Info":"Глубина скважины 132 м.","LocationLat":55.7017,"LocationLng":37.3864},{"ID":341,"Name":"район Крылатское Москва","Info":"Глубина скважины 60 м.","LocationLat":55.761,"LocationLng":37.4151},{"ID":342,"Name":"Лукошкино","Info":"Глубина скважины 42 м.","LocationLat":55.3237,"LocationLng":37.2662},{"ID":343,"Name":"Константиновское","Info":"Глубина скважины 40 м.","LocationLat":55.159,"LocationLng":37.9656},{"ID":344,"Name":"Жуковка","Info":"Глубина скважины 78 м.","LocationLat":55.7382,"LocationLng":37.2532},{"ID":345,"Name":"Зеленково","Info":"Глубина скважины 75, 70 м.","LocationLat":55.8351,"LocationLng":37.0691},{"ID":346,"Name":"Становое","Info":"Глубина скважины 63 м.","LocationLat":55.5031,"LocationLng":38.1373},{"ID":347,"Name":"Воровского","Info":"Глубина скважины 60,61,66 м.","LocationLat":55.7324,"LocationLng":38.3057},{"ID":348,"Name":"Лобня","Info":"Глубина скважины 85,125 м.","LocationLat":56.0102,"LocationLng":37.4607},{"ID":349,"Name":"Киселиха","Info":"Глубина скважин 54,45,53,61 м.","LocationLat":55.4758,"LocationLng":37.798},{"ID":350,"Name":"Конобеево","Info":"Глубина скважины 75,80 м.","LocationLat":55.4071,"LocationLng":38.6643},{"ID":351,"Name":"Ступино","Info":"Глубина скважины 91 м.","LocationLat":54.8873,"LocationLng":38.0715},{"ID":352,"Name":"Поливаново","Info":"Глубина скважины 69,75 м.","LocationLat":55.3927,"LocationLng":37.62},{"ID":353,"Name":"Серебрянь","Info":"Глубина скважин 37,45,48,34,41 м.","LocationLat":54.2465,"LocationLng":38.8346},{"ID":354,"Name":"Электросталь","Info":"Глубина скважины 43,50,108 м.","LocationLat":55.791,"LocationLng":38.4419},{"ID":355,"Name":"Жеребятьево","Info":"Глубина скважины 46,47,55 м.","LocationLat":55.4659,"LocationLng":37.8413},{"ID":356,"Name":"Чехов Комсомольская улица","Info":"Глубина скважины 25 м.","LocationLat":55.1604,"LocationLng":37.4282},{"ID":357,"Name":"Судимля","Info":"Глубина скважины 16,15, 77 м.","LocationLat":54.971,"LocationLng":37.3853},{"ID":358,"Name":"Борисково","Info":"Глубина скважины 35 м.","LocationLat":55.1532,"LocationLng":36.9421},{"ID":359,"Name":"Горки","Info":"Глубина скважины 60 м.","LocationLat":55.5082,"LocationLng":37.7564},{"ID":360,"Name":"Надежда","Info":"Глубина скважины 21 м.","LocationLat":55.065,"LocationLng":37.5381},{"ID":361,"Name":"Зеленоград","Info":"Глубина скважины 132 м.","LocationLat":55.9807,"LocationLng":37.175},{"ID":362,"Name":"Пестово","Info":"Глубина скважины 35 м.","LocationLat":55.3608,"LocationLng":37.9864},{"ID":363,"Name":"Сутоки","Info":"Глубина скважины 70 м.","LocationLat":55.9536,"LocationLng":35.4503},{"ID":364,"Name":"Ивантеевка","Info":"Глубина скважины 70,43 м.","LocationLat":55.9697,"LocationLng":37.9117},{"ID":365,"Name":"Беливо","Info":"Глубина скважины на песок 15 м.","LocationLat":55.6273,"LocationLng":39.0113},{"ID":366,"Name":"Березниково","Info":"Глубина скважины 51 м.","LocationLat":56.1545,"LocationLng":36.2801},{"ID":367,"Name":"Мещерино","Info":"Глубина скважины 66 м.","LocationLat":55.197,"LocationLng":38.3599},{"ID":368,"Name":"Новый Милет","Info":"Глубина скважин 18,29 м.","LocationLat":55.7081,"LocationLng":38.0565},{"ID":369,"Name":"Старая Руза","Info":"Глубина скважины 61, 65 м.","LocationLat":55.6448,"LocationLng":36.3299},{"ID":370,"Name":"Середниково","Info":"Глубина скважины 52,70 м.","LocationLat":55.8307,"LocationLng":35.8264},{"ID":371,"Name":"Русавкино-Романово","Info":"Глубина скважин 20,25,29,32,42,72,46,27 м., ул. Лучевая-34м","LocationLat":55.7035,"LocationLng":38.0428},{"ID":372,"Name":"Черное","Info":"Глубина скважин 41,38 м.","LocationLat":55.7544,"LocationLng":38.0695},{"ID":373,"Name":"СНТ Малиновка-1","Info":"Глубина скважины 27 м.","LocationLat":55.7142,"LocationLng":38.1427},{"ID":374,"Name":"Столбищево","Info":"Глубина скважины 49 м.","LocationLat":55.2751,"LocationLng":37.7071},{"ID":375,"Name":"Натальино (СНТ вишневый сад)","Info":"Глубина скважин 39,38,15,41 м., СНТ \"Победа\" - 29м","LocationLat":55.3202,"LocationLng":38.3152},{"ID":376,"Name":"Мишутино","Info":"Глубина скважины  255 м. (37 м. песок)","LocationLat":56.386,"LocationLng":38.125},{"ID":377,"Name":"Чулково Клаб","Info":"Глубина скважины 85 м.","LocationLat":55.5553,"LocationLng":38.0483},{"ID":378,"Name":"Пестовка","Info":"Глубина скважины 27 м.","LocationLat":55.3022,"LocationLng":38.1093},{"ID":379,"Name":"Гостилово","Info":"Глубина скважины 64,66 м.","LocationLat":55.3005,"LocationLng":38.6113},{"ID":380,"Name":"Исаково","Info":"Глубина скважины 38, 57 м.","LocationLat":55.4199,"LocationLng":38.578},{"ID":381,"Name":"Петровское","Info":"Глубина скважины 33 м.","LocationLat":55.4674,"LocationLng":38.0879},{"ID":382,"Name":"Софьино","Info":"Глубина скважины 61,21 м., КП \"Высокий Берег\"-45м","LocationLat":55.4991,"LocationLng":38.1761},{"ID":383,"Name":"Прохорово","Info":"Глубина скважины 52,35 м.","LocationLat":55.3001,"LocationLng":37.6412},{"ID":384,"Name":"СНТ Шарапова Охота","Info":"Глубина скважины 31 м.","LocationLat":55.0309,"LocationLng":37.5711},{"ID":385,"Name":"Ясенок","Info":"Глубина скважины 127 м.","LocationLat":53.8217,"LocationLng":40.379},{"ID":386,"Name":"Родионовка","Info":"Глубина скважины 39,49 м.","LocationLat":55.0266,"LocationLng":37.4279},{"ID":387,"Name":"Бисерово","Info":"Глубина скважины 72,48 м.","LocationLat":55.5129,"LocationLng":38.4331},{"ID":388,"Name":"Барвиха","Info":"Глубина скважины 108 м.","LocationLat":55.7252,"LocationLng":37.2809},{"ID":389,"Name":"Заворово","Info":"Глубина скважин 47, 32,33,41м.","LocationLat":55.3441,"LocationLng":38.2292},{"ID":390,"Name":"МКР Керва (СНТ Строитель)","Info":"Глубина скважины 90 м.","LocationLat":55.5994,"LocationLng":39.5939},{"ID":391,"Name":"СНТ \\\"Каштан\\\"","Info":"Глубина скважины 81 м.","LocationLat":55.5625,"LocationLng":38.9085},{"ID":392,"Name":"Захарково","Info":"Глубина скважин 55,60 м.","LocationLat":55.7805,"LocationLng":37.3203},{"ID":393,"Name":"Евсеево","Info":"Глубина скважины 30,35,42 м.","LocationLat":55.7542,"LocationLng":38.7082},{"ID":394,"Name":"СНТ Ясная Поляна","Info":"Глубина скважин 65, 92 м.","LocationLat":55.6924,"LocationLng":38.0718},{"ID":395,"Name":"Мирный","Info":"Глубина скважины 54 м.","LocationLat":55.6228,"LocationLng":37.9504},{"ID":396,"Name":"Шелково","Info":"Глубина скважины 32 м.","LocationLat":55.0663,"LocationLng":37.7199},{"ID":397,"Name":"Петровское","Info":"Глубина скважины 31,5, 73 м.","LocationLat":55.0234,"LocationLng":37.4562},{"ID":398,"Name":"Павловка","Info":"Глубина скважины 36 м.","LocationLat":54.9231,"LocationLng":37.1755},{"ID":399,"Name":"СНТ Маврино","Info":"Глубина скважины 37 м.","LocationLat":55.2761,"LocationLng":37.2697},{"ID":400,"Name":"Елизаветино","Info":"Глубина скважины 169 м.","LocationLat":56.3168,"LocationLng":37.4673},{"ID":401,"Name":"Пучково","Info":"Глубина скважины 42,43 м.","LocationLat":55.4866,"LocationLng":37.2637},{"ID":402,"Name":"Барсуки","Info":"Глубина скважины 27 м.","LocationLat":55.0579,"LocationLng":36.9652},{"ID":403,"Name":"Пушкарка","Info":"Глубина скважины 57 м.","LocationLat":55.4223,"LocationLng":36.1276},{"ID":404,"Name":"Захарово","Info":"Глубина скважины 77 м., ул. Лесная - 80м","LocationLat":55.6565,"LocationLng":38.3121},{"ID":405,"Name":"Быково","Info":"Глубина скважин 80,57,73,83,90,93","LocationLat":55.6307,"LocationLng":38.0691},{"ID":406,"Name":"Клетино","Info":"Глубина скважин 80, 85 м.","LocationLat":55.0009,"LocationLng":41.2038},{"ID":407,"Name":"Беседы","Info":"Глубина скважины 82 м.","LocationLat":55.6128,"LocationLng":37.7888},{"ID":408,"Name":"Казарь","Info":"Глубина скважины 93 м.","LocationLat":54.5685,"LocationLng":40.0902},{"ID":409,"Name":"Сергеевка","Info":"Глубина скважины 105 м.","LocationLat":54.543,"LocationLng":39.5235},{"ID":410,"Name":"Ложки","Info":"Глубина скважины 130 м.","LocationLat":56.0942,"LocationLng":37.1103},{"ID":411,"Name":"Юсупово","Info":"Глубина скважины 54 м.","LocationLat":55.3955,"LocationLng":37.7071},{"ID":412,"Name":"Речицы","Info":"Глубина скважины 46 м.","LocationLat":54.9091,"LocationLng":38.4029},{"ID":413,"Name":"СНТ Пахра","Info":"Глубина скважины 30 м.","LocationLat":55.4755,"LocationLng":37.7882},{"ID":414,"Name":"Овчагино","Info":"Глубина скважины 74 м.","LocationLat":55.4017,"LocationLng":39.1567},{"ID":415,"Name":"Столбищево","Info":"Глубина скважины 49 м.","LocationLat":55.2751,"LocationLng":37.7071},{"ID":416,"Name":"Пущино","Info":"Глубина скважины 69 м.","LocationLat":54.9408,"LocationLng":37.3522},{"ID":417,"Name":"Малые Решники","Info":"Глубина скважины 38 м.","LocationLat":55.6664,"LocationLng":35.6298},{"ID":418,"Name":"Квасьево","Info":"Глубина скважины 47 м.","LocationLat":54.9025,"LocationLng":41.7544},{"ID":419,"Name":"Сеитово","Info":"Глубина скважины 83 м.","LocationLat":54.7653,"LocationLng":41.5566},{"ID":420,"Name":"Поздняково","Info":"Глубина скважины 87 м.","LocationLat":54.8197,"LocationLng":41.4589},{"ID":421,"Name":"Ярыгино","Info":"Глубина скважины 42 м.","LocationLat":55.0519,"LocationLng":41.3072},{"ID":422,"Name":"Даньково","Info":"Глубина скважины 90 м.","LocationLat":55.0345,"LocationLng":41.258},{"ID":423,"Name":"Балушево-Починки","Info":"Глубина скважины 70 м.","LocationLat":54.7676,"LocationLng":41.6229},{"ID":424,"Name":"Захарово","Info":"Глубина скважины 77,80 м.","LocationLat":55.6565,"LocationLng":38.3121},{"ID":425,"Name":"Сиверка","Info":"Глубина скважины 48 м.","LocationLat":54.7093,"LocationLng":41.3844},{"ID":426,"Name":"Щербатовка","Info":"Глубина скважины 80 м.","LocationLat":54.8093,"LocationLng":41.753},{"ID":427,"Name":"Забелино","Info":"Глубина скважины 63,60 м.","LocationLat":54.9932,"LocationLng":41.1528},{"ID":428,"Name":"Шегошаново","Info":"Глубина скважины 85 м.","LocationLat":54.9084,"LocationLng":41.543},{"ID":429,"Name":"Белясево","Info":"Глубина скважины 37 м.","LocationLat":55.0741,"LocationLng":41.094},{"ID":430,"Name":"Мимишкино","Info":"Глубина скважины 25 м.","LocationLat":55.0674,"LocationLng":41.295},{"ID":431,"Name":"Поляны","Info":"Глубина скважины 79 м.","LocationLat":54.9456,"LocationLng":41.4902},{"ID":432,"Name":"Захарово","Info":"Глубина скважины 52 м.","LocationLat":54.3685,"LocationLng":39.2802},{"ID":433,"Name":"Толстые","Info":"Глубина скважины 80 м.","LocationLat":54.4813,"LocationLng":38.5433},{"ID":434,"Name":"Дягилево","Info":"Глубина скважины 115 м.","LocationLat":54.6616,"LocationLng":39.5825},{"ID":435,"Name":"Грязное","Info":"Глубина скважины 120 м.","LocationLat":54.0412,"LocationLng":39.1134},{"ID":436,"Name":"Городище","Info":"Глубина скважины 51 м.","LocationLat":55.5335,"LocationLng":37.4346},{"ID":437,"Name":"Большое Еськино","Info":"Глубина скважины 87 м.","LocationLat":54.7975,"LocationLng":38.9802},{"ID":438,"Name":"Обухово","Info":"Глубина скважин 31, 8-9 песок обводненный","LocationLat":55.8297,"LocationLng":38.283},{"ID":439,"Name":"Малышево","Info":"Глубина скважины 45 м.","LocationLat":55.3697,"LocationLng":38.146},{"ID":440,"Name":"Игумново","Info":"Глубина скважины 94 м.","LocationLat":55.6206,"LocationLng":38.3037},{"ID":441,"Name":"Холуденево","Info":"Глубина скважины 45 м.","LocationLat":55.4594,"LocationLng":38.188},{"ID":442,"Name":"Томилино","Info":"Глубина скважины 80 м.","LocationLat":55.6446,"LocationLng":37.9369},{"ID":443,"Name":"Староходыкино","Info":"Глубина скважины 80 м.","LocationLat":54.9434,"LocationLng":38.8595},{"ID":444,"Name":"Верхние Велеми","Info":"Глубина скважины 39 м.","LocationLat":55.0433,"LocationLng":37.3619},{"ID":445,"Name":"Чеховский район СНТ \\\"Луч\\\"","Info":"Глубина скважины 45 м.","LocationLat":55.1421,"LocationLng":37.4627},{"ID":446,"Name":"Завидовка","Info":"Глубина скважины 73 м.","LocationLat":54.2649,"LocationLng":38.8152},{"ID":447,"Name":"Кобелево","Info":"Глубина скважин на песок 15,18 м.","LocationLat":55.6382,"LocationLng":39.5006},{"ID":448,"Name":"Ивашково","Info":"Глубина скважины 60 м.","LocationLat":56.2219,"LocationLng":35.3564},{"ID":449,"Name":"станция Купавна СНТ Строитель","Info":"Глубина скважины 45 м.","LocationLat":55.7533,"LocationLng":38.1204},{"ID":450,"Name":"Северное шоссе","Info":"Глубина скважины 73 м.","LocationLat":56.0452,"LocationLng":35.9675},{"ID":451,"Name":"Глазово","Info":"Глубина скважины 65 м.","LocationLat":55.8047,"LocationLng":35.9232},{"ID":452,"Name":"Новопавловское","Info":"Глубина скважины 130 м.","LocationLat":55.9404,"LocationLng":36.1506},{"ID":453,"Name":"Курово","Info":"Глубина скважины 151,176 м.","LocationLat":56.2736,"LocationLng":37.5569},{"ID":454,"Name":"Лишенино","Info":"Глубина скважины 175 м.","LocationLat":56.3585,"LocationLng":37.2712},{"ID":455,"Name":"Сазонки","Info":"Глубина скважины 165 м.","LocationLat":56.2037,"LocationLng":37.6186},{"ID":456,"Name":"Михеево","Info":"Глубина скважины 48 м.","LocationLat":55.349,"LocationLng":37.8437},{"ID":457,"Name":"микрорайон Белые Столбы","Info":"Глубина скважины 55,53,35 м.","LocationLat":55.3304,"LocationLng":37.8479},{"ID":458,"Name":"Борисково","Info":"Глубина скважины 97 м.","LocationLat":55.8394,"LocationLng":36.9589},{"ID":459,"Name":"Борки","Info":"Глубина скважины 88 м.","LocationLat":55.8367,"LocationLng":36.9413},{"ID":460,"Name":"Бужарово","Info":"Глубина скважины 108, 140 м.","LocationLat":55.9842,"LocationLng":36.7936},{"ID":461,"Name":"Воронино","Info":"Глубина скважины 97 м.","LocationLat":55.7971,"LocationLng":36.9908},{"ID":462,"Name":"Ивановское","Info":"Глубина скважины 103,79 м.","LocationLat":55.7893,"LocationLng":37.1006},{"ID":463,"Name":"Котово","Info":"Глубина скважины 120 м.","LocationLat":55.8658,"LocationLng":36.7712},{"ID":464,"Name":"Лечищево","Info":"Глубина скважины 122 м.","LocationLat":56.05,"LocationLng":36.817},{"ID":465,"Name":"Максимовка","Info":"Глубина скважины 116 м.","LocationLat":55.9615,"LocationLng":36.8497},{"ID":466,"Name":"Манихино","Info":"Глубина скважины 120,90 м.","LocationLat":55.8767,"LocationLng":36.9684},{"ID":467,"Name":"Рождествено","Info":"Глубина скважины 148 м.","LocationLat":55.8541,"LocationLng":37.0538},{"ID":468,"Name":"Чудцево","Info":"Глубина скважины 176 м.","LocationLat":56.056,"LocationLng":36.5307},{"ID":469,"Name":"Огниково","Info":"Глубина скважины 111,140 м.","LocationLat":56.0053,"LocationLng":36.9163},{"ID":470,"Name":"станция Новоиерусалимская","Info":"Глубина скважины 90 м.","LocationLat":55.9116,"LocationLng":36.8226},{"ID":471,"Name":"Полушкино","Info":"Глубина скважин 25,35 м., СНТ \"Солнечный Луч\" - 24м","LocationLat":55.1291,"LocationLng":37.7742},{"ID":472,"Name":"Масюгино","Info":"Глубина скважины 78 м.","LocationLat":56.3373,"LocationLng":36.5674},{"ID":473,"Name":"Поздняково","Info":"Глубина скважины 107, 80 м.","LocationLat":55.7897,"LocationLng":37.2155},{"ID":474,"Name":"Коробово","Info":"Глубина скважин 84 м.","LocationLat":55.5337,"LocationLng":37.8213},{"ID":475,"Name":"Ст. Истья - 2","Info":"Глубина скважины 90 м.","LocationLat":55.1526,"LocationLng":36.7917},{"ID":476,"Name":"Воробьи","Info":"Глубина скважины 63, 48 м.","LocationLat":55.1471,"LocationLng":36.8021},{"ID":477,"Name":"Стромынь","Info":"Глубина скважины 78, 76 м.","LocationLat":56.0422,"LocationLng":38.4818},{"ID":478,"Name":"СНТ Хуторок","Info":"Глубина скважины 60 м.","LocationLat":55.5746,"LocationLng":38.5383},{"ID":479,"Name":"Карпово","Info":"Глубина скважины 32 м.","LocationLat":55.5795,"LocationLng":38.5598},{"ID":480,"Name":"Игнатьево","Info":"Глубина скважины 35 м.","LocationLat":55.5991,"LocationLng":38.5129},{"ID":481,"Name":"Володино","Info":"Глубина скважины 20 м.","LocationLat":55.5962,"LocationLng":38.5008},{"ID":482,"Name":"Сафонтьево","Info":"Глубина скважины - 100, 107 м.","LocationLat":55.9773,"LocationLng":36.831},{"ID":483,"Name":"Шарапова Охота","Info":"Глубина скважины 38,40,47,105 м.","LocationLat":55.0369,"LocationLng":37.4768},{"ID":484,"Name":"платформа Никольское","Info":"Глубина скважины 82 м.","LocationLat":55.7599,"LocationLng":37.8977},{"ID":485,"Name":"Бурцево","Info":"Глубина скважины 120м -сильно окремненный известняк.","LocationLat":54.7278,"LocationLng":38.3398},{"ID":486,"Name":"Ожерелье","Info":"Глубина скважины 70,40 м.","LocationLat":54.7847,"LocationLng":38.2718},{"ID":487,"Name":"Яковское","Info":"Глубина скважины 84 м.","LocationLat":54.7484,"LocationLng":38.2674},{"ID":488,"Name":"Иваньково","Info":"Глубина скважины 110 м.","LocationLat":54.7398,"LocationLng":37.9385},{"ID":489,"Name":"Старая Ситня","Info":"Глубина скважины 43 м.","LocationLat":54.9469,"LocationLng":38.1419},{"ID":490,"Name":"Купавна","Info":"Глубина скважины 33 м.","LocationLat":55.7536,"LocationLng":38.1293},{"ID":491,"Name":"Темниково","Info":"Глубина скважин 42,43 м.","LocationLat":55.7216,"LocationLng":38.0127},{"ID":492,"Name":"Кузьмино-Фильчаково","Info":"Глубина скважин 20 м.","LocationLat":55.128,"LocationLng":37.5086},{"ID":493,"Name":"Ожигово","Info":"Глубина скважины 60 м.","LocationLat":55.4609,"LocationLng":36.8848},{"ID":494,"Name":"Старая купавна","Info":"Глубина скважины 40, 60 м.","LocationLat":55.8042,"LocationLng":38.1827},{"ID":495,"Name":"Бисерово","Info":"Глубина скважины 40, 45, 47 м.","LocationLat":55.7758,"LocationLng":38.1083},{"ID":496,"Name":"Новая Купавна","Info":"Глубина скважины 30, 40 м.","LocationLat":55.8122,"LocationLng":38.1086},{"ID":497,"Name":"Шульгино","Info":"Глубина скважины 87 м.","LocationLat":55.8041,"LocationLng":38.2262},{"ID":498,"Name":"Колонтаево","Info":"Глубина скважины 30,35,48, 23,24,25,59 м., ДНП \"Прилесье\" - 32 м","LocationLat":55.7899,"LocationLng":38.2602},{"ID":499,"Name":"Зеленый","Info":"Глубина скважины 40, 45 м.","LocationLat":55.8094,"LocationLng":38.0966},{"ID":500,"Name":"Вишняковские Дачи","Info":"Глубина скважины 37, 53 м.","LocationLat":55.7519,"LocationLng":38.15},{"ID":501,"Name":"Луч","Info":"Глубина скважины 40 м.","LocationLat":55.0946,"LocationLng":37.4881},{"ID":502,"Name":"Репниково","Info":"Глубина скважин 41,28 м.","LocationLat":55.1861,"LocationLng":37.4557},{"ID":503,"Name":"Алачково","Info":"Глубина скважин 40,60 м.","LocationLat":55.2063,"LocationLng":37.5678},{"ID":504,"Name":"Томарово","Info":"Глубина скважины 41 м.","LocationLat":55.2659,"LocationLng":37.6115},{"ID":505,"Name":"Зыкеево","Info":"Глубина скважины 34, 40 м.","LocationLat":55.2586,"LocationLng":37.6045},{"ID":506,"Name":"Степыгино","Info":"Глубина скважины 41,46 м.","LocationLat":55.2096,"LocationLng":37.7143},{"ID":507,"Name":"Повадино","Info":"Глубина скважины 38 м.","LocationLat":55.1923,"LocationLng":37.7404},{"ID":508,"Name":"Кравцово","Info":"Глубина скважины 40 м.","LocationLat":55.0542,"LocationLng":37.8078},{"ID":509,"Name":"Буланино","Info":"Глубина скважины 130 м.","LocationLat":55.9272,"LocationLng":36.4396},{"ID":510,"Name":"Тополиный","Info":"Глубина скважины 49 м.","LocationLat":55.7867,"LocationLng":39.0554},{"ID":511,"Name":"Снопок Новый","Info":"Глубина скважин 30,40,60, 71 м., СНТ \"Юбилейное\"-23м","LocationLat":55.7722,"LocationLng":39.1597},{"ID":512,"Name":"Тополиный","Info":"Глубина скважин 50,40 м.","LocationLat":55.7867,"LocationLng":39.0554},{"ID":513,"Name":"Тельвяково","Info":"Глубина скважины 82 м.","LocationLat":56.1061,"LocationLng":39.0195},{"ID":514,"Name":"Полутино","Info":"Глубина скважины 86 м.","LocationLat":56.1032,"LocationLng":38.9387},{"ID":515,"Name":"Ефаново","Info":"Глубина скважин 93 м.","LocationLat":56.1624,"LocationLng":38.9312},{"ID":516,"Name":"Кольчугино","Info":"Глубина скважин 190 м.","LocationLat":56.3025,"LocationLng":39.366},{"ID":517,"Name":"Степановское","Info":"Глубина скважины 42 м.","LocationLat":55.2969,"LocationLng":38.4213},{"ID":518,"Name":"Бубново","Info":"Глубина скважины 30,42 м.                                    СНТ \"Чистые Пруды\" - 40 м                                    Буровая компания ООО \"АкваБур\"","LocationLat":55.3172,"LocationLng":38.5038},{"ID":519,"Name":"Костино","Info":"Глубина скважины 42 м.","LocationLat":55.3245,"LocationLng":38.4784},{"ID":520,"Name":"Фоминское","Info":"Глубина скважины 34,70 м.","LocationLat":55.2685,"LocationLng":38.4641},{"ID":521,"Name":"Булгаково","Info":"Глубина скважины 40 м.","LocationLat":55.2474,"LocationLng":38.4206},{"ID":522,"Name":"Новотроицкое","Info":"Глубина скважины 36 м.","LocationLat":55.2738,"LocationLng":38.4975},{"ID":523,"Name":"Максимовка","Info":"Глубина скважины 33 м.","LocationLat":55.2801,"LocationLng":38.5203},{"ID":524,"Name":"Поддубье","Info":"Глубина скважины 25 м.","LocationLat":55.3237,"LocationLng":38.4321},{"ID":525,"Name":"Першино","Info":"Глубина скважин 37,56,60,74 м.                          КП \"Поречье\" - 45м","LocationLat":55.3401,"LocationLng":38.403},{"ID":526,"Name":"Устиновка","Info":"Глубина скважины 70,109, 105 м.","LocationLat":55.665,"LocationLng":38.1398},{"ID":527,"Name":"Капустино","Info":"Глубина скважины 45, 51 м.","LocationLat":55.6557,"LocationLng":38.1291},{"ID":528,"Name":"Шмеленки","Info":"Глубина скважины 97,81 м.","LocationLat":55.6452,"LocationLng":38.149},{"ID":529,"Name":"Власово","Info":"Глубина скважины 35 м.","LocationLat":55.6704,"LocationLng":38.1576},{"ID":530,"Name":"Строкино","Info":"Глубина скважин 35, 80 м. (28-34 кремень),50 м.","LocationLat":55.6754,"LocationLng":38.1846},{"ID":531,"Name":"Донино","Info":"Глубина скважины 115 м.","LocationLat":55.6353,"LocationLng":38.3171},{"ID":532,"Name":"Фенино","Info":"Глубина скважины 25 м.","LocationLat":55.0165,"LocationLng":37.4796},{"ID":533,"Name":"Глазово","Info":"Глубина скважин 50,55 м.","LocationLat":54.9504,"LocationLng":37.3656},{"ID":534,"Name":"Гавшино","Info":"Глубина скважины 35 м.","LocationLat":54.9564,"LocationLng":37.337},{"ID":535,"Name":"Вашутино","Info":"Глубина скважин 70,80,54 м.","LocationLat":55.1527,"LocationLng":36.5531},{"ID":536,"Name":"Добрино","Info":"Глубина скважины 45 м.","LocationLat":55.2303,"LocationLng":36.7033},{"ID":537,"Name":"Ворсино","Info":"Глубина скважины 55 м.","LocationLat":55.2308,"LocationLng":36.6604},{"ID":538,"Name":"Толмачевка","Info":"Глубина скважины 57 м.","LocationLat":54.1963,"LocationLng":38.7211},{"ID":539,"Name":"Белая","Info":"Глубина скважины 28 м.","LocationLat":55.7502,"LocationLng":38.2023},{"ID":540,"Name":"Кудиново","Info":"Глубина скважин: 28,51,56,48,82,39, 74,31, 54 м.","LocationLat":55.7631,"LocationLng":38.2207},{"ID":541,"Name":"Тимохово","Info":"Глубина скважины 50, 55, 61, 107, 66 м.","LocationLat":55.7743,"LocationLng":38.2807},{"ID":542,"Name":"Алексеевка","Info":"Глубина скважин 39,56 м.","LocationLat":55.7867,"LocationLng":38.3138},{"ID":543,"Name":"Есино","Info":"Глубина скважины 45,49 м.","LocationLat":55.7157,"LocationLng":38.3743},{"ID":544,"Name":"Иванисово","Info":"Глубина скважины 35, 37 м.","LocationLat":55.7423,"LocationLng":38.4612},{"ID":545,"Name":"Фрязево","Info":"Глубина скважины 70 м.","LocationLat":55.734,"LocationLng":38.4681},{"ID":546,"Name":"Игнатово","Info":"Глубина скважины 30 м.","LocationLat":55.7398,"LocationLng":38.5874},{"ID":547,"Name":"Ищеино","Info":"Глубина скважин 67,69,72,78 м.","LocationLat":55.0993,"LocationLng":36.1337},{"ID":548,"Name":"Верховье","Info":"Глубина скважин 34?40 м.","LocationLat":55.0767,"LocationLng":36.6816},{"ID":549,"Name":"Нефедьево","Info":"Глубина скважины 28,40,49 м.","LocationLat":55.1759,"LocationLng":38.1797},{"ID":550,"Name":"Щапово","Info":"Глубина скважины 45,51,63 м.","LocationLat":55.1625,"LocationLng":38.1867},{"ID":551,"Name":"Новожилово","Info":"Глубина скважины 165 м.","LocationLat":56.2426,"LocationLng":38.4869},{"ID":552,"Name":"Балашиха","Info":"Глубина скважин 35,40 м.","LocationLat":55.801,"LocationLng":37.9817},{"ID":553,"Name":"Марково","Info":"Глубина скважины 47 м, СНТ Бережок-2 - 51  м., СНТ \"Зеленая Опушка\" - 47,51 м,","LocationLat":55.4587,"LocationLng":38.2338},{"ID":554,"Name":"Поддубье","Info":"Глубина скважины 40,42,46 м.","LocationLat":55.3237,"LocationLng":38.4321},{"ID":555,"Name":"Фенино","Info":"Глубина скважины 25,27 м.","LocationLat":55.0165,"LocationLng":37.4796},{"ID":556,"Name":"Рыльково","Info":"Глубина скважины 87 м.","LocationLat":55.4924,"LocationLng":36.0812},{"ID":557,"Name":"Богатищево","Info":"Глубина скважины 50 м.","LocationLat":54.6817,"LocationLng":38.5255},{"ID":558,"Name":"Степаново","Info":"лубина скважины 40 м.","LocationLat":55.7218,"LocationLng":38.4591},{"ID":559,"Name":"Потаповское","Info":"Глубина скважины 80,95,99 м.","LocationLat":55.3904,"LocationLng":38.7969},{"ID":560,"Name":"Княжое","Info":"Глубина скважины 75,98,100 м.","LocationLat":53.8936,"LocationLng":40.175},{"ID":561,"Name":"Морозовы-Борки","Info":"Глубина скважины 74 м.","LocationLat":53.9595,"LocationLng":40.909},{"ID":562,"Name":"Богатищево","Info":"Глубина скважины 50,150 м.","LocationLat":54.6817,"LocationLng":38.5255},{"ID":563,"Name":"Сорокино","Info":"Глубина скважины 97 м.","LocationLat":56.6582,"LocationLng":37.6181},{"ID":564,"Name":"Дубки","Info":"Глубина скважины 105 м.","LocationLat":56.5906,"LocationLng":37.6179},{"ID":565,"Name":"Железнодорожный","Info":"Глубина скважины 60 м.","LocationLat":55.7443,"LocationLng":38.0159},{"ID":566,"Name":"Сенино","Info":"Глубина скважины 50 м.","LocationLat":55.0859,"LocationLng":37.3888},{"ID":567,"Name":"Светлый","Info":"Глубина скважины 30 м.","LocationLat":55.7438,"LocationLng":38.1494},{"ID":568,"Name":"Жиливо","Info":"Глубина скважины 36 м.","LocationLat":54.9311,"LocationLng":38.7228},{"ID":569,"Name":"Глазово","Info":"Глубина скважины 21 м.","LocationLat":54.9504,"LocationLng":37.3656},{"ID":570,"Name":"Верхняя Вязовня","Info":"Глубина скважины 25 м.","LocationLat":54.9026,"LocationLng":37.019},{"ID":571,"Name":"Стегачево","Info":"Глубина скважины 120 м.","LocationLat":56.1402,"LocationLng":36.8914},{"ID":572,"Name":"Лопотово","Info":"Глубина скважин 120,119,140 м.","LocationLat":56.0643,"LocationLng":36.8568},{"ID":573,"Name":"Клишева","Info":"Глубина скважин 50,61,65,76 м.","LocationLat":55.5491,"LocationLng":38.2454},{"ID":574,"Name":"Коренево","Info":"Глубина скважины 42,45 м.","LocationLat":55.673,"LocationLng":37.9999},{"ID":575,"Name":"Трегубово","Info":"Глубина скважины 36 м.","LocationLat":54.9115,"LocationLng":38.7382},{"ID":576,"Name":"Еганово","Info":"Глубина скважин 52, 61,74 м.","LocationLat":55.5342,"LocationLng":38.0294},{"ID":577,"Name":"Кулаково","Info":"Глубина скважины 43 м.","LocationLat":55.5636,"LocationLng":38.0606},{"ID":578,"Name":"Кривцы","Info":"Глубина скважины 35 м.","LocationLat":55.4631,"LocationLng":38.1986},{"ID":579,"Name":"Дьяково","Info":"Глубина скважины 30,35 м.","LocationLat":55.438,"LocationLng":38.1627},{"ID":580,"Name":"Кочина Гора","Info":"Глубина скважины 30,35 м.","LocationLat":55.4123,"LocationLng":38.17},{"ID":581,"Name":"Пушкино","Info":"Глубина скважины 47 м.","LocationLat":55.4054,"LocationLng":38.1985},{"ID":582,"Name":"Панино","Info":"Глубина скважин 35,55, 37,48 м.","LocationLat":55.3886,"LocationLng":38.185},{"ID":583,"Name":"Ильинское","Info":"Глубина скважины 70 м.","LocationLat":55.4392,"LocationLng":38.0835},{"ID":584,"Name":"Ольгово","Info":"Глубина скважины 145,190 м.","LocationLat":56.2703,"LocationLng":37.3411},{"ID":585,"Name":"Курово","Info":"Глубина скважины 60 м.","LocationLat":55.8074,"LocationLng":35.9997},{"ID":586,"Name":"Гармониха","Info":"Глубина скважины 60 м.","LocationLat":55.685,"LocationLng":39.7574},{"ID":587,"Name":"деревня Грибаново","Info":"Россия, Московская область, Красногорский район","LocationLat":55.7444,"LocationLng":37.123},{"ID":588,"Name":"Грибаново","Info":"Глубина скважины 90м.","LocationLat":55.7444,"LocationLng":37.123},{"ID":589,"Name":"Завидовка","Info":"Глубина скважин 80 м.","LocationLat":54.2649,"LocationLng":38.8152},{"ID":590,"Name":"Кривцы","Info":"Глубина скважины 32,43,65 м., КП \"Белаго\" - 55,65,60 м.","LocationLat":55.4631,"LocationLng":38.1986},{"ID":591,"Name":"Старые Кузьменки","Info":"Глубина скважины 54,41,45 м.","LocationLat":55.0388,"LocationLng":37.4084},{"ID":592,"Name":"Булгаково СНТ \\\"Нерудник\\\"","Info":"Глубина скважины 51,53 м.","LocationLat":55.7331,"LocationLng":38.2557},{"ID":593,"Name":"СНТ Алёшинские сады","Info":"Глубина скважины 46 м.","LocationLat":55.7141,"LocationLng":38.3485},{"ID":594,"Name":"Высокое","Info":"Глубина скважины 112 м.","LocationLat":54.5189,"LocationLng":39.4164},{"ID":595,"Name":"Токмаково","Info":"Глубина скважины 160 м.","LocationLat":54.7211,"LocationLng":42.2502},{"ID":596,"Name":"Полухтино","Info":"Глубина скважины 58,71,73 м.","LocationLat":55.0267,"LocationLng":41.1113},{"ID":597,"Name":"Шилово","Info":"Глубина скважины 102 м.","LocationLat":54.014,"LocationLng":39.8997},{"ID":598,"Name":"Дубки","Info":"Глубина скважины 110 м.","LocationLat":55.6791,"LocationLng":38.1701},{"ID":599,"Name":"Ям","Info":"Глубина скважины 60 м.","LocationLat":55.4371,"LocationLng":37.7681},{"ID":600,"Name":"Расторгуево","Info":"Глубина скважины 95 м.","LocationLat":55.5484,"LocationLng":37.686},{"ID":601,"Name":"Рубцово","Info":"Глубина скважины 89 м.","LocationLat":54.594,"LocationLng":39.9191},{"ID":602,"Name":"Тимохино","Info":"Глубина скважины 85 м.","LocationLat":54.9385,"LocationLng":41.0847},{"ID":603,"Name":"Кощейково","Info":"Глубина скважины 105 м.","LocationLat":56.0847,"LocationLng":37.9192},{"ID":604,"Name":"Софрино","Info":"Глубина скважины 100 м.","LocationLat":56.1529,"LocationLng":37.9688},{"ID":605,"Name":"Халтурино","Info":"Глубина скважины 40 м.","LocationLat":55.6757,"LocationLng":39.4088},{"ID":606,"Name":"Красное","Info":"Глубина скважин 25,30 м.","LocationLat":55.6082,"LocationLng":39.3935},{"ID":607,"Name":"Филиппово","Info":"Глубина скважины 35 м.","LocationLat":55.7254,"LocationLng":39.4107},{"ID":608,"Name":"Березово","Info":"Глубина скважины 58 м.","LocationLat":54.0945,"LocationLng":39.291},{"ID":609,"Name":"Кабаново","Info":"Глубина скважины 52 м.","LocationLat":55.8841,"LocationLng":38.276},{"ID":610,"Name":"Завидовка","Info":"Глубина скважины 73,74 м.","LocationLat":54.2649,"LocationLng":38.8152},{"ID":611,"Name":"Яковлевское","Info":"Глубина скважины 47 м.","LocationLat":55.4655,"LocationLng":36.9389},{"ID":612,"Name":"Белеутово","Info":"Глубина скважины 33,56 м.","LocationLat":55.5047,"LocationLng":37.7399},{"ID":613,"Name":"Грибово","Info":"Глубина скважины 65 м.","LocationLat":56.009,"LocationLng":37.9679},{"ID":614,"Name":"Ильинское","Info":"Глубина скважины 15 м. - Само излив дебет 30 м3","LocationLat":56.3375,"LocationLng":35.611},{"ID":615,"Name":"Клюквенный","Info":"Глубина скважины 50 м.","LocationLat":56.0346,"LocationLng":38.1777},{"ID":616,"Name":"Костино","Info":"Глубина скважины 95-106 м.( с сероводородом), СНТ \"Северный\" - 55,30м","LocationLat":54.9489,"LocationLng":37.5356},{"ID":617,"Name":"Левое Ящерово","Info":"Глубина скважины 35","LocationLat":54.9429,"LocationLng":37.5211},{"ID":618,"Name":"Нефедово","Info":"Глубина скважины 48 м.","LocationLat":54.9454,"LocationLng":37.4629},{"ID":619,"Name":"Калязин","Info":"Глубина скважины 140 м.","LocationLat":57.2389,"LocationLng":37.8324},{"ID":620,"Name":"Пласкинино","Info":"Глубина скважин 62,70, 94 м.","LocationLat":55.54,"LocationLng":38.4274},{"ID":621,"Name":"Шеметово","Info":"Глубина скважины 54 м.","LocationLat":55.1603,"LocationLng":38.6234},{"ID":622,"Name":"Новая Шурма","Info":"Глубина скважины 170 м.","LocationLat":56.5485,"LocationLng":38.2378},{"ID":623,"Name":"Бывалино","Info":"Глубина скважины 25,32м.","LocationLat":55.7283,"LocationLng":38.7657},{"ID":624,"Name":"Логиново","Info":"Глубина скважины 30 м.","LocationLat":55.7067,"LocationLng":38.7316},{"ID":625,"Name":"Шебаново","Info":"Глубина скважины 65 м.","LocationLat":55.633,"LocationLng":38.7141},{"ID":626,"Name":"Коноково","Info":"Глубина скважины 60 м.","LocationLat":57.2157,"LocationLng":33.992},{"ID":627,"Name":"Мешково","Info":"Глубина скважин 70 м.","LocationLat":55.5914,"LocationLng":37.3206},{"ID":628,"Name":"Тимоново","Info":"Глубина скважины 140 м.","LocationLat":56.225,"LocationLng":37.0313},{"ID":629,"Name":"Сысоево","Info":"Глубина скважины 122,128 м.","LocationLat":55.9585,"LocationLng":36.9392},{"ID":630,"Name":"Поливаново","Info":"Глубина скважины 75 м.","LocationLat":55.4543,"LocationLng":37.3982},{"ID":631,"Name":"Верховье","Info":"Глубина скважины 37,39 м.","LocationLat":55.0767,"LocationLng":36.6816},{"ID":632,"Name":"Пушкарка","Info":"Глубина скважины 60,70 м.","LocationLat":55.4223,"LocationLng":36.1276},{"ID":633,"Name":"Дятловка","Info":"Глубина скважины 66,68 м.","LocationLat":55.7326,"LocationLng":38.067},{"ID":634,"Name":"Пушкари","Info":"Глубина скважины 68 м.","LocationLat":54.2751,"LocationLng":39.0876},{"ID":635,"Name":"Дерменцево","Info":"Глубина скважины 45 м.","LocationLat":55.8378,"LocationLng":35.7871},{"ID":636,"Name":"Румянцево","Info":"Глубина скважин 120 м.","LocationLat":55.6322,"LocationLng":37.4244},{"ID":637,"Name":"Дудкино","Info":"Глубина скважин 100 м.","LocationLat":55.6303,"LocationLng":37.4474},{"ID":638,"Name":"Сосенки","Info":"Глубина скважины 70,52 м.","LocationLat":55.5639,"LocationLng":37.4398},{"ID":639,"Name":"Новлянское","Info":"Глубина скважины 42, 54 м.","LocationLat":55.9134,"LocationLng":35.7393},{"ID":640,"Name":"Мешково","Info":"Глубина скважины 49 м.","LocationLat":55.5914,"LocationLng":37.3206},{"ID":641,"Name":"Авиатор","Info":"Глубина скважины 47 м.","LocationLat":55.4132,"LocationLng":37.8398},{"ID":642,"Name":"Поварово","Info":"Глубина скважины 160,104 м.","LocationLat":56.0758,"LocationLng":37.0617},{"ID":643,"Name":"Марьино","Info":"Глубина скважины 200 м.","LocationLat":56.0183,"LocationLng":37.016},{"ID":644,"Name":"Пущино","Info":"Глубина скважин 44,58 м.","LocationLat":54.8298,"LocationLng":37.5961},{"ID":645,"Name":"Старосемейкино","Info":"Глубина скважины 15-20 м.","LocationLat":53.4109,"LocationLng":50.2694},{"ID":646,"Name":"Лбище","Info":"Глубина скважины 35-40 м.","LocationLat":53.1579,"LocationLng":49.5658},{"ID":647,"Name":"Хлюпино","Info":"Глубина скважин 113 м.","LocationLat":55.663,"LocationLng":36.9659},{"ID":648,"Name":"Десна СНТ","Info":"Глубина скважин 33 м.","LocationLat":55.5192,"LocationLng":37.3736},{"ID":649,"Name":"Чигасово","Info":"Глубина скважин 112,113,118 м.","LocationLat":55.6888,"LocationLng":36.9586},{"ID":650,"Name":"Татаринцево","Info":"Глубина скважин 65 м.","LocationLat":55.3589,"LocationLng":38.3477},{"ID":651,"Name":"СНТ Лесная Сказка","Info":"Глубина скважин 70 м.","LocationLat":55.6919,"LocationLng":39.4336},{"ID":652,"Name":"Плещеево","Info":"Глубина скважин 28,31 м.","LocationLat":55.4578,"LocationLng":37.6029},{"ID":653,"Name":"Игнатьевское","Info":"Глубина скважин 60 м.","LocationLat":55.0476,"LocationLng":36.3536},{"ID":654,"Name":"Артюкино","Info":"Глубина скважины 45 м. (песчаник)","LocationLat":58.0372,"LocationLng":39.0828},{"ID":655,"Name":"Медведово","Info":"Глубина скважины 73 м.","LocationLat":57.9404,"LocationLng":39.8459},{"ID":656,"Name":"Поповское","Info":"Глубина скважины 80 м.","LocationLat":57.3182,"LocationLng":38.9107},{"ID":657,"Name":"Заборново","Info":"Глубина скважины 21 м.","LocationLat":57.519,"LocationLng":40.1281},{"ID":658,"Name":"Мостец","Info":"Глубина скважины 40 м.","LocationLat":57.636,"LocationLng":39.9849},{"ID":659,"Name":"Бынино","Info":"Глубина скважины 42 ,60 м.","LocationLat":55.9553,"LocationLng":38.8331},{"ID":660,"Name":"Нефедьево","Info":"Глубина скважины 27,28,30,32 м.","LocationLat":54.6498,"LocationLng":37.9379},{"ID":661,"Name":"Новый Стан","Info":"Глубина скважины 170,175 м.","LocationLat":56.2955,"LocationLng":37.0021},{"ID":662,"Name":"Михалево","Info":"Глубина скважин 70, 62, 61 м.","LocationLat":55.4473,"LocationLng":38.432},{"ID":663,"Name":"Гришенки","Info":"Глубина скважины 52 м.","LocationLat":55.0974,"LocationLng":37.4295},{"ID":664,"Name":"Демихово","Info":"Глубина скважины 33,51 м.","LocationLat":55.6802,"LocationLng":35.6552},{"ID":665,"Name":"Константиново","Info":"Глубина скважины 27 м., 45 м","LocationLat":55.3382,"LocationLng":38.6179},{"ID":666,"Name":"Губино","Info":"Глубина скважин 66,43,65 м., СНТ \"Пионер\"-60м","LocationLat":55.4542,"LocationLng":38.5865},{"ID":667,"Name":"Вороново","Info":"ДНП \"Усадьба Вороново\" 95, 60, 115 м","LocationLat":55.5984,"LocationLng":38.5778},{"ID":668,"Name":"Медвежье","Info":"Глубина скважины 40 м.","LocationLat":54.3055,"LocationLng":40.0455},{"ID":669,"Name":"Трошково","Info":"Глубина скважины","LocationLat":55.6027,"LocationLng":38.415},{"ID":670,"Name":"Бабино-Булыгино","Info":"Глубина скважины 65 м.","LocationLat":54.9247,"LocationLng":41.3296},{"ID":671,"Name":"Лощинино","Info":"Глубина скважины 30 м.","LocationLat":54.957,"LocationLng":41.3103},{"ID":672,"Name":"Рубцово","Info":"Глубина скважины 89 м.","LocationLat":54.594,"LocationLng":39.9191},{"ID":673,"Name":"Соколова Пустынь","Info":"Глубина скважины  С/Т Сокол - 40 м.","LocationLat":54.8433,"LocationLng":38.0481},{"ID":674,"Name":"Троице-Лобаново","Info":"Глубина скважины 48,51 м.","LocationLat":55.253,"LocationLng":38.2813},{"ID":675,"Name":"Расторгуево 1-й Футбольный проезд","Info":"Глубина скважины 95 м.","LocationLat":55.5376,"LocationLng":37.6522},{"ID":676,"Name":"Тяжино","Info":"Глубина скважины 50,75 м.                                    Новое Тяжино - 54 м","LocationLat":55.4504,"LocationLng":38.1882},{"ID":677,"Name":"Карпово","Info":"Глубина скважины 65 м.","LocationLat":55.5795,"LocationLng":38.5598},{"ID":678,"Name":"Деминская","Info":"Глубина скважины 59 м.","LocationLat":55.402,"LocationLng":39.2042},{"ID":679,"Name":"ПГТ Горки Ленинские","Info":"Глубина скважины 95,51 м.","LocationLat":55.5056,"LocationLng":37.7775},{"ID":680,"Name":"Ям","Info":"Глубина скважины 38,60,70 м.","LocationLat":55.4842,"LocationLng":37.7547},{"ID":681,"Name":"Ибердус","Info":"Глубина скважины 75 м.","LocationLat":54.9057,"LocationLng":41.0441},{"ID":682,"Name":"Лощинино","Info":"Глубина скважины 33,30 м.","LocationLat":54.957,"LocationLng":41.3103},{"ID":683,"Name":"Левино","Info":"Глубина скважины 52,50,53 м.","LocationLat":55.0322,"LocationLng":41.1258},{"ID":684,"Name":"Нагорное","Info":"Глубина скважины 85 м.","LocationLat":54.8008,"LocationLng":39.4619},{"ID":685,"Name":"Чевкино","Info":"Глубина скважины 119 м.","LocationLat":54.3724,"LocationLng":40.4299},{"ID":686,"Name":"Рубецкое","Info":"Глубина скважины 35, 37,25 м.","LocationLat":54.8133,"LocationLng":41.1362},{"ID":687,"Name":"Стольное","Info":"Глубина скважины 121 м.","LocationLat":55.6621,"LocationLng":37.3361},{"ID":688,"Name":"Клушино","Info":"Глубина скважины 96,5 м.","LocationLat":56.0341,"LocationLng":37.2804},{"ID":689,"Name":"Воскресенки","Info":"Глубина скважины 115 м.","LocationLat":55.8429,"LocationLng":36.6311},{"ID":690,"Name":"Красный Воин","Info":"Глубина скважины 91 м.","LocationLat":56.0325,"LocationLng":37.2063},{"ID":691,"Name":"Хитрово","Info":"Глубина скважины 41 м.","LocationLat":55.115,"LocationLng":36.2369},{"ID":692,"Name":"Лапшинка","Info":"Глубина скважины 21 м.","LocationLat":55.1807,"LocationLng":36.6244},{"ID":693,"Name":"Ярцево","Info":"Глубина скважины 30 м.","LocationLat":55.3971,"LocationLng":37.1196},{"ID":694,"Name":"Нащекино","Info":"Глубина скважины 38 м.","LocationLat":55.3308,"LocationLng":38.0615},{"ID":695,"Name":"Митяево","Info":"Глубина скважины 34,30,60 м.","LocationLat":55.3711,"LocationLng":36.1439},{"ID":696,"Name":"Зенькино","Info":"Глубина скважины 125 м.","LocationLat":55.9418,"LocationLng":36.7745},{"ID":697,"Name":"Тростье","Info":"Глубина скважины 80 м.","LocationLat":55.0144,"LocationLng":36.9445},{"ID":698,"Name":"Октябрьское","Info":"Глубина скважины 42 м.","LocationLat":55.1018,"LocationLng":38.9914},{"ID":699,"Name":"Южное Бутово","Info":"Глубина скважины 60,80 м.","LocationLat":55.5255,"LocationLng":37.5398},{"ID":700,"Name":"Большое Ноздрино","Info":"Глубина скважины 44 м.","LocationLat":54.8695,"LocationLng":36.3557},{"ID":701,"Name":"Величково","Info":"Глубина скважины 16 м.","LocationLat":54.988,"LocationLng":36.7629},{"ID":702,"Name":"Чернецкое","Info":"Глубина скважины 25 м.","LocationLat":55.2531,"LocationLng":37.3305},{"ID":703,"Name":"Обнинск","Info":"Глубина скважины 33 м.","LocationLat":55.1072,"LocationLng":36.6047},{"ID":704,"Name":"Боровск","Info":"Глубина скважины 40 м.","LocationLat":55.206,"LocationLng":36.497},{"ID":705,"Name":"Власово","Info":"Глубина скважины 55 м.","LocationLat":55.5765,"LocationLng":37.1274},{"ID":706,"Name":"Полувзвоз","Info":"Глубина скважины 222 м.","LocationLat":56.5314,"LocationLng":38.5247},{"ID":707,"Name":"Афинеево","Info":"Глубина скважины 40 м.","LocationLat":55.5253,"LocationLng":37.1086},{"ID":708,"Name":"Проводы","Info":"Глубина скважины 22 м.","LocationLat":55.3527,"LocationLng":37.8968},{"ID":709,"Name":"Рудаково","Info":"Глубина скважины 47 м.","LocationLat":55.0569,"LocationLng":37.1421},{"ID":710,"Name":"Давыдково","Info":"Глубина скважины 56 м.","LocationLat":55.5854,"LocationLng":37.196},{"ID":711,"Name":"Милюково","Info":"Глубина скважины 50 м.,                                      СНТ \"Чистые Ключи\"-65м","LocationLat":55.5287,"LocationLng":37.1298},{"ID":712,"Name":"Леоново","Info":"Глубина скважин 102, 103 м.","LocationLat":56.0516,"LocationLng":36.6778},{"ID":713,"Name":"СНТ Березки","Info":"Глубина скважины 45 м.","LocationLat":55.5471,"LocationLng":37.5029},{"ID":714,"Name":"Щапово","Info":"Глубина скважины 51,54 м.","LocationLat":55.4179,"LocationLng":37.4048},{"ID":715,"Name":"Большое Покровское","Info":"Глубина скважины 29 м.","LocationLat":55.5639,"LocationLng":37.2328},{"ID":716,"Name":"Лапино","Info":"Глубина скважины 114, 102,112,126 м.","LocationLat":55.6781,"LocationLng":37.1523},{"ID":717,"Name":"Афанасово","Info":"Глубина скважины 75 м.","LocationLat":56.034,"LocationLng":35.7418},{"ID":718,"Name":"Лубенки","Info":"Глубина скважины 40 м.","LocationLat":55.645,"LocationLng":35.7566},{"ID":719,"Name":"Подолино","Info":"Глубина скважины 71 м.","LocationLat":55.9293,"LocationLng":37.2607},{"ID":720,"Name":"Писково","Info":"Глубина скважины 86 м.","LocationLat":55.7862,"LocationLng":36.9767},{"ID":721,"Name":"СНТ Зеленая Роща","Info":"Глубина скважины 68 м.","LocationLat":55.579,"LocationLng":36.8835},{"ID":722,"Name":"КП Грибово","Info":"Глубина скважины 78 м.","LocationLat":55.6445,"LocationLng":37.2335},{"ID":723,"Name":"Перемилово","Info":"Глубина скважины 150 м.","LocationLat":56.3011,"LocationLng":37.501},{"ID":724,"Name":"Калачево","Info":"Глубина скважины 42 м.","LocationLat":55.3299,"LocationLng":37.746},{"ID":725,"Name":"Булатниково","Info":"Глубина скважины 73, СНТ Реформа 52,56,61 м. СНТ \"Булатниково\" - 72 м.","LocationLat":55.5608,"LocationLng":37.6688},{"ID":726,"Name":"Поповка","Info":"Глубина скважины 42,61, 65 м.","LocationLat":55.097,"LocationLng":37.3988},{"ID":727,"Name":"Хатунь","Info":"Глубина скважины 13 м.","LocationLat":55.0029,"LocationLng":37.8287},{"ID":728,"Name":"Павельцево","Info":"Глубина скважины 169 м.","LocationLat":56.25,"LocationLng":36.4361},{"ID":729,"Name":"Вишняково","Info":"Глубина скважины 41 м.","LocationLat":55.7425,"LocationLng":38.168},{"ID":730,"Name":"Наро-Фоминск","Info":"Глубина скважины 70 м.","LocationLat":55.383,"LocationLng":36.7307},{"ID":731,"Name":"Полушкино","Info":"Глубина скважины 35,42,43 м.","LocationLat":55.582,"LocationLng":36.5704},{"ID":732,"Name":"Лубенки","Info":"Глубина скважины 33, 40,41 м.","LocationLat":55.645,"LocationLng":35.7566},{"ID":733,"Name":"Храброво","Info":"Глубина скважины 63 м.","LocationLat":55.4441,"LocationLng":35.6603},{"ID":734,"Name":"Уварово","Info":"Глубина скважины 34 м.","LocationLat":55.5221,"LocationLng":37.2028},{"ID":735,"Name":"Покровское","Info":"Глубина скважины 50,55 м.","LocationLat":55.6553,"LocationLng":36.8279},{"ID":736,"Name":"Погорелки","Info":"Глубина скважины 108 м.","LocationLat":55.9611,"LocationLng":37.6527},{"ID":737,"Name":"Новогрязново","Info":"Глубина скважины 92 м.","LocationLat":55.9586,"LocationLng":37.5394},{"ID":738,"Name":"Сухарево","Info":"Глубина скважины 95 м.","LocationLat":56.0774,"LocationLng":37.5151},{"ID":739,"Name":"Большое Ивановское","Info":"Глубина скважины 142 м.","LocationLat":56.1361,"LocationLng":37.5616},{"ID":740,"Name":"Косилово","Info":"Глубина скважины 72 м.","LocationLat":55.8703,"LocationLng":35.2963},{"ID":741,"Name":"Песочное","Info":"Глубина скважины 70 м.","LocationLat":54.6245,"LocationLng":38.5562},{"ID":742,"Name":"Серебряные Пруды","Info":"Глубина скважины 69,80 м.","LocationLat":54.4742,"LocationLng":38.7222},{"ID":743,"Name":"Яблонево","Info":"Глубина скважины 62 м.","LocationLat":54.3591,"LocationLng":38.7203},{"ID":744,"Name":"Каменищи","Info":"Глубина скважины 22,51 м.","LocationLat":54.9241,"LocationLng":37.8235},{"ID":745,"Name":"Цильна","Info":"Глубина скважины 20, 25 м.","LocationLat":54.593,"LocationLng":48.1446},{"ID":746,"Name":"Матвеевка","Info":"Глубина скважины 60 м.","LocationLat":54.4373,"LocationLng":38.1906},{"ID":747,"Name":"Богословское","Info":"Глубина скважины 76 м.","LocationLat":54.7725,"LocationLng":37.9984},{"ID":748,"Name":"Ланьшинский Карьер","Info":"Глубина скважины 47 м.","LocationLat":54.8305,"LocationLng":37.2669},{"ID":749,"Name":"Заднее Поле","Info":"Глубина скважины 45 м.","LocationLat":55.9127,"LocationLng":39.0798},{"ID":750,"Name":"Мишуково","Info":"Глубина скважины 75 м.","LocationLat":56.6552,"LocationLng":37.1601},{"ID":751,"Name":"Ходаево","Info":"Глубина скважины 37,39,43,47 м.","LocationLat":55.203,"LocationLng":37.392},{"ID":752,"Name":"Константиново","Info":"Глубина скважины 35,36,57 м.","LocationLat":55.443,"LocationLng":37.7179},{"ID":753,"Name":"Вахромеево","Info":"Глубина скважины 42 м.","LocationLat":55.3411,"LocationLng":37.7716},{"ID":754,"Name":"Новоселки","Info":"Глубина скважины 73 м.","LocationLat":54.4808,"LocationLng":37.4616},{"ID":755,"Name":"Николо-Хованское","Info":"Глубина скважин 95 м.","LocationLat":55.5985,"LocationLng":37.4473},{"ID":756,"Name":"Карманово","Info":"Глубина скважины 72 м.","LocationLat":56.6975,"LocationLng":37.1874},{"ID":757,"Name":"Сосновицы","Info":"Глубина скважин 50, 56 м.","LocationLat":55.2705,"LocationLng":35.7579},{"ID":758,"Name":"Туголес","Info":"Глубина скважины 45 м.","LocationLat":55.5302,"LocationLng":39.7187},{"ID":759,"Name":"Слемские Борки","Info":"Глубина скважин 43,54 м.","LocationLat":54.8806,"LocationLng":39.3817},{"ID":760,"Name":"коттеджный п. Соколиная Гора","Info":"Глубина скважин 35,37 м.","LocationLat":55.155,"LocationLng":37.6247},{"ID":761,"Name":"Вахромеево","Info":"Глубина скважин 42 м.","LocationLat":55.3411,"LocationLng":37.7716},{"ID":762,"Name":"Новоселки","Info":"Глубина скважин 73 м.","LocationLat":54.4808,"LocationLng":37.4616},{"ID":763,"Name":"коттеджный п. Ромашкино","Info":"Глубина скважин 50,55,56 м.","LocationLat":55.4604,"LocationLng":38.281},{"ID":764,"Name":"Васюково","Info":"Глубина скважины 61 м.","LocationLat":55.7001,"LocationLng":35.9609},{"ID":765,"Name":"Троицкие Озерки","Info":"Глубина скважины 46 м.","LocationLat":55.0918,"LocationLng":38.9453},{"ID":766,"Name":"Степаньково","Info":"Глубина скважины 99 м.","LocationLat":56.0035,"LocationLng":35.6479},{"ID":767,"Name":"ТСЖ Надежда","Info":"Глубина скважины 72 м.","LocationLat":55.2262,"LocationLng":38.4108},{"ID":768,"Name":"Суково","Info":"Глубина скважины 83 м.","LocationLat":54.8963,"LocationLng":38.3209},{"ID":769,"Name":"Филипповское","Info":"Глубина скважины 98 м.","LocationLat":56.101,"LocationLng":38.6115},{"ID":770,"Name":"Заречье","Info":"Глубина скважины 57,66 м.","LocationLat":56.0008,"LocationLng":38.6117},{"ID":771,"Name":"Вельяминово","Info":"Глубина скважины 42,33,65 м.","LocationLat":55.1918,"LocationLng":37.8683},{"ID":772,"Name":"Осеево","Info":"Глубина скважины 45,52 м.","LocationLat":55.882,"LocationLng":38.1585},{"ID":773,"Name":"Душоново","Info":"Глубина скважины 63,70 м.","LocationLat":56.0595,"LocationLng":38.3012},{"ID":774,"Name":"Салтыковка Полевая улица","Info":"Глубина скважины 63,66 м.","LocationLat":55.7495,"LocationLng":37.9277},{"ID":775,"Name":"Мячково","Info":"Глубина скважины 51 м.","LocationLat":55.215,"LocationLng":38.6687},{"ID":776,"Name":"Мальцы","Info":"Глубина скважины 47,65 м.","LocationLat":55.0791,"LocationLng":37.6432},{"ID":777,"Name":"Марусино","Info":"Глубина скважины 25,26,27,29,32 м.","LocationLat":55.6941,"LocationLng":37.9762},{"ID":778,"Name":"Каменное Тяжино","Info":"Глубина скважины","LocationLat":55.5426,"LocationLng":38.0156},{"ID":779,"Name":"К.П. Чулково Сlub","Info":"Глубина скважины 70,75 м.","LocationLat":55.5458,"LocationLng":38.0228},{"ID":780,"Name":"С.Т. Вьюнка","Info":"Глубина скважины 30, 79, 65 м.","LocationLat":55.6783,"LocationLng":38.1396},{"ID":781,"Name":"Богоявление","Info":"Глубина скважины 36,68 м.","LocationLat":55.2567,"LocationLng":37.1693},{"ID":782,"Name":"К.П. Лужки","Info":"Глубина скважины 43 м.","LocationLat":55.8637,"LocationLng":36.976},{"ID":783,"Name":"Белоусово","Info":"Глубина скважины 112 м.","LocationLat":55.0929,"LocationLng":36.6705},{"ID":784,"Name":"Щелково","Info":"Глубина скважины 70 м. - Баварская ул.","LocationLat":55.9396,"LocationLng":37.9669},{"ID":785,"Name":"Григорово","Info":"Глубина скважины 28 м.","LocationLat":55.6297,"LocationLng":38.3861},{"ID":786,"Name":"Заречье","Info":"Глубина скважины 80 м.","LocationLat":54.4972,"LocationLng":37.427},{"ID":787,"Name":"Белоозерский","Info":"Глубина скважины 66,81 м.","LocationLat":55.4527,"LocationLng":38.4506},{"ID":788,"Name":"Рылеево","Info":"Глубина скважин 19,36,32 м.","LocationLat":55.3411,"LocationLng":38.105},{"ID":789,"Name":"Озерки","Info":"Глубина скважины 14 м.","LocationLat":55.6267,"LocationLng":39.3583},{"ID":790,"Name":"Брехово","Info":"Глубина скважины 82 м.","LocationLat":55.9282,"LocationLng":37.1899},{"ID":791,"Name":"Аксиньино","Info":"Глубина скважины 56,112, 86 м.","LocationLat":55.7355,"LocationLng":36.9839},{"ID":792,"Name":"Луцино","Info":"Глубина скважины 53, 60, 50 м.","LocationLat":55.7108,"LocationLng":36.7676},{"ID":793,"Name":"Машково","Info":"Глубина скважин 47м.","LocationLat":55.1784,"LocationLng":36.7492},{"ID":794,"Name":"Октябрьское","Info":"Глубина скважины 52 м.","LocationLat":54.068,"LocationLng":39.4264},{"ID":795,"Name":"Зюзино","Info":"Глубина скважины ул. Луговая 37 м.","LocationLat":55.6787,"LocationLng":38.1208},{"ID":796,"Name":"С.Т. Озерки","Info":"Глубина скважин 27, 23,24, 30 м.","LocationLat":55.6273,"LocationLng":39.3601},{"ID":797,"Name":"Гостец","Info":"Глубина скважины 68 м.","LocationLat":55.9652,"LocationLng":39.0751},{"ID":798,"Name":"Электроугли","Info":"Глубина скважины  СНТ Горелый лес 74 м.","LocationLat":55.717,"LocationLng":38.2194},{"ID":799,"Name":"Павловский Посад, Лесная улица","Info":"Глубина скважины 37 м.","LocationLat":55.7588,"LocationLng":38.6395},{"ID":800,"Name":"Масловка СНТ Магистраль","Info":"Глубина скважины 22 м.","LocationLat":55.2263,"LocationLng":37.5037},{"ID":801,"Name":"Булгаково СНТ Электрон","Info":"Глубина скважин 31 м.","LocationLat":55.7258,"LocationLng":38.2541},{"ID":802,"Name":"СНТ Горелый Лес","Info":"Глубина скважин 40,6,74 м.","LocationLat":55.7799,"LocationLng":38.3591},{"ID":803,"Name":"Голубино","Info":"Глубина скважин 42 м.","LocationLat":55.2293,"LocationLng":37.8039},{"ID":804,"Name":"Санино","Info":"Глубина скважин 48 м.","LocationLat":55.5865,"LocationLng":37.1535},{"ID":805,"Name":"Костино","Info":"Глубина скважины 117 м.","LocationLat":55.9868,"LocationLng":39.3509},{"ID":806,"Name":"Коняшино полевая","Info":"Глубина скважин 30 м.","LocationLat":55.6251,"LocationLng":38.425},{"ID":807,"Name":"Потаповское СНТ Ветеран","Info":"Глубина скважин 110 м.","LocationLat":55.3919,"LocationLng":38.8},{"ID":808,"Name":"Скородумки","Info":"Глубина скважины 140 м.","LocationLat":56.1477,"LocationLng":36.984},{"ID":809,"Name":"Киселевка","Info":"Глубина скважины 55 м.","LocationLat":55.46,"LocationLng":37.3444},{"ID":810,"Name":"Пыхчево","Info":"Глубина скважины 58 м.","LocationLat":55.4597,"LocationLng":37.3588},{"ID":811,"Name":"Молоди","Info":"Глубина скважины 52 м.","LocationLat":55.2758,"LocationLng":37.5128},{"ID":812,"Name":"Коптязино","Info":"Глубина скважины 70 м.","LocationLat":56.0497,"LocationLng":35.6423},{"ID":813,"Name":"Ивонино","Info":"Глубина скважины 73 м.","LocationLat":55.6198,"LocationLng":36.8039},{"ID":814,"Name":"Александровка","Info":"Глубина скважины 46 м.","LocationLat":55.7508,"LocationLng":37.2088},{"ID":815,"Name":"Глухово","Info":"Глубина скважины 45 м.","LocationLat":55.7778,"LocationLng":37.2544},{"ID":816,"Name":"Мечниково","Info":"Глубина скважины 75 м.","LocationLat":55.7498,"LocationLng":37.1622},{"ID":817,"Name":"Тимошкино","Info":"Глубина скважины 96 м.","LocationLat":55.7716,"LocationLng":37.1022},{"ID":818,"Name":"Козино","Info":"Глубина скважины 100 м.","LocationLat":55.8922,"LocationLng":37.1789},{"ID":819,"Name":"Бузланово","Info":"Глубина скважины 80 м.","LocationLat":55.771,"LocationLng":37.1989},{"ID":820,"Name":"Фряново","Info":"Глубина скважины 75,104,124 м.","LocationLat":56.1298,"LocationLng":38.4308},{"ID":821,"Name":"Злыхино","Info":"Глубина скважины 71 м.","LocationLat":54.7316,"LocationLng":38.9804},{"ID":822,"Name":"Торбеево","Info":"Глубина скважины 22 м.","LocationLat":55.6892,"LocationLng":38.0467},{"ID":823,"Name":"Шебанцево","Info":"Глубина скважины 65 м.","LocationLat":55.3104,"LocationLng":37.8144},{"ID":824,"Name":"Дергаево","Info":"Глубина скважины 69 м.","LocationLat":55.5812,"LocationLng":38.2568},{"ID":825,"Name":"Ямкино","Info":"Глубина скважины 47,41 м.","LocationLat":55.9288,"LocationLng":38.4027},{"ID":826,"Name":"Борцино","Info":"Глубина скважины 41 м.","LocationLat":56.619,"LocationLng":36.375},{"ID":827,"Name":"Фатеево","Info":"Глубина скважины 50 м.","LocationLat":55.747,"LocationLng":38.645},{"ID":828,"Name":"Кунавино","Info":"Глубина скважины 42 м.","LocationLat":55.1993,"LocationLng":38.0141},{"ID":829,"Name":"К.П. Чигасово-1","Info":"Глубина скважины 112 м.","LocationLat":55.6851,"LocationLng":36.9635},{"ID":830,"Name":"Семеновское","Info":"Глубина скважины 48,54 м.","LocationLat":55.1625,"LocationLng":38.5802},{"ID":831,"Name":"Хотьково","Info":"Глубина скважины 180,170 м. (19-22, 66-102 песок)","LocationLat":56.2531,"LocationLng":37.9946},{"ID":832,"Name":"Алпатьево","Info":"Глубина скважины 76 м.","LocationLat":54.8804,"LocationLng":39.3235},{"ID":833,"Name":"Подлипки","Info":"ст. Подлипки, СНТ Восход","LocationLat":54.9537,"LocationLng":39.1646},{"ID":834,"Name":"Сурмино","Info":"Глубина скважины 81 м.","LocationLat":55.8117,"LocationLng":36.8035},{"ID":835,"Name":"Дубовая Роща","Info":"Глубина скважины 70 м.","LocationLat":55.5419,"LocationLng":38.3096},{"ID":836,"Name":"Петровское","Info":"Глубина скважины 84 м.","LocationLat":55.4661,"LocationLng":38.3348},{"ID":837,"Name":"Новое, ул Горького","Info":"Глубина скважины 70,81 м.","LocationLat":55.5558,"LocationLng":38.1987},{"ID":838,"Name":"Песочная","Info":"Глубина скважины 85 м.","LocationLat":54.9832,"LocationLng":38.1946},{"ID":839,"Name":"Калитино","Info":"Глубина скважины 48 м.","LocationLat":55.9296,"LocationLng":38.5712},{"ID":840,"Name":"Поречье","Info":"Глубина скважины 74 м.","LocationLat":55.4942,"LocationLng":37.9274},{"ID":841,"Name":"Благовещенье","Info":"Глубина скважины 250 м.","LocationLat":56.323,"LocationLng":38.0819},{"ID":842,"Name":"Большое Колычево","Info":"Глубина скважины 50 м.","LocationLat":55.0252,"LocationLng":38.7432},{"ID":843,"Name":"Волохово","Info":"Глубина скважины 56 м.","LocationLat":54.7666,"LocationLng":39.2719},{"ID":844,"Name":"Рахманово","Info":"Глубина скважины 150 м.","LocationLat":56.1542,"LocationLng":36.7517},{"ID":845,"Name":"Белавино","Info":"Глубина скважины 153 м.","LocationLat":56.0732,"LocationLng":36.9919},{"ID":846,"Name":"Жарково","Info":"Глубина скважины 50 м.","LocationLat":55.4251,"LocationLng":37.462},{"ID":847,"Name":"Докукино","Info":"Глубина скважины 57 м.","LocationLat":55.4239,"LocationLng":37.4719},{"ID":848,"Name":"Кузнечики","Info":"Глубина скважины 62 м.","LocationLat":55.4163,"LocationLng":37.4484},{"ID":849,"Name":"Луковня","Info":"Глубина скважины 45 м.","LocationLat":55.4512,"LocationLng":37.4452},{"ID":850,"Name":"Ерино","Info":"Глубина скважины 70 м.","LocationLat":55.4493,"LocationLng":37.5124},{"ID":851,"Name":"Сальково","Info":"Глубина скважины 50 м.","LocationLat":55.4392,"LocationLng":37.5262},{"ID":852,"Name":"Пролетарский","Info":"Глубина скважины 84 м.","LocationLat":55.022,"LocationLng":37.3883},{"ID":853,"Name":"Аксенчиково","Info":"Глубина скважины 41 м.","LocationLat":55.191,"LocationLng":37.422},{"ID":854,"Name":"Трехсвятское","Info":"Глубина скважины 41 м.","LocationLat":55.0181,"LocationLng":36.6085},{"ID":855,"Name":"Шарапово","Info":"Глубина скважины 40,41,39 м.","LocationLat":55.1899,"LocationLng":37.256},{"ID":856,"Name":"Сераксеево","Info":"Глубина скважины 37 м.","LocationLat":54.9701,"LocationLng":37.6149},{"ID":857,"Name":"Котельники","Info":"Глубина скважины 110 м.","LocationLat":55.6596,"LocationLng":37.8635},{"ID":858,"Name":"Шевлягино","Info":"Глубина скважины 42 м.","LocationLat":55.586,"LocationLng":38.5823},{"ID":859,"Name":"Рябцево","Info":"Глубина скважины 45 м.","LocationLat":55.3756,"LocationLng":37.8344},{"ID":860,"Name":"Скурыгино","Info":"Глубина скважины 42 м.","LocationLat":55.2076,"LocationLng":37.3745},{"ID":861,"Name":"Большое Буньково","Info":"Глубина скважины 31,37,39 м.","LocationLat":55.8485,"LocationLng":38.6105},{"ID":862,"Name":"Костенево","Info":"Глубина скважины 88 м.","LocationLat":55.4423,"LocationLng":38.9142},{"ID":863,"Name":"Ольховая улица","Info":"Глубина скважины 50 м.","LocationLat":55.366,"LocationLng":39.0947},{"ID":864,"Name":"Бисерово","Info":"Глубина скважины 18 м.","LocationLat":55.396,"LocationLng":38.2819},{"ID":865,"Name":"Вохринка","Info":"Глубина скважины 43 м.","LocationLat":55.3995,"LocationLng":38.3144},{"ID":866,"Name":"\\\"Купавна -Лайф\\\"","Info":"Глубина скважины 67,68,70 м.","LocationLat":55.7308,"LocationLng":38.0847},{"ID":867,"Name":"Бавыкино","Info":"Глубина скважины 63 м.","LocationLat":55.0836,"LocationLng":37.593},{"ID":868,"Name":"Талдом","Info":"Глубина скважин 120м. 92м.","LocationLat":56.7308,"LocationLng":37.5276},{"ID":869,"Name":"Запрудня","Info":"Глубина скважин 84м.","LocationLat":56.5609,"LocationLng":37.4336},{"ID":870,"Name":"Великий Двор","Info":"Глубина скважин 115,110 м.","LocationLat":56.7647,"LocationLng":37.4125},{"ID":871,"Name":"Шуклово","Info":"Глубина скважин 67м.","LocationLat":56.5962,"LocationLng":36.61},{"ID":872,"Name":"Абрамово","Info":"Глубина скважин 93м. само излив","LocationLat":56.8859,"LocationLng":37.412},{"ID":873,"Name":"Шадрино","Info":"Глубина скважин 98м.","LocationLat":56.8528,"LocationLng":37.6359},{"ID":874,"Name":"Федоровское","Info":"Глубина скважин 70м.","LocationLat":56.7313,"LocationLng":36.9621},{"ID":875,"Name":"Весьегонск","Info":"Глубина скважин 120м. самоизлив минеральная вода","LocationLat":58.6584,"LocationLng":37.2591},{"ID":876,"Name":"Свердлово","Info":"Глубина скважин 20 м.","LocationLat":56.6362,"LocationLng":36.6177},{"ID":877,"Name":"Терехово","Info":"Глубина скважин 70м.","LocationLat":56.541,"LocationLng":37.0804},{"ID":878,"Name":"Конаково","Info":"Глубина скважин 60м.","LocationLat":56.6864,"LocationLng":36.7601},{"ID":879,"Name":"Грозино","Info":"Глубина скважин 81м. само излив","LocationLat":56.9424,"LocationLng":37.5923},{"ID":880,"Name":"Кочнево","Info":"Глубина скважин 100м. само излив","LocationLat":56.9797,"LocationLng":37.5109},{"ID":881,"Name":"Раменье","Info":"Глубина скважин 65м. само излив Qu003d8м3/ч","LocationLat":56.6321,"LocationLng":37.133},{"ID":882,"Name":"Николо-Кропотки","Info":"Глубина скважины 180 м.","LocationLat":56.7335,"LocationLng":37.9278},{"ID":883,"Name":"Селково","Info":"Глубина скважины 195 м.","LocationLat":56.5859,"LocationLng":38.1556},{"ID":884,"Name":"Константиново","Info":"Глубина скважины 180 м.","LocationLat":56.5522,"LocationLng":38.0301},{"ID":885,"Name":"Шеметово","Info":"Глубина скважины 180 м.","LocationLat":56.5222,"LocationLng":38.0839},{"ID":886,"Name":"Селихово","Info":"Глубина скважины 16 м. ПЕСЧАННИК","LocationLat":56.5125,"LocationLng":38.161},{"ID":887,"Name":"Кушки","Info":"Глубина скважины 27,5 м. ПЕСЧАННИК","LocationLat":56.555,"LocationLng":37.5778},{"ID":888,"Name":"Желтиково","Info":"Глубина скважины 52,87 м. ПЕСЧАННИК 3 м3/час","LocationLat":56.2975,"LocationLng":37.9458},{"ID":889,"Name":"Дубовицы","Info":"Глубина скважины 33-43 м. ПЕСЧАННИК 3м/час","LocationLat":56.8411,"LocationLng":33.9376},{"ID":890,"Name":"Нестерово","Info":"Глубина скважины 29 м. ПЕСЧАННИК","LocationLat":56.7559,"LocationLng":36.4957},{"ID":891,"Name":"Васьково","Info":"Глубина скважины 95-108 м. 3-й ПЕСЧАННИК самоизлив","LocationLat":56.2643,"LocationLng":37.8349},{"ID":892,"Name":"Луки","Info":"Глубина скважины 166 м. минеральная вода самоизлив","LocationLat":56.9677,"LocationLng":38.0912},{"ID":893,"Name":"Веслево","Info":"Глубина скважины 33-40 м.","LocationLat":56.7308,"LocationLng":38.7337},{"ID":894,"Name":"Сухарево","Info":"Глубина скважины 16-24 м. ПЕСОК","LocationLat":57.0914,"LocationLng":37.9631},{"ID":895,"Name":"Квашонки","Info":"Глубина скважины 97 м.","LocationLat":58.4449,"LocationLng":36.4691},{"ID":896,"Name":"Соломидино","Info":"Глубина скважины 18 м. ПЕСЧАННИК","LocationLat":57.0889,"LocationLng":37.8924},{"ID":897,"Name":"Переславичи","Info":"Глубина скважины 18-25 м. ПЕСОК","LocationLat":56.6453,"LocationLng":38.1631},{"ID":898,"Name":"Нерль","Info":"Глубина скважины 21 м. ПЕСОК","LocationLat":57.0439,"LocationLng":37.989},{"ID":899,"Name":"Поповкино","Info":"Глубина скважины 38-45 м. ПЕСОК","LocationLat":56.1104,"LocationLng":36.0137},{"ID":900,"Name":"Фроловское","Info":"Глубина скважины 56 м.","LocationLat":56.1856,"LocationLng":35.4801},{"ID":901,"Name":"Ханево","Info":"Глубина скважины 95 м. Н ст. 1,5 м","LocationLat":56.141,"LocationLng":35.7578},{"ID":902,"Name":"Ушаково","Info":"Глубина скважины 65 м.","LocationLat":56.1946,"LocationLng":35.6671},{"ID":903,"Name":"Затесово","Info":"Глубина скважины 90 м.","LocationLat":56.064,"LocationLng":35.6458},{"ID":904,"Name":"Стеблево","Info":"Глубина скважины 105 м.","LocationLat":56.139,"LocationLng":36.0083},{"ID":905,"Name":"Агнищево","Info":"Глубина скважины 60 м.","LocationLat":56.1799,"LocationLng":35.6703},{"ID":906,"Name":"Белая Колпь","Info":"Глубина скважины 70 м.","LocationLat":56.0903,"LocationLng":35.6673},{"ID":907,"Name":"Шишково","Info":"Глубина скважины 75 м.","LocationLat":56.1518,"LocationLng":35.9088},{"ID":908,"Name":"Власово","Info":"Глубина скважины 60 м.","LocationLat":56.2276,"LocationLng":35.9088},{"ID":909,"Name":"Афанасово","Info":"Глубина скважины 55 м.","LocationLat":56.3159,"LocationLng":35.5206},{"ID":910,"Name":"Вяхирево","Info":"Глубина скважины 60 м.","LocationLat":56.3553,"LocationLng":35.5618},{"ID":911,"Name":"Новоникольское","Info":"Глубина скважины 48 м.","LocationLat":56.1123,"LocationLng":35.5734},{"ID":912,"Name":"Кашино","Info":"Глубина скважины 80 м.","LocationLat":56.1025,"LocationLng":35.9162},