[
  {
    "id": 19,
    "address": "Белозерская Ул., Д.11г",
    "name": "Billa",
    "city": "Москва",
    "date_review": "11/1/2019",
    "holding_name": "REWE Group",
    "website": "https://www.billa.ru",
    "working_time": "",
    "lon": 37.61361,
    "lat": 55.89767
  },
  {
    "id": 40,
    "address": "Дмитровское Ш., Д.113, Корп.1",
    "name": "Billa",
    "city": "Москва",
    "date_review": "11/1/2019",
    "holding_name": "REWE Group",
    "website": "https://www.billa.ru",
    "working_time": "",
    "lon": 37.5414,
    "lat": 55.88354
  },
  {
    "id": 78,
    "address": "Нахимовский Пр-Т, Д.30/43",
    "name": "Billa",
    "city": "Москва",
    "date_review": "11/1/2019",
    "holding_name": "REWE Group",
    "website": "https://www.billa.ru",
    "working_time": "",
    "lon": 37.5741,
    "lat": 55.67459
  },
  {
    "id": 82,
    "address": "Обручева Ул., Д.55а",
    "name": "Billa",
    "city": "Москва",
    "date_review": "11/1/2019",
    "holding_name": "REWE Group",
    "website": "https://www.billa.ru",
    "working_time": "",
    "lon": 37.56021,
    "lat": 55.65072
  },
  {
    "id": 96,
    "address": "Подольских Курсантов Ул., Д.10",
    "name": "Billa",
    "city": "Москва",
    "date_review": "11/1/2019",
    "holding_name": "REWE Group",
    "website": "https://www.billa.ru",
    "working_time": "",
    "lon": 37.61606,
    "lat": 55.60801
  },
  {
    "id": 113,
    "address": "Прокатная Ул., Д.2",
    "name": "Billa",
    "city": "Москва",
    "date_review": "11/1/2019",
    "holding_name": "REWE Group",
    "website": "https://www.billa.ru",
    "working_time": "",
    "lon": 37.83382,
    "lat": 55.75942
  },
  {
    "id": 122,
    "address": "Тайнинская Ул., Д.20",
    "name": "Billa",
    "city": "Москва",
    "date_review": "11/1/2019",
    "holding_name": "REWE Group",
    "website": "https://www.billa.ru",
    "working_time": "",
    "lon": 37.6857,
    "lat": 55.88252
  },
  {
    "id": 441,
    "address": "15-Я Парковая Ул., Д.40, Корп.1",
    "name": "Billa",
    "city": "Москва",
    "date_review": "11/1/2019",
    "holding_name": "REWE Group",
    "website": "https://www.billa.ru",
    "working_time": "",
    "lon": 37.81993,
    "lat": 55.80521
  },
  {
    "id": 508,
    "address": "2-Я Владимирская Ул., Д.59/39",
    "name": "Billa",
    "city": "Москва",
    "date_review": "11/1/2019",
    "holding_name": "REWE Group",
    "website": "https://www.billa.ru",
    "working_time": "",
    "lon": 37.78964,
    "lat": 55.74352
  },
  {
    "id": 513,
    "address": "2-Я Мелитопольская Ул., Д.3а",
    "name": "Billa",
    "city": "Москва",
    "date_review": "11/1/2019",
    "holding_name": "REWE Group",
    "website": "https://www.billa.ru",
    "working_time": "",
    "lon": 37.57387,
    "lat": 55.53935
  },
  {
    "id": 571,
    "address": "3-Й Митинский Пер., Д.3",
    "name": "Billa",
    "city": "Москва",
    "date_review": "11/1/2019",
    "holding_name": "REWE Group",
    "website": "https://www.billa.ru",
    "working_time": "",
    "lon": 37.34942,
    "lat": 55.84762
  },
  {
    "id": 876,
    "address": "800-Летия Москвы Ул., Д.11",
    "name": "Billa",
    "city": "Москва",
    "date_review": "11/1/2019",
    "holding_name": "REWE Group",
    "website": "https://www.billa.ru",
    "working_time": "",
    "lon": 37.564694,
    "lat": 55.88095
  },
  {
    "id": 1240,
    "address": "9-Я Парковая Ул., Д.68, Корп.5",
    "name": "Billa",
    "city": "Москва",
    "date_review": "11/1/2019",
    "holding_name": "REWE Group",
    "website": "https://www.billa.ru",
    "working_time": "",
    "lon": 37.79946,
    "lat": 55.80817
  },
  {
    "id": 1283,
    "address": "Авиаконструктора Миля Ул., Д.3",
    "name": "Billa",
    "city": "Москва",
    "date_review": "11/1/2019",
    "holding_name": "REWE Group",
    "website": "https://www.billa.ru",
    "working_time": "",
    "lon": 37.852821,
    "lat": 55.687388
  },
  {
    "id": 1341,
    "address": "Адмирала Лазарева Ул., Д.62",
    "name": "Billa",
    "city": "Москва",
    "date_review": "11/1/2019",
    "holding_name": "REWE Group",
    "website": "https://www.billa.ru",
    "working_time": "",
    "lon": 37.50962,
    "lat": 55.54009
  },
  {
    "id": 1432,
    "address": "Академика Капицы Ул., Д.28",
    "name": "Billa",
    "city": "Москва",
    "date_review": "11/1/2019",
    "holding_name": "REWE Group",
    "website": "https://www.billa.ru",
    "working_time": "",
    "lon": 37.52035,
    "lat": 55.62648
  },
  {
    "id": 1443,
    "address": "Академика Королева Ул., Д.8а",
    "name": "Billa",
    "city": "Москва",
    "date_review": "11/1/2019",
    "holding_name": "REWE Group",
    "website": "https://www.billa.ru",
    "working_time": "",
    "lon": 37.62309,
    "lat": 55.822309
  },
  {
    "id": 1540,
    "address": "Алтуфьевское Ш., Д.22",
    "name": "Billa",
    "city": "Москва",
    "date_review": "11/1/2019",
    "holding_name": "REWE Group",
    "website": "https://www.billa.ru",
    "working_time": "",
    "lon": 37.585239,
    "lat": 55.859381
  },
  {
    "id": 1542,
    "address": "Алтуфьевское Шоссе, Д.80",
    "name": "Billa",
    "city": "Москва",
    "date_review": "11/1/2019",
    "holding_name": "REWE Group",
    "website": "https://www.billa.ru",
    "working_time": "",
    "lon": 37.6154,
    "lat": 55.74279
  },
  {
    "id": 1554,
    "address": "Анадырский Пр-Д, Д.63а",
    "name": "Billa",
    "city": "Москва",
    "date_review": "11/1/2019",
    "holding_name": "REWE Group",
    "website": "https://www.billa.ru",
    "working_time": "",
    "lon": 37.70867,
    "lat": 55.880652
  },
  {
    "id": 1674,
    "address": "Армавирская Ул., Д.5",
    "name": "Billa",
    "city": "Москва",
    "date_review": "11/1/2019",
    "holding_name": "REWE Group",
    "website": "https://www.billa.ru",
    "working_time": "",
    "lon": 37.75176,
    "lat": 55.67543
  },
  {
    "id": 2134,
    "address": "Батайский Пр-Д, Д.69",
    "name": "Billa",
    "city": "Москва",
    "date_review": "11/1/2019",
    "holding_name": "REWE Group",
    "website": "https://www.billa.ru",
    "working_time": "",
    "lon": 37.74224,
    "lat": 55.64346
  },
  {
    "id": 2156,
    "address": "Бауманская Ул., Д.32, Стр.2",
    "name": "Billa",
    "city": "Москва",
    "date_review": "11/1/2019",
    "holding_name": "REWE Group",
    "website": "https://www.billa.ru",
    "working_time": "",
    "lon": 37.678192,
    "lat": 55.772363
  },
  {
    "id": 2782,
    "address": "Берингов Пр-Д, Д.3, Стр.6",
    "name": "Billa",
    "city": "Москва",
    "date_review": "11/1/2019",
    "holding_name": "REWE Group",
    "website": "https://www.billa.ru",
    "working_time": "",
    "lon": 37.65854,
    "lat": 55.85681
  },
  {
    "id": 2783,
    "address": "Берников Пер., Д.2",
    "name": "Billa",
    "city": "Москва",
    "date_review": "11/1/2019",
    "holding_name": "REWE Group",
    "website": "https://www.billa.ru",
    "working_time": "",
    "lon": 37.64956,
    "lat": 55.74892
  },
  {
    "id": 2918,
    "address": "Большая Академическая Ул., Д.17",
    "name": "Billa",
    "city": "Москва",
    "date_review": "11/1/2019",
    "holding_name": "REWE Group",
    "website": "https://www.billa.ru",
    "working_time": "",
    "lon": 37.52809,
    "lat": 55.82442
  },
  {
    "id": 2956,
    "address": "Большие Каменщики 6 С1а",
    "name": "Billa",
    "city": "Москва",
    "date_review": "11/1/2019",
    "holding_name": "REWE Group",
    "website": "https://www.billa.ru",
    "working_time": "",
    "lon": 37.653056,
    "lat": 55.737801
  },
  {
    "id": 2972,
    "address": "Борисовские Пруды Ул., Д.14, Корп.5",
    "name": "Billa",
    "city": "Москва",
    "date_review": "11/1/2019",
    "holding_name": "REWE Group",
    "website": "https://www.billa.ru",
    "working_time": "",
    "lon": 37.7471,
    "lat": 55.63286
  },
  {
    "id": 3028,
    "address": "Боровское Ш., Д.37, Корп.2",
    "name": "Billa",
    "city": "Москва",
    "date_review": "11/1/2019",
    "holding_name": "REWE Group",
    "website": "https://www.billa.ru",
    "working_time": "",
    "lon": 37.36122,
    "lat": 55.63958
  },
  {
    "id": 3040,
    "address": "Братиславская Ул., Д.30",
    "name": "Billa",
    "city": "Москва",
    "date_review": "11/1/2019",
    "holding_name": "REWE Group",
    "website": "https://www.billa.ru",
    "working_time": "",
    "lon": 37.76626,
    "lat": 55.65202
  },
  {
    "id": 3201,
    "address": "Бутырский Вал, Д.28",
    "name": "Billa",
    "city": "Москва",
    "date_review": "11/1/2019",
    "holding_name": "REWE Group",
    "website": "https://www.billa.ru",
    "working_time": "",
    "lon": 37.58701,
    "lat": 55.78277
  },
  {
    "id": 3231,
    "address": "Валдайский Пр-Д, Д.8",
    "name": "Billa",
    "city": "Москва",
    "date_review": "11/1/2019",
    "holding_name": "REWE Group",
    "website": "https://www.billa.ru",
    "working_time": "",
    "lon": 37.46792,
    "lat": 55.86616
  },
  {
    "id": 3380,
    "address": "Вешняковская 13а",
    "name": "Billa",
    "city": "Москва",
    "date_review": "11/1/2019",
    "holding_name": "REWE Group",
    "website": "https://www.billa.ru",
    "working_time": "",
    "lon": 37.829997,
    "lat": 55.735849
  },
  {
    "id": 3407,
    "address": "Винокурова Ул., Д.4, Корп.1",
    "name": "Billa",
    "city": "Москва",
    "date_review": "11/1/2019",
    "holding_name": "REWE Group",
    "website": "https://www.billa.ru",
    "working_time": "",
    "lon": 37.5828,
    "lat": 55.68917
  },
  {
    "id": 3518,
    "address": "Волгоградский Пр-Т, Д.73, Стр.1",
    "name": "Billa",
    "city": "Москва",
    "date_review": "11/1/2019",
    "holding_name": "REWE Group",
    "website": "https://www.billa.ru",
    "working_time": "",
    "lon": 37.74422,
    "lat": 55.71001
  },
  {
    "id": 3528,
    "address": "Волжский Б-Р, Квартал 114а, Корп.10",
    "name": "Billa",
    "city": "Москва",
    "date_review": "11/1/2019",
    "holding_name": "REWE Group",
    "website": "https://www.billa.ru",
    "working_time": "",
    "lon": 37.75197,
    "lat": 55.70109
  },
  {
    "id": 3664,
    "address": "Воронежская Ул., Д.7",
    "name": "Billa",
    "city": "Москва",
    "date_review": "11/1/2019",
    "holding_name": "REWE Group",
    "website": "https://www.billa.ru",
    "working_time": "",
    "lon": 37.727995,
    "lat": 55.610075
  },
  {
    "id": 5176,
    "address": "Г.Зеленоград, Корпус 1006а",
    "name": "Billa",
    "city": "Москва",
    "date_review": "11/1/2019",
    "holding_name": "REWE Group",
    "website": "https://www.billa.ru",
    "working_time": "",
    "lon": 37.17608,
    "lat": 55.98406
  },
  {
    "id": 5318,
    "address": "Гарибальди Ул., Д.4г",
    "name": "Billa",
    "city": "Москва",
    "date_review": "11/1/2019",
    "holding_name": "REWE Group",
    "website": "https://www.billa.ru",
    "working_time": "",
    "lon": 37.53438,
    "lat": 55.67693
  },
  {
    "id": 5384,
    "address": "Генерала Белобородова Ул.,  Д.17,19",
    "name": "Billa",
    "city": "Москва",
    "date_review": "11/1/2019",
    "holding_name": "REWE Group",
    "website": "https://www.billa.ru",
    "working_time": "",
    "lon": 37.35749,
    "lat": 55.83566
  },
  {
    "id": 5385,
    "address": "Генерала Белова 35",
    "name": "Billa",
    "city": "Москва",
    "date_review": "11/1/2019",
    "holding_name": "REWE Group",
    "website": "https://www.billa.ru",
    "working_time": "",
    "lon": 37.723951,
    "lat": 55.610829
  },
  {
    "id": 5386,
    "address": "Генерала Белова Ул., Д. 59",
    "name": "Billa",
    "city": "Москва",
    "date_review": "11/1/2019",
    "holding_name": "REWE Group",
    "website": "https://www.billa.ru",
    "working_time": "",
    "lon": 37.72736,
    "lat": 55.60287
  },
  {
    "id": 5405,
    "address": "Генерала Тюленева Ул., Д.4а, Стр.3",
    "name": "Billa",
    "city": "Москва",
    "date_review": "11/1/2019",
    "holding_name": "REWE Group",
    "website": "https://www.billa.ru",
    "working_time": "",
    "lon": 37.48351,
    "lat": 55.62548
  },
  {
    "id": 5658,
    "address": "Грина 22а",
    "name": "Billa",
    "city": "Москва",
    "date_review": "11/1/2019",
    "holding_name": "REWE Group",
    "website": "https://www.billa.ru",
    "working_time": "",
    "lon": 37.572252,
    "lat": 55.567412
  },
  {
    "id": 5885,
    "address": "Дегунинская Ул, Д.13",
    "name": "Billa",
    "city": "Москва",
    "date_review": "11/1/2019",
    "holding_name": "REWE Group",
    "website": "https://www.billa.ru",
    "working_time": "",
    "lon": 37.53637,
    "lat": 55.86513
  },
  {
    "id": 6096,
    "address": "Дмитровское Шоссе 98",
    "name": "Billa",
    "city": "Москва",
    "date_review": "11/1/2019",
    "holding_name": "REWE Group",
    "website": "https://www.billa.ru",
    "working_time": "",
    "lon": 37.547252,
    "lat": 55.879394
  },
  {
    "id": 6166,
    "address": "Духовской Пер.16",
    "name": "Billa",
    "city": "Москва",
    "date_review": "11/1/2019",
    "holding_name": "REWE Group",
    "website": "https://www.billa.ru",
    "working_time": "",
    "lon": 37.616926,
    "lat": 55.705772
  },
  {
    "id": 6199,
    "address": "Дубнинская Ул., Д.12, Корп.3",
    "name": "Billa",
    "city": "Москва",
    "date_review": "11/1/2019",
    "holding_name": "REWE Group",
    "website": "https://www.billa.ru",
    "working_time": "",
    "lon": 37.57061,
    "lat": 55.86561
  },
  {
    "id": 6211,
    "address": "Дудинка Ул., Д.2, Корп.1",
    "name": "Billa",
    "city": "Москва",
    "date_review": "11/1/2019",
    "holding_name": "REWE Group",
    "website": "https://www.billa.ru",
    "working_time": "",
    "lon": 37.68944,
    "lat": 55.86204
  },
  {
    "id": 6303,
    "address": "Живописная Ул., Д.12, Корп.1",
    "name": "Billa",
    "city": "Москва",
    "date_review": "11/1/2019",
    "holding_name": "REWE Group",
    "website": "https://www.billa.ru",
    "working_time": "",
    "lon": 37.45678,
    "lat": 55.78431
  },
  {
    "id": 6560,
    "address": "Зеленый Пр-Т, Д.24, Стр.1",
    "name": "Billa",
    "city": "Москва",
    "date_review": "11/1/2019",
    "holding_name": "REWE Group",
    "website": "https://www.billa.ru",
    "working_time": "",
    "lon": 37.78991,
    "lat": 55.75043
  },
  {
    "id": 6669,
    "address": "Измайловская Пл-Дь, Д.8",
    "name": "Billa",
    "city": "Москва",
    "date_review": "11/1/2019",
    "holding_name": "REWE Group",
    "website": "https://www.billa.ru",
    "working_time": "",
    "lon": 37.77609,
    "lat": 55.79466
  },
  {
    "id": 6671,
    "address": "Измайловский Б-Р, Д.60/10",
    "name": "Billa",
    "city": "Москва",
    "date_review": "11/1/2019",
    "holding_name": "REWE Group",
    "website": "https://www.billa.ru",
    "working_time": "",
    "lon": 37.81368,
    "lat": 55.79663
  },
  {
    "id": 6673,
    "address": "Измайловский Пр-Д, Д.3, Корп.2",
    "name": "Billa",
    "city": "Москва",
    "date_review": "11/1/2019",
    "holding_name": "REWE Group",
    "website": "https://www.billa.ru",
    "working_time": "",
    "lon": 37.7686,
    "lat": 55.7956
  },
  {
    "id": 6691,
    "address": "Изюмская Ул., Д.36",
    "name": "Billa",
    "city": "Москва",
    "date_review": "11/1/2019",
    "holding_name": "REWE Group",
    "website": "https://www.billa.ru",
    "working_time": "",
    "lon": 37.56535,
    "lat": 55.54746
  },
  {
    "id": 7015,
    "address": "Исаковского Ул., Д.6, Корп.2",
    "name": "Billa",
    "city": "Москва",
    "date_review": "11/1/2019",
    "holding_name": "REWE Group",
    "website": "https://www.billa.ru",
    "working_time": "",
    "lon": 37.40333,
    "lat": 55.81689
  },
  {
    "id": 7327,
    "address": "Кантемировская Ул., Д.17, Корп.1",
    "name": "Billa",
    "city": "Москва",
    "date_review": "11/1/2019",
    "holding_name": "REWE Group",
    "website": "https://www.billa.ru",
    "working_time": "",
    "lon": 37.66843,
    "lat": 55.6363
  },
  {
    "id": 7328,
    "address": "Кантемировская Ул., Д.20, Корп.1",
    "name": "Billa",
    "city": "Москва",
    "date_review": "11/1/2019",
    "holding_name": "REWE Group",
    "website": "https://www.billa.ru",
    "working_time": "",
    "lon": 37.66132,
    "lat": 55.63876
  },
  {
    "id": 7898,
    "address": "Кировоградская Ул., Д.9, Корп.1",
    "name": "Billa",
    "city": "Москва",
    "date_review": "11/1/2019",
    "holding_name": "REWE Group",
    "website": "https://www.billa.ru",
    "working_time": "",
    "lon": 37.61193,
    "lat": 55.62562
  },
  {
    "id": 8025,
    "address": "Ключевая Ул., Д.8, Корп.1",
    "name": "Billa",
    "city": "Москва",
    "date_review": "11/1/2019",
    "holding_name": "REWE Group",
    "website": "https://www.billa.ru",
    "working_time": "",
    "lon": 37.75831,
    "lat": 55.63708
  },
  {
    "id": 8065,
    "address": "Колодезный Пер., Д.3",
    "name": "Billa",
    "city": "Москва",
    "date_review": "11/1/2019",
    "holding_name": "REWE Group",
    "website": "https://www.billa.ru",
    "working_time": "",
    "lon": 37.69742,
    "lat": 55.79819
  },
  {
    "id": 8328,
    "address": "Комсомольская Пл-Дь, Д.2",
    "name": "Billa",
    "city": "Москва",
    "date_review": "11/1/2019",
    "holding_name": "REWE Group",
    "website": "https://www.billa.ru",
    "working_time": "",
    "lon": 37.65074,
    "lat": 55.78223
  },
  {
    "id": 8329,
    "address": "Комсомольская Пл-Дь, Д.6",
    "name": "Billa",
    "city": "Москва",
    "date_review": "11/1/2019",
    "holding_name": "REWE Group",
    "website": "https://www.billa.ru",
    "working_time": "",
    "lon": 37.660339,
    "lat": 55.775883
  },
  {
    "id": 8698,
    "address": "Красная Пресня Ул., Д.23, Корп. Б, Стр.1",
    "name": "Billa",
    "city": "Москва",
    "date_review": "11/1/2019",
    "holding_name": "REWE Group",
    "website": "https://www.billa.ru",
    "working_time": "",
    "lon": 37.568814,
    "lat": 55.761595
  },
  {
    "id": 8770,
    "address": "Краснобогатырская Ул., Д.23",
    "name": "Billa",
    "city": "Москва",
    "date_review": "11/1/2019",
    "holding_name": "REWE Group",
    "website": "https://www.billa.ru",
    "working_time": "",
    "lon": 37.702224,
    "lat": 55.811315
  },
  {
    "id": 8787,
    "address": "Красного Маяка Ул., Д.9",
    "name": "Billa",
    "city": "Москва",
    "date_review": "11/1/2019",
    "holding_name": "REWE Group",
    "website": "https://www.billa.ru",
    "working_time": "",
    "lon": 37.588542,
    "lat": 55.611284
  },
  {
    "id": 8837,
    "address": "Краснодарская Ул., Д.57, Корп.1",
    "name": "Billa",
    "city": "Москва",
    "date_review": "11/1/2019",
    "holding_name": "REWE Group",
    "website": "https://www.billa.ru",
    "working_time": "",
    "lon": 37.76692,
    "lat": 55.67668
  },
  {
    "id": 8989,
    "address": "Крылатские Холмы 29",
    "name": "Billa",
    "city": "Москва",
    "date_review": "11/1/2019",
    "holding_name": "REWE Group",
    "website": "https://www.billa.ru",
    "working_time": "",
    "lon": 37.417437,
    "lat": 55.756619
  },
  {
    "id": 9647,
    "address": "Ленинградское Ш., Д.58, Стр.26",
    "name": "Billa",
    "city": "Москва",
    "date_review": "11/1/2019",
    "holding_name": "REWE Group",
    "website": "https://www.billa.ru",
    "working_time": "",
    "lon": 37.48422,
    "lat": 55.8425
  },
  {
    "id": 9659,
    "address": "Ленинский Пр-Т, Д.74",
    "name": "Billa",
    "city": "Москва",
    "date_review": "11/1/2019",
    "holding_name": "REWE Group",
    "website": "https://www.billa.ru",
    "working_time": "",
    "lon": 37.53789,
    "lat": 55.6838
  },
  {
    "id": 9758,
    "address": "Лермонтовский Проспект 10",
    "name": "Billa",
    "city": "Москва",
    "date_review": "11/1/2019",
    "holding_name": "REWE Group",
    "website": "https://www.billa.ru",
    "working_time": "",
    "lon": 37.851799,
    "lat": 55.700557
  },
  {
    "id": 9776,
    "address": "Летчика Бабушкина Ул., Д.24",
    "name": "Billa",
    "city": "Москва",
    "date_review": "11/1/2019",
    "holding_name": "REWE Group",
    "website": "https://www.billa.ru",
    "working_time": "",
    "lon": 37.67572,
    "lat": 55.86625
  },
  {
    "id": 9798,
    "address": "Линии Октябрьской Железной Дороги Ул., Д.2, Стр.2",
    "name": "Billa",
    "city": "Москва",
    "date_review": "11/1/2019",
    "holding_name": "REWE Group",
    "website": "https://www.billa.ru",
    "working_time": "",
    "lon": 37.57208,
    "lat": 55.83884
  },
  {
    "id": 9854,
    "address": "Лобненская Ул 14",
    "name": "Billa",
    "city": "Москва",
    "date_review": "11/1/2019",
    "holding_name": "REWE Group",
    "website": "https://www.billa.ru",
    "working_time": "",
    "lon": 37.525091,
    "lat": 55.893985
  },
  {
    "id": 10040,
    "address": "Люблинская Ул., Д.59",
    "name": "Billa",
    "city": "Москва",
    "date_review": "11/1/2019",
    "holding_name": "REWE Group",
    "website": "https://www.billa.ru",
    "working_time": "",
    "lon": 37.73798,
    "lat": 55.68553
  },
  {
    "id": 10289,
    "address": "Маршала Василевского Ул., Д.17.",
    "name": "Billa",
    "city": "Москва",
    "date_review": "11/1/2019",
    "holding_name": "REWE Group",
    "website": "https://www.billa.ru",
    "working_time": "",
    "lon": 37.462318,
    "lat": 55.808869
  },
  {
    "id": 10301,
    "address": "Маршала Жукова Пр-Т, Д.42, Стр.1",
    "name": "Billa",
    "city": "Москва",
    "date_review": "11/1/2019",
    "holding_name": "REWE Group",
    "website": "https://www.billa.ru",
    "working_time": "",
    "lon": 37.38983,
    "lat": 55.78602
  },
  {
    "id": 10466,
    "address": "Менжинского Ул., Д. 32",
    "name": "Billa",
    "city": "Москва",
    "date_review": "11/1/2019",
    "holding_name": "REWE Group",
    "website": "https://www.billa.ru",
    "working_time": "",
    "lon": 37.66671,
    "lat": 55.8696
  },
  {
    "id": 10516,
    "address": "Миклухо-Маклая Ул., Д.36a",
    "name": "Billa",
    "city": "Москва",
    "date_review": "11/1/2019",
    "holding_name": "REWE Group",
    "website": "https://www.billa.ru",
    "working_time": "",
    "lon": 37.532938,
    "lat": 55.640163
  },
  {
    "id": 10700,
    "address": "Митинская Ул., Д.53",
    "name": "Billa",
    "city": "Москва",
    "date_review": "11/1/2019",
    "holding_name": "REWE Group",
    "website": "https://www.billa.ru",
    "working_time": "",
    "lon": 37.35124,
    "lat": 55.853245
  },
  {
    "id": 10711,
    "address": "Михалковская Ул. 28",
    "name": "Billa",
    "city": "Москва",
    "date_review": "11/1/2019",
    "holding_name": "REWE Group",
    "website": "https://www.billa.ru",
    "working_time": "",
    "lon": 37.525791,
    "lat": 55.840422
  },
  {
    "id": 10712,
    "address": "Михалковская Ул., Д.6",
    "name": "Billa",
    "city": "Москва",
    "date_review": "11/1/2019",
    "holding_name": "REWE Group",
    "website": "https://www.billa.ru",
    "working_time": "",
    "lon": 37.53688,
    "lat": 55.83747
  },
  {
    "id": 10736,
    "address": "Мичуринский Пр-Т, Олимпийская Деревня, Д.4, Корп.3",
    "name": "Billa",
    "city": "Москва",
    "date_review": "11/1/2019",
    "holding_name": "REWE Group",
    "website": "https://www.billa.ru",
    "working_time": "",
    "lon": 37.470617,
    "lat": 55.675323
  },
  {
    "id": 11281,
    "address": "Молостовых Ул., Д.13, Корп.1",
    "name": "Billa",
    "city": "Москва",
    "date_review": "11/1/2019",
    "holding_name": "REWE Group",
    "website": "https://www.billa.ru",
    "working_time": "",
    "lon": 37.83283,
    "lat": 55.75575
  },
  {
    "id": 11577,
    "address": "Москва, Дмитровское Шоссе, 101, Корп1",
    "name": "Billa",
    "city": "Москва",
    "date_review": "11/1/2019",
    "holding_name": "REWE Group",
    "website": "https://www.billa.ru",
    "working_time": "",
    "lon": 37.546047,
    "lat": 55.875772
  },
  {
    "id": 11655,
    "address": "Москва, Ул. Краснобогатырская, 13",
    "name": "Billa",
    "city": "Москва",
    "date_review": "11/1/2019",
    "holding_name": "REWE Group",
    "website": "https://www.billa.ru",
    "working_time": "",
    "lon": 37.693947,
    "lat": 55.815276
  },
  {
    "id": 11697,
    "address": "Московская 3а",
    "name": "Billa",
    "city": "Москва",
    "date_review": "11/1/2019",
    "holding_name": "REWE Group",
    "website": "https://www.billa.ru",
    "working_time": "",
    "lon": 37.367643,
    "lat": 55.593456
  },
  {
    "id": 12100,
    "address": "Народного Ополчения Ул., Д.28, Корп.1",
    "name": "Billa",
    "city": "Москва",
    "date_review": "11/1/2019",
    "holding_name": "REWE Group",
    "website": "https://www.billa.ru",
    "working_time": "",
    "lon": 37.48075,
    "lat": 55.78067
  },
  {
    "id": 12101,
    "address": "Народного Ополчения Ул., Д.29, Корп.1",
    "name": "Billa",
    "city": "Москва",
    "date_review": "11/1/2019",
    "holding_name": "REWE Group",
    "website": "https://www.billa.ru",
    "working_time": "",
    "lon": 37.47971,
    "lat": 55.78163
  },
  {
    "id": 12511,
    "address": "Новочеркасский Б-Р, Д.20, Корп.1",
    "name": "Billa",
    "city": "Москва",
    "date_review": "11/1/2019",
    "holding_name": "REWE Group",
    "website": "https://www.billa.ru",
    "working_time": "",
    "lon": 37.71943,
    "lat": 55.64579
  },
  {
    "id": 12512,
    "address": "Новочеркасский Б-Р, Д.41, Корп.4",
    "name": "Billa",
    "city": "Москва",
    "date_review": "11/1/2019",
    "holding_name": "REWE Group",
    "website": "https://www.billa.ru",
    "working_time": "",
    "lon": 37.736262,
    "lat": 55.648189
  },
  {
    "id": 12606,
    "address": "Овчинниковская Наб., Д.22/24, Стр.1",
    "name": "Billa",
    "city": "Москва",
    "date_review": "11/1/2019",
    "holding_name": "REWE Group",
    "website": "https://www.billa.ru",
    "working_time": "",
    "lon": 37.63375,
    "lat": 55.74354
  },
  {
    "id": 12660,
    "address": "Озерная Ул., Д.42",
    "name": "Billa",
    "city": "Москва",
    "date_review": "11/1/2019",
    "holding_name": "REWE Group",
    "website": "https://www.billa.ru",
    "working_time": "",
    "lon": 37.445,
    "lat": 55.67173
  },
  {
    "id": 13002,
    "address": "Отрадная Ул., Д.7",
    "name": "Billa",
    "city": "Москва",
    "date_review": "11/1/2019",
    "holding_name": "REWE Group",
    "website": "https://www.billa.ru",
    "working_time": "",
    "lon": 37.61019,
    "lat": 55.85745
  },
  {
    "id": 13156,
    "address": "Павла Корчагина Ул., Д. 3а",
    "name": "Billa",
    "city": "Москва",
    "date_review": "11/1/2019",
    "holding_name": "REWE Group",
    "website": "https://www.billa.ru",
    "working_time": "",
    "lon": 37.65647,
    "lat": 55.81405
  },
  {
    "id": 13188,
    "address": "Паромная Ул., Д.9, Корп.4",
    "name": "Billa",
    "city": "Москва",
    "date_review": "11/1/2019",
    "holding_name": "REWE Group",
    "website": "https://www.billa.ru",
    "working_time": "",
    "lon": 37.763476,
    "lat": 55.636345
  },
  {
    "id": 13280,
    "address": "Партизанская Ул., Д.10",
    "name": "Billa",
    "city": "Москва",
    "date_review": "11/1/2019",
    "holding_name": "REWE Group",
    "website": "https://www.billa.ru",
    "working_time": "",
    "lon": 37.41254,
    "lat": 55.7323
  },
  {
    "id": 13754,
    "address": "Перовская Ул., Д.32",
    "name": "Billa",
    "city": "Москва",
    "date_review": "11/1/2019",
    "holding_name": "REWE Group",
    "website": "https://www.billa.ru",
    "working_time": "",
    "lon": 37.77546,
    "lat": 55.74564
  },
  {
    "id": 16732,
    "address": "Проспект Мира 122",
    "name": "Billa",
    "city": "Москва",
    "date_review": "11/1/2019",
    "holding_name": "REWE Group",
    "website": "https://www.billa.ru",
    "working_time": "",
    "lon": 37.63871,
    "lat": 55.81304
  },
  {
    "id": 16752,
    "address": "Профсоюзная Ул., Д. 104",
    "name": "Billa",
    "city": "Москва",
    "date_review": "11/1/2019",
    "holding_name": "REWE Group",
    "website": "https://www.billa.ru",
    "working_time": "",
    "lon": 37.52351,
    "lat": 55.64167
  },
  {
    "id": 16874,
    "address": "Пятницкое Ш., Д.21, Корп.1",
    "name": "Billa",
    "city": "Москва",
    "date_review": "11/1/2019",
    "holding_name": "REWE Group",
    "website": "https://www.billa.ru",
    "working_time": "",
    "lon": 37.3734,
    "lat": 55.84628
  },
  {
    "id": 17091,
    "address": "Рижский Пр-Д, Д.11",
    "name": "Billa",
    "city": "Москва",
    "date_review": "11/1/2019",
    "holding_name": "REWE Group",
    "website": "https://www.billa.ru",
    "working_time": "",
    "lon": 37.66266,
    "lat": 55.81653
  },
  {
    "id": 17112,
    "address": "Рогожский Вал, Д.3",
    "name": "Billa",
    "city": "Москва",
    "date_review": "11/1/2019",
    "holding_name": "REWE Group",
    "website": "https://www.billa.ru",
    "working_time": "",
    "lon": 37.6794,
    "lat": 55.74524
  },
  {
    "id": 17189,
    "address": "Россошанский Пр-Д, Д.8, Корп.1",
    "name": "Billa",
    "city": "Москва",
    "date_review": "11/1/2019",
    "holding_name": "REWE Group",
    "website": "https://www.billa.ru",
    "working_time": "",
    "lon": 37.60453,
    "lat": 55.59751
  },
  {
    "id": 17274,
    "address": "Руставели Ул., Д.8, Корп.1",
    "name": "Billa",
    "city": "Москва",
    "date_review": "11/1/2019",
    "holding_name": "REWE Group",
    "website": "https://www.billa.ru",
    "working_time": "",
    "lon": 37.59017,
    "lat": 55.81239
  },
  {
    "id": 17350,
    "address": "Рязанский Пр-Т, Д.75, Стр.1",
    "name": "Billa",
    "city": "Москва",
    "date_review": "11/1/2019",
    "holding_name": "REWE Group",
    "website": "https://www.billa.ru",
    "working_time": "",
    "lon": 37.79248,
    "lat": 55.7178
  },
  {
    "id": 17414,
    "address": "Савёлкинский Пр-Д, Д.8",
    "name": "Billa",
    "city": "Зеленоград, Москва",
    "date_review": "11/1/2019",
    "holding_name": "REWE Group",
    "website": "https://www.billa.ru",
    "working_time": "",
    "lon": 37.21962,
    "lat": 55.99108
  },
  {
    "id": 17779,
    "address": "Северный Б-Р, Д.10",
    "name": "Billa",
    "city": "Москва",
    "date_review": "11/1/2019",
    "holding_name": "REWE Group",
    "website": "https://www.billa.ru",
    "working_time": "",
    "lon": 37.61691,
    "lat": 55.868
  },
  {
    "id": 18833,
    "address": "Сущевский Вал Ул.,  Д.31, Стр.1",
    "name": "Billa",
    "city": "Москва",
    "date_review": "11/1/2019",
    "holding_name": "REWE Group",
    "website": "https://www.billa.ru",
    "working_time": "",
    "lon": 37.60406,
    "lat": 55.7937
  },
  {
    "id": 18834,
    "address": "Сущевский Вал, 9",
    "name": "Billa",
    "city": "Москва",
    "date_review": "11/1/2019",
    "holding_name": "REWE Group",
    "website": "https://www.billa.ru",
    "working_time": "",
    "lon": 37.5933,
    "lat": 55.792787
  },
  {
    "id": 18872,
    "address": "Талалихина Ул., Д.3, Стр.2",
    "name": "Billa",
    "city": "Москва",
    "date_review": "11/1/2019",
    "holding_name": "REWE Group",
    "website": "https://www.billa.ru",
    "working_time": "",
    "lon": 37.679026,
    "lat": 55.734222
  },
  {
    "id": 19649,
    "address": "Тихорецкий Б-Р, Д.12, Корп.1",
    "name": "Billa",
    "city": "Москва",
    "date_review": "11/1/2019",
    "holding_name": "REWE Group",
    "website": "https://www.billa.ru",
    "working_time": "",
    "lon": 37.77445,
    "lat": 55.67765
  },
  {
    "id": 39185,
    "address": "Уральская Ул., Д.3",
    "name": "Billa",
    "city": "Москва",
    "date_review": "11/1/2019",
    "holding_name": "REWE Group",
    "website": "https://www.billa.ru",
    "working_time": "",
    "lon": 37.79714,
    "lat": 55.81276
  },
  {
    "id": 39225,
    "address": "Усачева Ул., Д.35, Стр.1",
    "name": "Billa",
    "city": "Москва",
    "date_review": "11/1/2019",
    "holding_name": "REWE Group",
    "website": "https://www.billa.ru",
    "working_time": "",
    "lon": 37.5608,
    "lat": 55.722596
  },
  {
    "id": 39244,
    "address": "Уссурийская Ул., Д.1, Корп.1",
    "name": "Billa",
    "city": "Москва",
    "date_review": "11/1/2019",
    "holding_name": "REWE Group",
    "website": "https://www.billa.ru",
    "working_time": "",
    "lon": 37.80954,
    "lat": 55.82375
  },
  {
    "id": 39393,
    "address": "Фрунзенская Наб., Д. 30, Стр.2",
    "name": "Billa",
    "city": "Москва",
    "date_review": "11/1/2019",
    "holding_name": "REWE Group",
    "website": "https://www.billa.ru",
    "working_time": "",
    "lon": 37.58346,
    "lat": 55.72567
  },
  {
    "id": 39423,
    "address": "Хабаровская Ул., Д.12/23",
    "name": "Billa",
    "city": "Москва",
    "date_review": "11/1/2019",
    "holding_name": "REWE Group",
    "website": "https://www.billa.ru",
    "working_time": "",
    "lon": 37.82676,
    "lat": 55.82172
  },
  {
    "id": 39443,
    "address": "Харьковская Ул., Д.2",
    "name": "Billa",
    "city": "Москва",
    "date_review": "11/1/2019",
    "holding_name": "REWE Group",
    "website": "https://www.billa.ru",
    "working_time": "",
    "lon": 37.65298,
    "lat": 55.58791
  },
  {
    "id": 39444,
    "address": "Хачатуряна 7",
    "name": "Billa",
    "city": "Москва",
    "date_review": "11/1/2019",
    "holding_name": "REWE Group",
    "website": "https://www.billa.ru",
    "working_time": "",
    "lon": 37.592896,
    "lat": 55.858225
  },
  {
    "id": 39471,
    "address": "Хлобыстова Ул., Д.20, Корп.1",
    "name": "Billa",
    "city": "Москва",
    "date_review": "11/1/2019",
    "holding_name": "REWE Group",
    "website": "https://www.billa.ru",
    "working_time": "",
    "lon": 37.8113,
    "lat": 55.71689
  },
  {
    "id": 39499,
    "address": "Хромова Ул., Д.3",
    "name": "Billa",
    "city": "Москва",
    "date_review": "11/1/2019",
    "holding_name": "REWE Group",
    "website": "https://www.billa.ru",
    "working_time": "",
    "lon": 37.71592,
    "lat": 55.7999
  },
  {
    "id": 39645,
    "address": "Часовая Ул., Д.13",
    "name": "Billa",
    "city": "Москва",
    "date_review": "11/1/2019",
    "holding_name": "REWE Group",
    "website": "https://www.billa.ru",
    "working_time": "",
    "lon": 37.527945,
    "lat": 55.808245
  },
  {
    "id": 39842,
    "address": "Чусовская 13",
    "name": "Billa",
    "city": "Москва",
    "date_review": "11/1/2019",
    "holding_name": "REWE Group",
    "website": "https://www.billa.ru",
    "working_time": "",
    "lon": 37.811281,
    "lat": 55.815786
  },
  {
    "id": 40399,
    "address": "Широкая Ул., Д.12б",
    "name": "Billa",
    "city": "Москва",
    "date_review": "11/1/2019",
    "holding_name": "REWE Group",
    "website": "https://www.billa.ru",
    "working_time": "",
    "lon": 37.66051,
    "lat": 55.88652
  },
  {
    "id": 40400,
    "address": "Широкая Ул., Д.31",
    "name": "Billa",
    "city": "Москва",
    "date_review": "11/1/2019",
    "holding_name": "REWE Group",
    "website": "https://www.billa.ru",
    "working_time": "",
    "lon": 37.6784,
    "lat": 55.88768
  },
  {
    "id": 40527,
    "address": "Щелковское Ш., Д.27а",
    "name": "Billa",
    "city": "Москва",
    "date_review": "11/1/2019",
    "holding_name": "REWE Group",
    "website": "https://www.billa.ru",
    "working_time": "",
    "lon": 37.7735116,
    "lat": 55.808646
  },
  {
    "id": 40788,
    "address": "Яна Райниса Б-Р, Д. 41",
    "name": "Billa",
    "city": "Москва",
    "date_review": "11/1/2019",
    "holding_name": "REWE Group",
    "website": "https://www.billa.ru",
    "working_time": "",
    "lon": 37.41133,
    "lat": 55.85011
  },
  {
    "id": 40789,
    "address": "Яна Райниса Б-Р, Д.18, Корп.1",
    "name": "Billa",
    "city": "Москва",
    "date_review": "11/1/2019",
    "holding_name": "REWE Group",
    "website": "https://www.billa.ru",
    "working_time": "",
    "lon": 37.41766,
    "lat": 55.85
  },
  {
    "id": 40838,
    "address": "Ясный Пр-Д, Д.13, Стр.2",
    "name": "Billa",
    "city": "Москва",
    "date_review": "11/1/2019",
    "holding_name": "REWE Group",
    "website": "https://www.billa.ru",
    "working_time": "",
    "lon": 37.62117,
    "lat": 55.87444
  },
  {
    "id": 83,
    "address": "Огородный пр., 10, стр.4",
    "name": "SPAR",
    "city": "Москва",
    "date_review": "11/1/2019",
    "holding_name": "SPAR Russia B.V.",
    "website": "",
    "working_time": "",
    "lon": 37.603775,
    "lat": 55.814371
  },
  {
    "id": 126,
    "address": "уд.Элеваторная, 12к1",
    "name": "SPAR",
    "city": "Москва",
    "date_review": "11/1/2019",
    "holding_name": "SPAR Russia B.V.",
    "website": "",
    "working_time": "",
    "lon": 37.663876,
    "lat": 55.601102
  },
  {
    "id": 207,
    "address": "ул.Тверская,27,стр2",
    "name": "SPAR",
    "city": "Москва",
    "date_review": "11/1/2019",
    "holding_name": "SPAR Russia B.V.",
    "website": "",
    "working_time": "",
    "lon": 37.59733,
    "lat": 55.768745
  },
  {
    "id": 294,
    "address": "Анадырский пр., 57",
    "name": "SPAR",
    "city": "Москва",
    "date_review": "11/1/2019",
    "holding_name": "SPAR Russia B.V.",
    "website": "",
    "working_time": "",
    "lon": 37.705666,
    "lat": 55.878659
  },
  {
    "id": 1296,
    "address": "Авиационный пер., д.8",
    "name": "SPAR",
    "city": "Москва",
    "date_review": "11/1/2019",
    "holding_name": "SPAR Russia B.V.",
    "website": "",
    "working_time": "",
    "lon": 37.540885,
    "lat": 55.801158
  },
  {
    "id": 2785,
    "address": "Бескудниковский бульвар, 34к1с3",
    "name": "SPAR",
    "city": "Москва",
    "date_review": "11/1/2019",
    "holding_name": "SPAR Russia B.V.",
    "website": "",
    "working_time": "",
    "lon": 37.557365,
    "lat": 55.868221
  },
  {
    "id": 2938,
    "address": "Большая Семёновская ул., д. 17А",
    "name": "SPAR",
    "city": "Москва",
    "date_review": "11/1/2019",
    "holding_name": "SPAR Russia B.V.",
    "website": "",
    "working_time": "",
    "lon": 37.705778,
    "lat": 55.782891
  },
  {
    "id": 3265,
    "address": "Варшавское ш., д.141, корп. 9а, пом.5, пом.6",
    "name": "SPAR",
    "city": "Москва",
    "date_review": "11/1/2019",
    "holding_name": "SPAR Russia B.V.",
    "website": "",
    "working_time": "",
    "lon": 37.601886,
    "lat": 55.587773
  },
  {
    "id": 3266,
    "address": "Варшавское шоссе, 143а",
    "name": "SPAR",
    "city": "Москва",
    "date_review": "11/1/2019",
    "holding_name": "SPAR Russia B.V.",
    "website": "",
    "working_time": "",
    "lon": 37.599037,
    "lat": 55.583992
  },
  {
    "id": 3596,
    "address": "Волоколамское ш., 13",
    "name": "SPAR",
    "city": "Москва",
    "date_review": "11/1/2019",
    "holding_name": "SPAR Russia B.V.",
    "website": "",
    "working_time": "",
    "lon": 37.496464,
    "lat": 55.807666
  },
  {
    "id": 6553,
    "address": "Зеленоград, кор.1456",
    "name": "SPAR",
    "city": "Москва",
    "date_review": "11/1/2019",
    "holding_name": "SPAR Russia B.V.",
    "website": "",
    "working_time": "",
    "lon": 37.160073,
    "lat": 55.984506
  },
  {
    "id": 9927,
    "address": "Луговой пр., 2",
    "name": "SPAR",
    "city": "Москва",
    "date_review": "11/1/2019",
    "holding_name": "SPAR Russia B.V.",
    "website": "",
    "working_time": "",
    "lon": 37.750738,
    "lat": 55.651417
  },
  {
    "id": 12513,
    "address": "Новочеркасский бул., 7",
    "name": "SPAR",
    "city": "Москва",
    "date_review": "11/1/2019",
    "holding_name": "SPAR Russia B.V.",
    "website": "",
    "working_time": "",
    "lon": 37.721648,
    "lat": 55.647591
  },
  {
    "id": 13330,
    "address": "пер 1-й Вражский,д4",
    "name": "SPAR",
    "city": "Москва",
    "date_review": "11/1/2019",
    "holding_name": "SPAR Russia B.V.",
    "website": "",
    "working_time": "",
    "lon": 37.573668,
    "lat": 55.739605
  },
  {
    "id": 13506,
    "address": "пер. Нижний Сусальный, д.5, стр 3А",
    "name": "SPAR",
    "city": "Москва",
    "date_review": "11/1/2019",
    "holding_name": "SPAR Russia B.V.",
    "website": "",
    "working_time": "",
    "lon": 37.662718,
    "lat": 55.76016
  },
  {
    "id": 13578,
    "address": "пер. Семеновский, д. 21",
    "name": "SPAR",
    "city": "Москва",
    "date_review": "11/1/2019",
    "holding_name": "SPAR Russia B.V.",
    "website": "",
    "working_time": "",
    "lon": 37.717174,
    "lat": 55.782612
  },
  {
    "id": 14028,
    "address": "Плеханова ул., д. 16, к.1",
    "name": "SPAR",
    "city": "Москва",
    "date_review": "11/1/2019",
    "holding_name": "SPAR Russia B.V.",
    "website": "",
    "working_time": "",
    "lon": 37.764862,
    "lat": 55.744966
  },
  {
    "id": 14250,
    "address": "поселение Филимонковское, поселок Марьино, д.5, пом. 3",
    "name": "SPAR",
    "city": "Москва",
    "date_review": "11/1/2019",
    "holding_name": "SPAR Russia B.V.",
    "website": "",
    "working_time": "",
    "lon": 37.324414,
    "lat": 55.548443
  },
  {
    "id": 16482,
    "address": "пр.Кутузовский,9,корп1",
    "name": "SPAR",
    "city": "Москва",
    "date_review": "11/1/2019",
    "holding_name": "SPAR Russia B.V.",
    "website": "",
    "working_time": "",
    "lon": 37.560995,
    "lat": 55.748442
  },
  {
    "id": 16536,
    "address": "Пресненская набережная, дом 6, стр 2, подвал 1, пом 1, комн 54",
    "name": "SPAR",
    "city": "Москва",
    "date_review": "11/1/2019",
    "holding_name": "SPAR Russia B.V.",
    "website": "",
    "working_time": "",
    "lon": 37.540459,
    "lat": 55.748213
  },
  {
    "id": 16875,
    "address": "Пятницкое шоссе, 8",
    "name": "SPAR",
    "city": "Москва",
    "date_review": "11/1/2019",
    "holding_name": "SPAR Russia B.V.",
    "website": "",
    "working_time": "",
    "lon": 37.388286,
    "lat": 55.838244
  },
  {
    "id": 19905,
    "address": "Туристская, д. 27, к.1",
    "name": "SPAR",
    "city": "Москва",
    "date_review": "11/1/2019",
    "holding_name": "SPAR Russia B.V.",
    "website": "",
    "working_time": "",
    "lon": 37.419887,
    "lat": 55.855762
  },
  {
    "id": 20234,
    "address": "ул Дубининская, 55к1с2",
    "name": "SPAR",
    "city": "Москва",
    "date_review": "11/1/2019",
    "holding_name": "SPAR Russia B.V.",
    "website": "",
    "working_time": "",
    "lon": 37.635925,
    "lat": 55.721798
  },
  {
    "id": 20238,
    "address": "ул Летниковская,4",
    "name": "SPAR",
    "city": "Москва",
    "date_review": "11/1/2019",
    "holding_name": "SPAR Russia B.V.",
    "website": "",
    "working_time": "",
    "lon": 37.644256,
    "lat": 55.727986
  },
  {
    "id": 22054,
    "address": "ул. Большая Грузинская, д.57, стр.1",
    "name": "SPAR",
    "city": "Москва",
    "date_review": "11/1/2019",
    "holding_name": "SPAR Russia B.V.",
    "website": "",
    "working_time": "",
    "lon": 37.583976,
    "lat": 55.771809
  },
  {
    "id": 24355,
    "address": "ул. Долгоруковская,2",
    "name": "SPAR",
    "city": "Москва",
    "date_review": "11/1/2019",
    "holding_name": "SPAR Russia B.V.",
    "website": "",
    "working_time": "",
    "lon": 37.604552,
    "lat": 55.774425
  },
  {
    "id": 24452,
    "address": "ул. Дубининская, дом 2",
    "name": "SPAR",
    "city": "Москва",
    "date_review": "11/1/2019",
    "holding_name": "SPAR Russia B.V.",
    "website": "",
    "working_time": "",
    "lon": 37.636894,
    "lat": 55.727737
  },
  {
    "id": 28852,
    "address": "ул. Ленинский пр-кт, д. 40",
    "name": "SPAR",
    "city": "Москва",
    "date_review": "11/1/2019",
    "holding_name": "SPAR Russia B.V.",
    "website": "",
    "working_time": "",
    "lon": 37.570599,
    "lat": 55.703634
  },
  {
    "id": 32979,
    "address": "ул. Правды, д. 4",
    "name": "SPAR",
    "city": "Москва",
    "date_review": "11/1/2019",
    "holding_name": "SPAR Russia B.V.",
    "website": "",
    "working_time": "",
    "lon": 37.57695,
    "lat": 55.783657
  },
  {
    "id": 38695,
    "address": "ул.Богородский Вал, 6к2",
    "name": "SPAR",
    "city": "Москва",
    "date_review": "11/1/2019",
    "holding_name": "SPAR Russia B.V.",
    "website": "",
    "working_time": "",
    "lon": 37.70609,
    "lat": 55.802031
  },
  {
    "id": 38701,
    "address": "ул.Большая Спасская, 27",
    "name": "SPAR",
    "city": "Москва",
    "date_review": "11/1/2019",
    "holding_name": "SPAR Russia B.V.",
    "website": "",
    "working_time": "",
    "lon": 37.64218,
    "lat": 55.776024
  },
  {
    "id": 38703,
    "address": "ул.Большая Черёмушкинская, 11, корп.3",
    "name": "SPAR",
    "city": "Москва",
    "date_review": "11/1/2019",
    "holding_name": "SPAR Russia B.V.",
    "website": "",
    "working_time": "",
    "lon": 37.596665,
    "lat": 55.688395
  },
  {
    "id": 38711,
    "address": "ул.Братеевская, 16, корп.1",
    "name": "SPAR",
    "city": "Москва",
    "date_review": "11/1/2019",
    "holding_name": "SPAR Russia B.V.",
    "website": "",
    "working_time": "",
    "lon": 37.765739,
    "lat": 55.634384
  },
  {
    "id": 38761,
    "address": "ул.Декабристов, 15",
    "name": "SPAR",
    "city": "Москва",
    "date_review": "11/1/2019",
    "holding_name": "SPAR Russia B.V.",
    "website": "",
    "working_time": "",
    "lon": 37.60335,
    "lat": 55.865366
  },
  {
    "id": 38765,
    "address": "ул.Днепропетровская, 4а, стр.1",
    "name": "SPAR",
    "city": "Москва",
    "date_review": "11/1/2019",
    "holding_name": "SPAR Russia B.V.",
    "website": "",
    "working_time": "",
    "lon": 37.601508,
    "lat": 55.623182
  },
  {
    "id": 38791,
    "address": "ул.Изумрудная, 3с1",
    "name": "SPAR",
    "city": "Москва",
    "date_review": "11/1/2019",
    "holding_name": "SPAR Russia B.V.",
    "website": "",
    "working_time": "",
    "lon": 37.678924,
    "lat": 55.869856
  },
  {
    "id": 38796,
    "address": "ул.Инженерная, 3",
    "name": "SPAR",
    "city": "Москва",
    "date_review": "11/1/2019",
    "holding_name": "SPAR Russia B.V.",
    "website": "",
    "working_time": "",
    "lon": 37.58103,
    "lat": 55.879155
  },
  {
    "id": 38805,
    "address": "ул.Каргопольская, 11, корп.1",
    "name": "SPAR",
    "city": "Москва",
    "date_review": "11/1/2019",
    "holding_name": "SPAR Russia B.V.",
    "website": "",
    "working_time": "",
    "lon": 37.591117,
    "lat": 55.863116
  },
  {
    "id": 38810,
    "address": "ул.Каховка, 6",
    "name": "SPAR",
    "city": "Москва",
    "date_review": "11/1/2019",
    "holding_name": "SPAR Russia B.V.",
    "website": "",
    "working_time": "",
    "lon": 37.587741,
    "lat": 55.652242
  },
  {
    "id": 38876,
    "address": "ул.Ленинская Слобода, 19, эт.1, ком.41м4",
    "name": "SPAR",
    "city": "Москва",
    "date_review": "11/1/2019",
    "holding_name": "SPAR Russia B.V.",
    "website": "",
    "working_time": "",
    "lon": 37.653001,
    "lat": 55.708719
  },
  {
    "id": 38877,
    "address": "ул.Лескова, 16",
    "name": "SPAR",
    "city": "Москва",
    "date_review": "11/1/2019",
    "holding_name": "SPAR Russia B.V.",
    "website": "",
    "working_time": "",
    "lon": 37.605807,
    "lat": 55.897418
  },
  {
    "id": 38904,
    "address": "ул.Менжинского, 27",
    "name": "SPAR",
    "city": "Москва",
    "date_review": "11/1/2019",
    "holding_name": "SPAR Russia B.V.",
    "website": "",
    "working_time": "",
    "lon": 37.657209,
    "lat": 55.869956
  },
  {
    "id": 38909,
    "address": "ул.Миклухо-Маклая, 18, корп.3",
    "name": "SPAR",
    "city": "Москва",
    "date_review": "11/1/2019",
    "holding_name": "SPAR Russia B.V.",
    "website": "",
    "working_time": "",
    "lon": 37.520668,
    "lat": 55.644431
  },
  {
    "id": 38939,
    "address": "ул.Новопеределкинская, 10а",
    "name": "SPAR",
    "city": "Москва",
    "date_review": "11/1/2019",
    "holding_name": "SPAR Russia B.V.",
    "website": "",
    "working_time": "",
    "lon": 37.367152,
    "lat": 55.640936
  },
  {
    "id": 38940,
    "address": "ул.Новопесчаная  д.20/10, корп.2",
    "name": "SPAR",
    "city": "Москва",
    "date_review": "11/1/2019",
    "holding_name": "SPAR Russia B.V.",
    "website": "",
    "working_time": "",
    "lon": 37.509546,
    "lat": 55.79394
  },
  {
    "id": 38962,
    "address": "ул.Перовская, 13, корп.1",
    "name": "SPAR",
    "city": "Москва",
    "date_review": "11/1/2019",
    "holding_name": "SPAR Russia B.V.",
    "website": "",
    "working_time": "",
    "lon": 37.762035,
    "lat": 55.747531
  },
  {
    "id": 38968,
    "address": "ул.Площадь Победы, д2 к2",
    "name": "SPAR",
    "city": "Москва",
    "date_review": "11/1/2019",
    "holding_name": "SPAR Russia B.V.",
    "website": "",
    "working_time": "",
    "lon": 37.520595,
    "lat": 55.737775
  },
  {
    "id": 38976,
    "address": "ул.Покровская, 20",
    "name": "SPAR",
    "city": "Москва",
    "date_review": "11/1/2019",
    "holding_name": "SPAR Russia B.V.",
    "website": "",
    "working_time": "",
    "lon": 37.931429,
    "lat": 55.701944
  },
  {
    "id": 38998,
    "address": "ул.Рокотова, 5",
    "name": "SPAR",
    "city": "Москва",
    "date_review": "11/1/2019",
    "holding_name": "SPAR Russia B.V.",
    "website": "",
    "working_time": "",
    "lon": 37.551602,
    "lat": 55.6103
  },
  {
    "id": 38999,
    "address": "ул.Россошанская, 7, корп.1",
    "name": "SPAR",
    "city": "Москва",
    "date_review": "11/1/2019",
    "holding_name": "SPAR Russia B.V.",
    "website": "",
    "working_time": "",
    "lon": 37.61,
    "lat": 55.595448
  },
  {
    "id": 39024,
    "address": "ул.Старая Басманная, 24",
    "name": "SPAR",
    "city": "Москва",
    "date_review": "11/1/2019",
    "holding_name": "SPAR Russia B.V.",
    "website": "",
    "working_time": "",
    "lon": 37.666718,
    "lat": 55.767654
  },
  {
    "id": 39039,
    "address": "ул.Таллинская, 18",
    "name": "SPAR",
    "city": "Москва",
    "date_review": "11/1/2019",
    "holding_name": "SPAR Russia B.V.",
    "website": "",
    "working_time": "",
    "lon": 37.402547,
    "lat": 55.797369
  },
  {
    "id": 39072,
    "address": "ул.Ферганская, 21",
    "name": "SPAR",
    "city": "Москва",
    "date_review": "11/1/2019",
    "holding_name": "SPAR Russia B.V.",
    "website": "",
    "working_time": "",
    "lon": 37.820814,
    "lat": 55.705201
  },
  {
    "id": 39073,
    "address": "ул.Фестивальная, 8, стр.1",
    "name": "SPAR",
    "city": "Москва",
    "date_review": "11/1/2019",
    "holding_name": "SPAR Russia B.V.",
    "website": "",
    "working_time": "",
    "lon": 37.491968,
    "lat": 55.858694
  },
  {
    "id": 39090,
    "address": "ул.Чертановская, 45а",
    "name": "SPAR",
    "city": "Москва",
    "date_review": "11/1/2019",
    "holding_name": "SPAR Russia B.V.",
    "website": "",
    "working_time": "",
    "lon": 37.593157,
    "lat": 55.606661
  },
  {
    "id": 39099,
    "address": "ул.Шаболовка, 31г",
    "name": "SPAR",
    "city": "Москва",
    "date_review": "11/1/2019",
    "holding_name": "SPAR Russia B.V.",
    "website": "",
    "working_time": "",
    "lon": 37.610106,
    "lat": 55.720175
  },
  {
    "id": 39110,
    "address": "ул.Южнобутовская, 58",
    "name": "SPAR",
    "city": "Москва",
    "date_review": "11/1/2019",
    "holding_name": "SPAR Russia B.V.",
    "website": "",
    "working_time": "",
    "lon": 37.529361,
    "lat": 55.53689
  },
  {
    "id": 39113,
    "address": "ул.Ясеневая, 30",
    "name": "SPAR",
    "city": "Москва",
    "date_review": "11/1/2019",
    "holding_name": "SPAR Russia B.V.",
    "website": "",
    "working_time": "",
    "lon": 37.739004,
    "lat": 55.604421
  },
  {
    "id": 39114,
    "address": "ул.Ясногорская д.7а",
    "name": "SPAR",
    "city": "Москва",
    "date_review": "11/1/2019",
    "holding_name": "SPAR Russia B.V.",
    "website": "",
    "working_time": "",
    "lon": 37.538782,
    "lat": 55.608958
  },
  {
    "id": 40814,
    "address": "Ярославское шоссе, 115",
    "name": "SPAR",
    "city": "Москва",
    "date_review": "11/1/2019",
    "holding_name": "SPAR Russia B.V.",
    "website": "",
    "working_time": "",
    "lon": 37.710925,
    "lat": 55.871845
  },
  {
    "id": 40816,
    "address": "Ярославское шоссе, д.28",
    "name": "SPAR",
    "city": "Москва",
    "date_review": "11/1/2019",
    "holding_name": "SPAR Russia B.V.",
    "website": "",
    "working_time": "",
    "lon": 37.694124,
    "lat": 55.860882
  },
  {
    "id": 11504,
    "address": "Москва, 1-й Смоленский переулок, вл19-21",
    "name": "Азбука Вкуса",
    "city": "Москва",
    "date_review": "11/1/2019",
    "holding_name": "Азбука Вкуса",
    "website": "",
    "working_time": "00:00-24:00",
    "lon": 37.578469,
    "lat": 55.750164
  },
  {
    "id": 11505,
    "address": "Москва, 1-я Тверская-Ямская улица",
    "name": "Азбука Вкуса",
    "city": "Москва",
    "date_review": "11/1/2019",
    "holding_name": "Азбука Вкуса",
    "website": "",
    "working_time": "00:00-24:00",
    "lon": 37.587477,
    "lat": 55.774878
  },
  {
    "id": 11506,
    "address": "Москва, 2-я Песчаная улица, 1/18",
    "name": "Азбука Вкуса",
    "city": "Москва",
    "date_review": "11/1/2019",
    "holding_name": "Азбука Вкуса",
    "website": "",
    "working_time": "00:00-24:00",
    "lon": 37.517898,
    "lat": 55.795977
  },
  {
    "id": 11507,
    "address": "Москва, 2-я Тверская-Ямская улица, 54",
    "name": "Азбука Вкуса",
    "city": "Москва",
    "date_review": "11/1/2019",
    "holding_name": "Азбука Вкуса",
    "website": "",
    "working_time": "00:00-24:00",
    "lon": 37.589079,
    "lat": 55.775299
  },
  {
    "id": 11508,
    "address": "Москва, 2-я Фрунзенская улица, 10к1",
    "name": "Азбука Вкуса",
    "city": "Москва",
    "date_review": "11/1/2019",
    "holding_name": "Азбука Вкуса",
    "website": "",
    "working_time": "00:00-24:00",
    "lon": 37.581395,
    "lat": 55.723537
  },
  {
    "id": 11509,
    "address": "Москва, Авиационная улица, 77к2",
    "name": "Азбука Вкуса",
    "city": "Москва",
    "date_review": "11/1/2019",
    "holding_name": "Азбука Вкуса",
    "website": "",
    "working_time": "00:00-24:00",
    "lon": 37.451519,
    "lat": 55.809064
  },
  {
    "id": 11513,
    "address": "Москва, Бакунинская улица, 26-30с1",
    "name": "Азбука Вкуса",
    "city": "Москва",
    "date_review": "11/1/2019",
    "holding_name": "Азбука Вкуса",
    "website": "",
    "working_time": "00:00-24:00",
    "lon": 37.685237,
    "lat": 55.775273
  },
  {
    "id": 11514,
    "address": "Москва, Бауманская улица, 32",
    "name": "Азбука Вкуса",
    "city": "Москва",
    "date_review": "11/1/2019",
    "holding_name": "Азбука Вкуса",
    "website": "",
    "working_time": "06:00-00:00",
    "lon": 37.678133,
    "lat": 55.772421
  },
  {
    "id": 11515,
    "address": "Москва, Большая Грузинская улица, 16",
    "name": "Азбука Вкуса",
    "city": "Москва",
    "date_review": "11/1/2019",
    "holding_name": "Азбука Вкуса",
    "website": "",
    "working_time": "00:00-24:00",
    "lon": 37.578788,
    "lat": 55.764768
  },
  {
    "id": 11516,
    "address": "Москва, Большая Грузинская улица, 42",
    "name": "Азбука Вкуса",
    "city": "Москва",
    "date_review": "11/1/2019",
    "holding_name": "Азбука Вкуса",
    "website": "",
    "working_time": "00:00-24:00",
    "lon": 37.580929,
    "lat": 55.768815
  },
  {
    "id": 11517,
    "address": "Москва, Большая Грузинская улица, 63с1",
    "name": "Азбука Вкуса",
    "city": "Москва",
    "date_review": "11/1/2019",
    "holding_name": "Азбука Вкуса",
    "website": "",
    "working_time": "00:00-24:00",
    "lon": 37.585058,
    "lat": 55.772937
  },
  {
    "id": 11518,
    "address": "Москва, Большая Дорогомиловская улица, 16",
    "name": "Азбука Вкуса",
    "city": "Москва",
    "date_review": "11/1/2019",
    "holding_name": "Азбука Вкуса",
    "website": "",
    "working_time": "00:00-24:00",
    "lon": 37.557222,
    "lat": 55.746671
  },
  {
    "id": 11519,
    "address": "Москва, Большая Садовая улица, 5к1",
    "name": "Азбука Вкуса",
    "city": "Москва",
    "date_review": "11/1/2019",
    "holding_name": "Азбука Вкуса",
    "website": "",
    "working_time": "00:00-24:00",
    "lon": 37.591604,
    "lat": 55.769638
  },
  {
    "id": 11520,
    "address": "Москва, Большая Татарская улица, 30с8",
    "name": "Азбука Вкуса",
    "city": "Москва",
    "date_review": "11/1/2019",
    "holding_name": "Азбука Вкуса",
    "website": "",
    "working_time": "00:00-24:00",
    "lon": 37.633853,
    "lat": 55.738733
  },
  {
    "id": 11521,
    "address": "Москва, Большая Тульская улица, 13",
    "name": "Азбука Вкуса",
    "city": "Москва",
    "date_review": "11/1/2019",
    "holding_name": "Азбука Вкуса",
    "website": "",
    "working_time": "00:00-24:00",
    "lon": 37.621707,
    "lat": 55.708694
  },
  {
    "id": 11522,
    "address": "Москва, Боровское шоссе, 56",
    "name": "Азбука Вкуса",
    "city": "Москва",
    "date_review": "11/1/2019",
    "holding_name": "Азбука Вкуса",
    "website": "",
    "working_time": "00:00-24:00",
    "lon": 37.346549,
    "lat": 55.635119
  },
  {
    "id": 11523,
    "address": "Москва, Валовая улица, 8/18",
    "name": "Азбука Вкуса",
    "city": "Москва",
    "date_review": "11/1/2019",
    "holding_name": "Азбука Вкуса",
    "website": "",
    "working_time": "00:00-24:00",
    "lon": 37.631221,
    "lat": 55.730798
  },
  {
    "id": 11524,
    "address": "Москва, Варшавское шоссе, 34",
    "name": "Азбука Вкуса",
    "city": "Москва",
    "date_review": "11/1/2019",
    "holding_name": "Азбука Вкуса",
    "website": "",
    "working_time": "08:00-23:00",
    "lon": 37.623811,
    "lat": 55.680167
  },
  {
    "id": 11526,
    "address": "Москва, Воронцовская улица, 4с3",
    "name": "Азбука Вкуса",
    "city": "Москва",
    "date_review": "11/1/2019",
    "holding_name": "Азбука Вкуса",
    "website": "",
    "working_time": "00:00-24:00",
    "lon": 37.653828,
    "lat": 55.740154
  },
  {
    "id": 11527,
    "address": "Москва, Выборгская улица, 1",
    "name": "Азбука Вкуса",
    "city": "Москва",
    "date_review": "11/1/2019",
    "holding_name": "Азбука Вкуса",
    "website": "",
    "working_time": "00:00-24:00",
    "lon": 37.486709,
    "lat": 55.833346
  },
  {
    "id": 11576,
    "address": "Москва, Делегатская улица, 9",
    "name": "Азбука Вкуса",
    "city": "Москва",
    "date_review": "11/1/2019",
    "holding_name": "Азбука Вкуса",
    "website": "",
    "working_time": "08:00-23:00",
    "lon": 37.613677,
    "lat": 55.775705
  },
  {
    "id": 11578,
    "address": "Москва, Дмитровское шоссе, 108Бс1",
    "name": "Азбука Вкуса",
    "city": "Москва",
    "date_review": "11/1/2019",
    "holding_name": "Азбука Вкуса",
    "website": "",
    "working_time": "00:00-24:00",
    "lon": 37.543563,
    "lat": 55.886337
  },
  {
    "id": 11579,
    "address": "Москва, Долгоруковская улица, 40",
    "name": "Азбука Вкуса",
    "city": "Москва",
    "date_review": "11/1/2019",
    "holding_name": "Азбука Вкуса",
    "website": "",
    "working_time": "00:00-24:00",
    "lon": 37.602751,
    "lat": 55.779317
  },
  {
    "id": 11580,
    "address": "Москва, Жулебинский бульвар, 16",
    "name": "Азбука Вкуса",
    "city": "Москва",
    "date_review": "11/1/2019",
    "holding_name": "Азбука Вкуса",
    "website": "",
    "working_time": "00:00-24:00",
    "lon": 37.852908,
    "lat": 55.69643
  },
  {
    "id": 11581,
    "address": "Москва, Зеленоград, к514с1",
    "name": "Азбука Вкуса",
    "city": "Москва",
    "date_review": "11/1/2019",
    "holding_name": "Азбука Вкуса",
    "website": "",
    "working_time": "00:00-24:00",
    "lon": 37.236738,
    "lat": 55.99755
  },
  {
    "id": 11582,
    "address": "Москва, Каширское шоссе, 78к1А",
    "name": "Азбука Вкуса",
    "city": "Москва",
    "date_review": "11/1/2019",
    "holding_name": "Азбука Вкуса",
    "website": "",
    "working_time": "00:00-24:00",
    "lon": 37.682486,
    "lat": 55.641134
  },
  {
    "id": 11583,
    "address": "Москва, Комсомольский проспект, 34",
    "name": "Азбука Вкуса",
    "city": "Москва",
    "date_review": "11/1/2019",
    "holding_name": "Азбука Вкуса",
    "website": "",
    "working_time": "00:00-24:00",
    "lon": 37.577651,
    "lat": 55.724569
  },
  {
    "id": 11584,
    "address": "Москва, Комсомольский проспект, 34",
    "name": "Азбука Вкуса",
    "city": "Москва",
    "date_review": "11/1/2019",
    "holding_name": "Азбука Вкуса",
    "website": "",
    "working_time": "10:00-22:00",
    "lon": 37.577,
    "lat": 55.7241
  },
  {
    "id": 11585,
    "address": "Москва, Комсомольский проспект, 4",
    "name": "Азбука Вкуса",
    "city": "Москва",
    "date_review": "11/1/2019",
    "holding_name": "Азбука Вкуса",
    "website": "",
    "working_time": "00:00-24:00",
    "lon": 37.592385,
    "lat": 55.733117
  },
  {
    "id": 11586,
    "address": "Москва, Кутузовский проспект, 18",
    "name": "Азбука Вкуса",
    "city": "Москва",
    "date_review": "11/1/2019",
    "holding_name": "Азбука Вкуса",
    "website": "",
    "working_time": "00:00-24:00",
    "lon": 37.552837,
    "lat": 55.746953
  },
  {
    "id": 11587,
    "address": "Москва, Кутузовский проспект, 18",
    "name": "Азбука Вкуса",
    "city": "Москва",
    "date_review": "11/1/2019",
    "holding_name": "Азбука Вкуса",
    "website": "",
    "working_time": "10:00-23:00",
    "lon": 37.552184,
    "lat": 55.746785
  },
  {
    "id": 11588,
    "address": "Москва, Кутузовский проспект, 36А",
    "name": "Азбука Вкуса",
    "city": "Москва",
    "date_review": "11/1/2019",
    "holding_name": "Азбука Вкуса",
    "website": "",
    "working_time": "00:00-24:00",
    "lon": 37.526244,
    "lat": 55.738682
  },
  {
    "id": 11589,
    "address": "Москва, Кутузовский проспект, 8",
    "name": "Азбука Вкуса",
    "city": "Москва",
    "date_review": "11/1/2019",
    "holding_name": "Азбука Вкуса",
    "website": "",
    "working_time": "00:00-24:00",
    "lon": 37.560174,
    "lat": 55.749035
  },
  {
    "id": 11591,
    "address": "Москва, Ленинградский проспект, 52",
    "name": "Азбука Вкуса",
    "city": "Москва",
    "date_review": "11/1/2019",
    "holding_name": "Азбука Вкуса",
    "website": "",
    "working_time": "00:00-24:00",
    "lon": 37.541274,
    "lat": 55.797101
  },
  {
    "id": 11592,
    "address": "Москва, Ленинградский проспект, 71кБ",
    "name": "Азбука Вкуса",
    "city": "Москва",
    "date_review": "11/1/2019",
    "holding_name": "Азбука Вкуса",
    "website": "",
    "working_time": "00:00-24:00",
    "lon": 37.517968,
    "lat": 55.803666
  },
  {
    "id": 11593,
    "address": "Москва, Ленинградское шоссе, 112/1",
    "name": "Азбука Вкуса",
    "city": "Москва",
    "date_review": "11/1/2019",
    "holding_name": "Азбука Вкуса",
    "website": "",
    "working_time": "00:00-24:00",
    "lon": 37.465432,
    "lat": 55.863648
  },
  {
    "id": 11594,
    "address": "Москва, Ленинградское шоссе, 68",
    "name": "Азбука Вкуса",
    "city": "Москва",
    "date_review": "11/1/2019",
    "holding_name": "Азбука Вкуса",
    "website": "",
    "working_time": "00:00-24:00",
    "lon": 37.477595,
    "lat": 55.845602
  },
  {
    "id": 11595,
    "address": "Москва, Ленинский проспект, 16",
    "name": "Азбука Вкуса",
    "city": "Москва",
    "date_review": "11/1/2019",
    "holding_name": "Азбука Вкуса",
    "website": "",
    "working_time": "10:00-22:00",
    "lon": 37.595187,
    "lat": 55.718396
  },
  {
    "id": 11596,
    "address": "Москва, Ленинский проспект, 21",
    "name": "Азбука Вкуса",
    "city": "Москва",
    "date_review": "11/1/2019",
    "holding_name": "Азбука Вкуса",
    "website": "",
    "working_time": "00:00-24:00",
    "lon": 37.596166,
    "lat": 55.718158
  },
  {
    "id": 11597,
    "address": "Москва, Ленинский проспект, 34/1",
    "name": "Азбука Вкуса",
    "city": "Москва",
    "date_review": "11/1/2019",
    "holding_name": "Азбука Вкуса",
    "website": "",
    "working_time": "00:00-24:00",
    "lon": 37.578027,
    "lat": 55.707187
  },
  {
    "id": 11598,
    "address": "Москва, Ленинский проспект, 54",
    "name": "Азбука Вкуса",
    "city": "Москва",
    "date_review": "11/1/2019",
    "holding_name": "Азбука Вкуса",
    "website": "",
    "working_time": "00:00-24:00",
    "lon": 37.560746,
    "lat": 55.697842
  },
  {
    "id": 11599,
    "address": "Москва, Ленинский проспект, 64/2",
    "name": "Азбука Вкуса",
    "city": "Москва",
    "date_review": "11/1/2019",
    "holding_name": "Азбука Вкуса",
    "website": "",
    "working_time": "00:00-24:00",
    "lon": 37.551772,
    "lat": 55.692432
  },
  {
    "id": 11600,
    "address": "Москва, Ленинский проспект, 77к1",
    "name": "Азбука Вкуса",
    "city": "Москва",
    "date_review": "11/1/2019",
    "holding_name": "Азбука Вкуса",
    "website": "",
    "working_time": "07:00-24:00",
    "lon": 37.542583,
    "lat": 55.685521
  },
  {
    "id": 11601,
    "address": "Москва, Ленинский проспект, 82",
    "name": "Азбука Вкуса",
    "city": "Москва",
    "date_review": "11/1/2019",
    "holding_name": "Азбука Вкуса",
    "website": "",
    "working_time": "08:00-00:00",
    "lon": 37.5345,
    "lat": 55.681428
  },
  {
    "id": 11602,
    "address": "Москва, Ленинский проспект, 91",
    "name": "Азбука Вкуса",
    "city": "Москва",
    "date_review": "11/1/2019",
    "holding_name": "Азбука Вкуса",
    "website": "",
    "working_time": "00:00-24:00",
    "lon": 37.529255,
    "lat": 55.676481
  },
  {
    "id": 11603,
    "address": "Москва, Люблинская улица, 96",
    "name": "Азбука Вкуса",
    "city": "Москва",
    "date_review": "11/1/2019",
    "holding_name": "Азбука Вкуса",
    "website": "",
    "working_time": "00:00-24:00",
    "lon": 37.739713,
    "lat": 55.657079
  },
  {
    "id": 11604,
    "address": "Москва, Люсиновская улица, 60",
    "name": "Азбука Вкуса",
    "city": "Москва",
    "date_review": "11/1/2019",
    "holding_name": "Азбука Вкуса",
    "website": "",
    "working_time": "00:00-24:00",
    "lon": 37.62207,
    "lat": 55.718371
  },
  {
    "id": 11605,
    "address": "Москва, Манежная площадь, 1с2",
    "name": "Азбука Вкуса",
    "city": "Москва",
    "date_review": "11/1/2019",
    "holding_name": "Азбука Вкуса",
    "website": "",
    "working_time": "00:00-24:00",
    "lon": 37.614616,
    "lat": 55.755803
  },
  {
    "id": 11606,
    "address": "Москва, Марксистская улица, 38",
    "name": "Азбука Вкуса",
    "city": "Москва",
    "date_review": "11/1/2019",
    "holding_name": "Азбука Вкуса",
    "website": "",
    "working_time": "00:00-24:00",
    "lon": 37.667617,
    "lat": 55.73389
  },
  {
    "id": 11607,
    "address": "Москва, Минская улица, 14к1",
    "name": "Азбука Вкуса",
    "city": "Москва",
    "date_review": "11/1/2019",
    "holding_name": "Азбука Вкуса",
    "website": "",
    "working_time": "00:00-24:00",
    "lon": 37.485725,
    "lat": 55.737784
  },
  {
    "id": 11608,
    "address": "Москва, Мичуринский проспект, 22к1с2",
    "name": "Азбука Вкуса",
    "city": "Москва",
    "date_review": "11/1/2019",
    "holding_name": "Азбука Вкуса",
    "website": "",
    "working_time": "00:00-24:00",
    "lon": 37.503439,
    "lat": 55.700959
  },
  {
    "id": 11609,
    "address": "Москва, Мичуринский проспект, 3",
    "name": "Азбука Вкуса",
    "city": "Москва",
    "date_review": "11/1/2019",
    "holding_name": "Азбука Вкуса",
    "website": "",
    "working_time": "00:00-24:00",
    "lon": 37.5127,
    "lat": 55.7045
  },
  {
    "id": 11610,
    "address": "Москва, Мичуринский проспект, 58к1",
    "name": "Азбука Вкуса",
    "city": "Москва",
    "date_review": "11/1/2019",
    "holding_name": "Азбука Вкуса",
    "website": "",
    "working_time": "08:00-23:00",
    "lon": 37.486566,
    "lat": 55.691266
  },
  {
    "id": 11611,
    "address": "Москва, Можайское шоссе, 32",
    "name": "Азбука Вкуса",
    "city": "Москва",
    "date_review": "11/1/2019",
    "holding_name": "Азбука Вкуса",
    "website": "",
    "working_time": "00:00-24:00",
    "lon": 37.419112,
    "lat": 55.719792
  },
  {
    "id": 11612,
    "address": "Москва, Мосфильмовская улица, 88к2с4",
    "name": "Азбука Вкуса",
    "city": "Москва",
    "date_review": "11/1/2019",
    "holding_name": "Азбука Вкуса",
    "website": "",
    "working_time": "00:00-24:00",
    "lon": 37.49345,
    "lat": 55.704167
  },
  {
    "id": 11613,
    "address": "Москва, Мытная улица, 7с1",
    "name": "Азбука Вкуса",
    "city": "Москва",
    "date_review": "11/1/2019",
    "holding_name": "Азбука Вкуса",
    "website": "",
    "working_time": "00:00-24:00",
    "lon": 37.617467,
    "lat": 55.721957
  },
  {
    "id": 11614,
    "address": "Москва, Нахимовский проспект, 61",
    "name": "Азбука Вкуса",
    "city": "Москва",
    "date_review": "11/1/2019",
    "holding_name": "Азбука Вкуса",
    "website": "",
    "working_time": "00:00-24:00",
    "lon": 37.559868,
    "lat": 55.679164
  },
  {
    "id": 11615,
    "address": "Москва, Неглинная улица, 20",
    "name": "Азбука Вкуса",
    "city": "Москва",
    "date_review": "11/1/2019",
    "holding_name": "Азбука Вкуса",
    "website": "",
    "working_time": "00:00-24:00",
    "lon": 37.621179,
    "lat": 55.766006
  },
  {
    "id": 11616,
    "address": "Москва, Нижегородская улица, 16",
    "name": "Азбука Вкуса",
    "city": "Москва",
    "date_review": "11/1/2019",
    "holding_name": "Азбука Вкуса",
    "website": "",
    "working_time": "08:00-23:00",
    "lon": 37.683458,
    "lat": 55.737688
  },
  {
    "id": 11617,
    "address": "Москва, Николоямский переулок, 2",
    "name": "Азбука Вкуса",
    "city": "Москва",
    "date_review": "11/1/2019",
    "holding_name": "Азбука Вкуса",
    "website": "",
    "working_time": "00:00-24:00",
    "lon": 37.662327,
    "lat": 55.749251
  },
  {
    "id": 11618,
    "address": "Москва, Никольская улица, 10",
    "name": "Азбука Вкуса",
    "city": "Москва",
    "date_review": "11/1/2019",
    "holding_name": "Азбука Вкуса",
    "website": "",
    "working_time": "00:00-24:00",
    "lon": 37.624148,
    "lat": 55.758103
  },
  {
    "id": 11619,
    "address": "Москва, Новинский бульвар, 31",
    "name": "Азбука Вкуса",
    "city": "Москва",
    "date_review": "11/1/2019",
    "holding_name": "Азбука Вкуса",
    "website": "",
    "working_time": "00:00-24:00",
    "lon": 37.582342,
    "lat": 55.757649
  },
  {
    "id": 11620,
    "address": "Москва, Новинский бульвар, 8с2",
    "name": "Азбука Вкуса",
    "city": "Москва",
    "date_review": "11/1/2019",
    "holding_name": "Азбука Вкуса",
    "website": "",
    "working_time": "08:00-23:00",
    "lon": 37.583634,
    "lat": 55.751237
  },
  {
    "id": 11622,
    "address": "Москва, Новокузнецкая улица, 1с3",
    "name": "Азбука Вкуса",
    "city": "Москва",
    "date_review": "11/1/2019",
    "holding_name": "Азбука Вкуса",
    "website": "",
    "working_time": "00:00-24:00",
    "lon": 37.629894,
    "lat": 55.740723
  },
  {
    "id": 11623,
    "address": "Москва, Новочерёмушкинская улица, 60к2",
    "name": "Азбука Вкуса",
    "city": "Москва",
    "date_review": "11/1/2019",
    "holding_name": "Азбука Вкуса",
    "website": "",
    "working_time": "07:00-24:00",
    "lon": 37.558051,
    "lat": 55.665894
  },
  {
    "id": 11624,
    "address": "Москва, Олимпийский проспект, 30с1",
    "name": "Азбука Вкуса",
    "city": "Москва",
    "date_review": "11/1/2019",
    "holding_name": "Азбука Вкуса",
    "website": "",
    "working_time": "07:00-24:00",
    "lon": 37.622745,
    "lat": 55.791042
  },
  {
    "id": 11625,
    "address": "Москва, Осенний бульвар, 8к1",
    "name": "Азбука Вкуса",
    "city": "Москва",
    "date_review": "11/1/2019",
    "holding_name": "Азбука Вкуса",
    "website": "",
    "working_time": "00:00-24:00",
    "lon": 37.409122,
    "lat": 55.755318
  },
  {
    "id": 11626,
    "address": "Москва, поселение Десёновское, Армейская улица, 1",
    "name": "Азбука Вкуса",
    "city": "Москва",
    "date_review": "11/1/2019",
    "holding_name": "Азбука Вкуса",
    "website": "",
    "working_time": "00:00-24:00",
    "lon": 37.361622,
    "lat": 55.509615
  },
  {
    "id": 11627,
    "address": "Москва, улица Арбат, 54/2с1",
    "name": "Азбука Вкуса",
    "city": "Москва",
    "date_review": "11/1/2019",
    "holding_name": "Азбука Вкуса",
    "website": "",
    "working_time": "00:00-24:00",
    "lon": 37.582933,
    "lat": 55.747149
  },
  {
    "id": 11628,
    "address": "Москва, поселение Московский, деревня Лапшинка, вл8к20",
    "name": "Азбука Вкуса",
    "city": "Москва",
    "date_review": "11/1/2019",
    "holding_name": "Азбука Вкуса",
    "website": "",
    "working_time": "00:00-24:00",
    "lon": 37.332573,
    "lat": 55.608917
  },
  {
    "id": 11629,
    "address": "Москва, поселение Мосрентген, деревня Мамыри, Калужское шоссе, 1-й километр, 8Б",
    "name": "Азбука Вкуса",
    "city": "Москва",
    "date_review": "11/1/2019",
    "holding_name": "Азбука Вкуса",
    "website": "",
    "working_time": "00:00-24:00",
    "lon": 37.482895,
    "lat": 55.601757
  },
  {
    "id": 11630,
    "address": "Москва, Пресненская набережная, 12",
    "name": "Азбука Вкуса",
    "city": "Москва",
    "date_review": "11/1/2019",
    "holding_name": "Азбука Вкуса",
    "website": "",
    "working_time": "00:00-24:00",
    "lon": 37.537959,
    "lat": 55.749483
  },
  {
    "id": 11631,
    "address": "Москва, проезд Аэропорта, 8",
    "name": "Азбука Вкуса",
    "city": "Москва",
    "date_review": "11/1/2019",
    "holding_name": "Азбука Вкуса",
    "website": "",
    "working_time": "00:00-24:00",
    "lon": 37.522276,
    "lat": 55.797175
  },
  {
    "id": 11632,
    "address": "Москва, проспект Вернадского, 14А",
    "name": "Азбука Вкуса",
    "city": "Москва",
    "date_review": "11/1/2019",
    "holding_name": "Азбука Вкуса",
    "website": "",
    "working_time": "00:00-24:00",
    "lon": 37.507761,
    "lat": 55.677941
  },
  {
    "id": 11633,
    "address": "Москва, проспект Маршала Жукова, 41к1",
    "name": "Азбука Вкуса",
    "city": "Москва",
    "date_review": "11/1/2019",
    "holding_name": "Азбука Вкуса",
    "website": "",
    "working_time": "00:00-24:00",
    "lon": 37.469889,
    "lat": 55.775593
  },
  {
    "id": 11634,
    "address": "Москва, проспект Мира, 112А",
    "name": "Азбука Вкуса",
    "city": "Москва",
    "date_review": "11/1/2019",
    "holding_name": "Азбука Вкуса",
    "website": "",
    "working_time": "00:00-24:00",
    "lon": 37.638057,
    "lat": 55.807695
  },
  {
    "id": 11635,
    "address": "Москва, проспект Мира, 49",
    "name": "Азбука Вкуса",
    "city": "Москва",
    "date_review": "11/1/2019",
    "holding_name": "Азбука Вкуса",
    "website": "",
    "working_time": "00:00-24:00",
    "lon": 37.634001,
    "lat": 55.783631
  },
  {
    "id": 11636,
    "address": "Москва, проспект Мира, 58",
    "name": "Азбука Вкуса",
    "city": "Москва",
    "date_review": "11/1/2019",
    "holding_name": "Азбука Вкуса",
    "website": "",
    "working_time": "00:00-24:00",
    "lon": 37.636025,
    "lat": 55.785665
  },
  {
    "id": 11637,
    "address": "Москва, проспект Мира, 97",
    "name": "Азбука Вкуса",
    "city": "Москва",
    "date_review": "11/1/2019",
    "holding_name": "Азбука Вкуса",
    "website": "",
    "working_time": "00:00-24:00",
    "lon": 37.636631,
    "lat": 55.809804
  },
  {
    "id": 11638,
    "address": "Москва, Профсоюзная улица, 104",
    "name": "Азбука Вкуса",
    "city": "Москва",
    "date_review": "11/1/2019",
    "holding_name": "Азбука Вкуса",
    "website": "",
    "working_time": "00:00-24:00",
    "lon": 37.524625,
    "lat": 55.642703
  },
  {
    "id": 11639,
    "address": "Москва, Профсоюзная улица, 126к2",
    "name": "Азбука Вкуса",
    "city": "Москва",
    "date_review": "11/1/2019",
    "holding_name": "Азбука Вкуса",
    "website": "",
    "working_time": "07:00-24:00",
    "lon": 37.517138,
    "lat": 55.631445
  },
  {
    "id": 11640,
    "address": "Москва, Профсоюзная улица, 16/10",
    "name": "Азбука Вкуса",
    "city": "Москва",
    "date_review": "11/1/2019",
    "holding_name": "Азбука Вкуса",
    "website": "",
    "working_time": "00:00-24:00",
    "lon": 37.568964,
    "lat": 55.684199
  },
  {
    "id": 11641,
    "address": "Москва, Профсоюзная улица, 64к2",
    "name": "Азбука Вкуса",
    "city": "Москва",
    "date_review": "11/1/2019",
    "holding_name": "Азбука Вкуса",
    "website": "",
    "working_time": "08:00-23:00",
    "lon": 37.549069,
    "lat": 55.665975
  },
  {
    "id": 11642,
    "address": "Москва, Пятницкая улица, 13",
    "name": "Азбука Вкуса",
    "city": "Москва",
    "date_review": "11/1/2019",
    "holding_name": "Азбука Вкуса",
    "website": "",
    "working_time": "00:00-24:00",
    "lon": 37.628215,
    "lat": 55.743764
  },
  {
    "id": 11643,
    "address": "Москва, Пятницкое шоссе, 14",
    "name": "Азбука Вкуса",
    "city": "Москва",
    "date_review": "11/1/2019",
    "holding_name": "Азбука Вкуса",
    "website": "",
    "working_time": "00:00-24:00",
    "lon": 37.385898,
    "lat": 55.841487
  },
  {
    "id": 11644,
    "address": "Москва, Рублёвское шоссе, 42к1",
    "name": "Азбука Вкуса",
    "city": "Москва",
    "date_review": "11/1/2019",
    "holding_name": "Азбука Вкуса",
    "website": "",
    "working_time": "00:00-24:00",
    "lon": 37.412454,
    "lat": 55.750691
  },
  {
    "id": 11645,
    "address": "Москва, Русаковская улица, 22",
    "name": "Азбука Вкуса",
    "city": "Москва",
    "date_review": "11/1/2019",
    "holding_name": "Азбука Вкуса",
    "website": "",
    "working_time": "00:00-24:00",
    "lon": 37.67847,
    "lat": 55.786357
  },
  {
    "id": 11646,
    "address": "Москва, Садовая-Триумфальная улица",
    "name": "Азбука Вкуса",
    "city": "Москва",
    "date_review": "11/1/2019",
    "holding_name": "Азбука Вкуса",
    "website": "",
    "working_time": "07:00-24:00",
    "lon": 37.602678,
    "lat": 55.771843
  },
  {
    "id": 11647,
    "address": "Москва, Садовая-Черногрязская улица, 13с1",
    "name": "Азбука Вкуса",
    "city": "Москва",
    "date_review": "11/1/2019",
    "holding_name": "Азбука Вкуса",
    "website": "",
    "working_time": "00:00-24:00",
    "lon": 37.656132,
    "lat": 55.764705
  },
  {
    "id": 11648,
    "address": "Москва, Симферопольский бульвар, 22к3",
    "name": "Азбука Вкуса",
    "city": "Москва",
    "date_review": "11/1/2019",
    "holding_name": "Азбука Вкуса",
    "website": "",
    "working_time": "00:00-24:00",
    "lon": 37.604904,
    "lat": 55.64695
  },
  {
    "id": 11649,
    "address": "Москва, Смоленская-Сенная площадь, 27с1А",
    "name": "Азбука Вкуса",
    "city": "Москва",
    "date_review": "11/1/2019",
    "holding_name": "Азбука Вкуса",
    "website": "",
    "working_time": "00:00-24:00",
    "lon": 37.58253,
    "lat": 55.745283
  },
  {
    "id": 11650,
    "address": "Москва, Старая Басманная улица, 28/2",
    "name": "Азбука Вкуса",
    "city": "Москва",
    "date_review": "11/1/2019",
    "holding_name": "Азбука Вкуса",
    "website": "",
    "working_time": "00:00-24:00",
    "lon": 37.667552,
    "lat": 55.768164
  },
  {
    "id": 11651,
    "address": "Москва, Тверская улица, 27с2",
    "name": "Азбука Вкуса",
    "city": "Москва",
    "date_review": "11/1/2019",
    "holding_name": "Азбука Вкуса",
    "website": "",
    "working_time": "00:00-24:00",
    "lon": 37.597223,
    "lat": 55.76901
  },
  {
    "id": 11652,
    "address": "Москва, Тверская улица, 5/6",
    "name": "Азбука Вкуса",
    "city": "Москва",
    "date_review": "11/1/2019",
    "holding_name": "Азбука Вкуса",
    "website": "",
    "working_time": "00:00-24:00",
    "lon": 37.612312,
    "lat": 55.758148
  },
  {
    "id": 11658,
    "address": "Москва, улица Алабяна, 7",
    "name": "Азбука Вкуса",
    "city": "Москва",
    "date_review": "11/1/2019",
    "holding_name": "Азбука Вкуса",
    "website": "",
    "working_time": "00:00-24:00",
    "lon": 37.507857,
    "lat": 55.80183
  },
  {
    "id": 11659,
    "address": "Москва, улица Арбат, 54/2с1",
    "name": "Азбука Вкуса",
    "city": "Москва",
    "date_review": "11/1/2019",
    "holding_name": "Азбука Вкуса",
    "website": "",
    "working_time": "08:00-23:00",
    "lon": 37.583338,
    "lat": 55.747137
  },
  {
    "id": 11660,
    "address": "Москва, улица Большая Дмитровка, 5/6с3",
    "name": "Азбука Вкуса",
    "city": "Москва",
    "date_review": "11/1/2019",
    "holding_name": "Азбука Вкуса",
    "website": "",
    "working_time": "00:00-24:00",
    "lon": 37.613615,
    "lat": 55.759838
  },
  {
    "id": 11661,
    "address": "Москва, улица Большая Якиманка, 28/30",
    "name": "Азбука Вкуса",
    "city": "Москва",
    "date_review": "11/1/2019",
    "holding_name": "Азбука Вкуса",
    "website": "",
    "working_time": "00:00-24:00",
    "lon": 37.612922,
    "lat": 55.735363
  },
  {
    "id": 11662,
    "address": "Москва, улица Бутырский Вал, 10",
    "name": "Азбука Вкуса",
    "city": "Москва",
    "date_review": "11/1/2019",
    "holding_name": "Азбука Вкуса",
    "website": "",
    "working_time": "00:00-24:00",
    "lon": 37.585589,
    "lat": 55.778546
  },
  {
    "id": 11663,
    "address": "Москва, улица Генерала Глаголева, 14",
    "name": "Азбука Вкуса",
    "city": "Москва",
    "date_review": "11/1/2019",
    "holding_name": "Азбука Вкуса",
    "website": "",
    "working_time": "00:00-24:00",
    "lon": 37.462615,
    "lat": 55.782216
  },
  {
    "id": 11664,
    "address": "Москва, улица Гризодубовой, 1А",
    "name": "Азбука Вкуса",
    "city": "Москва",
    "date_review": "11/1/2019",
    "holding_name": "Азбука Вкуса",
    "website": "",
    "working_time": "00:00-24:00",
    "lon": 37.534315,
    "lat": 55.781987
  },
  {
    "id": 11665,
    "address": "Москва, улица Исаковского, 33",
    "name": "Азбука Вкуса",
    "city": "Москва",
    "date_review": "11/1/2019",
    "holding_name": "Азбука Вкуса",
    "website": "",
    "working_time": "08:00-23:00",
    "lon": 37.419132,
    "lat": 55.804888
  },
  {
    "id": 11666,
    "address": "Москва, улица Космонавтов, 4",
    "name": "Азбука Вкуса",
    "city": "Москва",
    "date_review": "11/1/2019",
    "holding_name": "Азбука Вкуса",
    "website": "",
    "working_time": "00:00-24:00",
    "lon": 37.645801,
    "lat": 55.820981
  },
  {
    "id": 11667,
    "address": "Москва, улица Красная Пресня, 14",
    "name": "Азбука Вкуса",
    "city": "Москва",
    "date_review": "11/1/2019",
    "holding_name": "Азбука Вкуса",
    "website": "",
    "working_time": "00:00-24:00",
    "lon": 37.572199,
    "lat": 55.761701
  },
  {
    "id": 11668,
    "address": "Москва, улица Маршала Рыбалко, 2к8",
    "name": "Азбука Вкуса",
    "city": "Москва",
    "date_review": "11/1/2019",
    "holding_name": "Азбука Вкуса",
    "website": "",
    "working_time": "00:00-24:00",
    "lon": 37.496265,
    "lat": 55.797339
  },
  {
    "id": 11669,
    "address": "Москва, улица Народного Ополчения, 46к1",
    "name": "Азбука Вкуса",
    "city": "Москва",
    "date_review": "11/1/2019",
    "holding_name": "Азбука Вкуса",
    "website": "",
    "working_time": "00:00-24:00",
    "lon": 37.493403,
    "lat": 55.792974
  },
  {
    "id": 11670,
    "address": "Москва, улица Остоженка, 8",
    "name": "Азбука Вкуса",
    "city": "Москва",
    "date_review": "11/1/2019",
    "holding_name": "Азбука Вкуса",
    "website": "",
    "working_time": "00:00-24:00",
    "lon": 37.599857,
    "lat": 55.74246
  },
  {
    "id": 11671,
    "address": "Москва, улица Островитянова, 2",
    "name": "Азбука Вкуса",
    "city": "Москва",
    "date_review": "11/1/2019",
    "holding_name": "Азбука Вкуса",
    "website": "",
    "working_time": "00:00-24:00",
    "lon": 37.486105,
    "lat": 55.646189
  },
  {
    "id": 11672,
    "address": "Москва, улица Петровка, 19",
    "name": "Азбука Вкуса",
    "city": "Москва",
    "date_review": "11/1/2019",
    "holding_name": "Азбука Вкуса",
    "website": "",
    "working_time": "08:00-22:00",
    "lon": 37.616061,
    "lat": 55.765272
  },
  {
    "id": 11673,
    "address": "Москва, улица Плющиха, 44/2",
    "name": "Азбука Вкуса",
    "city": "Москва",
    "date_review": "11/1/2019",
    "holding_name": "Азбука Вкуса",
    "website": "",
    "working_time": "00:00-24:00",
    "lon": 37.575719,
    "lat": 55.739631
  },
  {
    "id": 11674,
    "address": "Москва, улица Покровка, 15",
    "name": "Азбука Вкуса",
    "city": "Москва",
    "date_review": "11/1/2019",
    "holding_name": "Азбука Вкуса",
    "website": "",
    "working_time": "00:00-24:00",
    "lon": 37.644749,
    "lat": 55.75935
  },
  {
    "id": 11675,
    "address": "Москва, улица Покрышкина, 4",
    "name": "Азбука Вкуса",
    "city": "Москва",
    "date_review": "11/1/2019",
    "holding_name": "Азбука Вкуса",
    "website": "",
    "working_time": "08:00-23:00",
    "lon": 37.48192,
    "lat": 55.664819
  },
  {
    "id": 11676,
    "address": "Москва, улица Поликарпова, 17",
    "name": "Азбука Вкуса",
    "city": "Москва",
    "date_review": "11/1/2019",
    "holding_name": "Азбука Вкуса",
    "website": "",
    "working_time": "00:00-24:00",
    "lon": 37.549582,
    "lat": 55.777819
  },
  {
    "id": 11677,
    "address": "Москва, улица Пречистенка, 24/1",
    "name": "Азбука Вкуса",
    "city": "Москва",
    "date_review": "11/1/2019",
    "holding_name": "Азбука Вкуса",
    "website": "",
    "working_time": "00:00-24:00",
    "lon": 37.593542,
    "lat": 55.741698
  },
  {
    "id": 11678,
    "address": "Москва, улица Пырьева, 8",
    "name": "Азбука Вкуса",
    "city": "Москва",
    "date_review": "11/1/2019",
    "holding_name": "Азбука Вкуса",
    "website": "",
    "working_time": "00:00-24:00",
    "lon": 37.527139,
    "lat": 55.726122
  },
  {
    "id": 11679,
    "address": "Москва, улица Свободы, 42",
    "name": "Азбука Вкуса",
    "city": "Москва",
    "date_review": "11/1/2019",
    "holding_name": "Азбука Вкуса",
    "website": "",
    "working_time": "00:00-24:00",
    "lon": 37.455243,
    "lat": 55.845186
  },
  {
    "id": 11680,
    "address": "Москва, улица Серафимовича, 2",
    "name": "Азбука Вкуса",
    "city": "Москва",
    "date_review": "11/1/2019",
    "holding_name": "Азбука Вкуса",
    "website": "",
    "working_time": "00:00-24:00",
    "lon": 37.613104,
    "lat": 55.744553
  },
  {
    "id": 11681,
    "address": "Москва, улица Сергея Макеева, 9",
    "name": "Азбука Вкуса",
    "city": "Москва",
    "date_review": "11/1/2019",
    "holding_name": "Азбука Вкуса",
    "website": "",
    "working_time": "00:00-24:00",
    "lon": 37.549,
    "lat": 55.7615
  },
  {
    "id": 11682,
    "address": "Москва, улица Симоновский Вал, 12к2",
    "name": "Азбука Вкуса",
    "city": "Москва",
    "date_review": "11/1/2019",
    "holding_name": "Азбука Вкуса",
    "website": "",
    "working_time": "00:00-24:00",
    "lon": 37.662928,
    "lat": 55.72464
  },
  {
    "id": 11683,
    "address": "Москва, улица Сретенка, 1",
    "name": "Азбука Вкуса",
    "city": "Москва",
    "date_review": "11/1/2019",
    "holding_name": "Азбука Вкуса",
    "website": "",
    "working_time": "00:00-24:00",
    "lon": 37.630544,
    "lat": 55.766532
  },
  {
    "id": 11684,
    "address": "Москва, улица Строителей, 17к1",
    "name": "Азбука Вкуса",
    "city": "Москва",
    "date_review": "11/1/2019",
    "holding_name": "Азбука Вкуса",
    "website": "",
    "working_time": "00:00-24:00",
    "lon": 37.532033,
    "lat": 55.688272
  },
  {
    "id": 11685,
    "address": "Москва, улица Удальцова, 32с2",
    "name": "Азбука Вкуса",
    "city": "Москва",
    "date_review": "11/1/2019",
    "holding_name": "Азбука Вкуса",
    "website": "",
    "working_time": "00:00-24:00",
    "lon": 37.493185,
    "lat": 55.681675
  },
  {
    "id": 11686,
    "address": "Москва, улица Чаянова, 14",
    "name": "Азбука Вкуса",
    "city": "Москва",
    "date_review": "11/1/2019",
    "holding_name": "Азбука Вкуса",
    "website": "",
    "working_time": "00:00-24:00",
    "lon": 37.59625,
    "lat": 55.776239
  },
  {
    "id": 11687,
    "address": "Москва, Усачёвский переулок",
    "name": "Азбука Вкуса",
    "city": "Москва",
    "date_review": "11/1/2019",
    "holding_name": "Азбука Вкуса",
    "website": "",
    "working_time": "00:00-24:00",
    "lon": 37.566922,
    "lat": 55.727262
  },
  {
    "id": 11688,
    "address": "Москва, Хорошёвское шоссе, 52",
    "name": "Азбука Вкуса",
    "city": "Москва",
    "date_review": "11/1/2019",
    "holding_name": "Азбука Вкуса",
    "website": "",
    "working_time": "00:00-24:00",
    "lon": 37.532555,
    "lat": 55.776673
  },
  {
    "id": 11689,
    "address": "Москва, Цветной бульвар, 27/24",
    "name": "Азбука Вкуса",
    "city": "Москва",
    "date_review": "11/1/2019",
    "holding_name": "Азбука Вкуса",
    "website": "",
    "working_time": "00:00-24:00",
    "lon": 37.620794,
    "lat": 55.77323
  },
  {
    "id": 11690,
    "address": "Москва, Шмитовский проезд, 10/7",
    "name": "Азбука Вкуса",
    "city": "Москва",
    "date_review": "11/1/2019",
    "holding_name": "Азбука Вкуса",
    "website": "",
    "working_time": "00:00-24:00",
    "lon": 37.552745,
    "lat": 55.758701
  },
  {
    "id": 11691,
    "address": "Москва, Щёлковское шоссе, 8",
    "name": "Азбука Вкуса",
    "city": "Москва",
    "date_review": "11/1/2019",
    "holding_name": "Азбука Вкуса",
    "website": "",
    "working_time": "00:00-24:00",
    "lon": 37.761256,
    "lat": 55.804436
  },
  {
    "id": 11693,
    "address": "Москва, Ярославское шоссе, 12к2",
    "name": "Азбука Вкуса",
    "city": "Москва",
    "date_review": "11/1/2019",
    "holding_name": "Азбука Вкуса",
    "website": "",
    "working_time": "08:00-23:00",
    "lon": 37.683537,
    "lat": 55.85506
  },
  {
    "id": 11694,
    "address": "Москва, Ярцевская улица, 24к1",
    "name": "Азбука Вкуса",
    "city": "Москва",
    "date_review": "11/1/2019",
    "holding_name": "Азбука Вкуса",
    "website": "",
    "working_time": "00:00-24:00",
    "lon": 37.414364,
    "lat": 55.739129
  },
  {
    "id": 11772,
    "address": "Московская область, Воскресенск, площадь Ленина, 5",
    "name": "Азбука Вкуса",
    "city": "Москва",
    "date_review": "11/1/2019",
    "holding_name": "Азбука Вкуса",
    "website": "",
    "working_time": "00:00-24:00",
    "lon": 38.672303,
    "lat": 55.321647
  },
  {
    "id": 11785,
    "address": "Московская область, городской округ Истра, деревня Борзые, Невская улица, 704",
    "name": "Азбука Вкуса",
    "city": "Москва",
    "date_review": "11/1/2019",
    "holding_name": "Азбука Вкуса",
    "website": "",
    "working_time": "00:00-24:00",
    "lon": 37.042091,
    "lat": 55.812182
  },
  {
    "id": 11786,
    "address": "Московская область, городской округ Мытищи, деревня Бородино, Осташковское шоссе, 59",
    "name": "Азбука Вкуса",
    "city": "Москва",
    "date_review": "11/1/2019",
    "holding_name": "Азбука Вкуса",
    "website": "",
    "working_time": "00:00-24:00",
    "lon": 37.664471,
    "lat": 55.921723
  },
  {
    "id": 11787,
    "address": "Московская область, городской округ Мытищи, деревня Шолохово, Дмитровское шоссе, 2Бс1",
    "name": "Азбука Вкуса",
    "city": "Москва",
    "date_review": "11/1/2019",
    "holding_name": "Азбука Вкуса",
    "website": "",
    "working_time": "00:00-24:00",
    "lon": 37.53082,
    "lat": 56.056088
  },
  {
    "id": 11788,
    "address": "Московская область, Дмитровский городской округ, Дмитров, Профессиональная улица, 7",
    "name": "Азбука Вкуса",
    "city": "Москва",
    "date_review": "11/1/2019",
    "holding_name": "Азбука Вкуса",
    "website": "",
    "working_time": "00:00-24:00",
    "lon": 37.520913,
    "lat": 56.352547
  },
  {
    "id": 11789,
    "address": "Московская область, Жуковский, улица Баженова, 11",
    "name": "Азбука Вкуса",
    "city": "Москва",
    "date_review": "11/1/2019",
    "holding_name": "Азбука Вкуса",
    "website": "",
    "working_time": "08:00-23:00",
    "lon": 38.07395,
    "lat": 55.605677
  },
  {
    "id": 11790,
    "address": "Московская область, Жуковский, улица Гагарина, 67",
    "name": "Азбука Вкуса",
    "city": "Москва",
    "date_review": "11/1/2019",
    "holding_name": "Азбука Вкуса",
    "website": "",
    "working_time": "00:00-24:00",
    "lon": 38.091274,
    "lat": 55.608323
  },
  {
    "id": 11791,
    "address": "Московская область, Жуковский, улица Гудкова, 3А",
    "name": "Азбука Вкуса",
    "city": "Москва",
    "date_review": "11/1/2019",
    "holding_name": "Азбука Вкуса",
    "website": "",
    "working_time": "08:00-23:00",
    "lon": 38.093942,
    "lat": 55.595055
  },
  {
    "id": 11792,
    "address": "Московская область, Жуковский, улица Дзержинского, 3",
    "name": "Азбука Вкуса",
    "city": "Москва",
    "date_review": "11/1/2019",
    "holding_name": "Азбука Вкуса",
    "website": "",
    "working_time": "00:00-24:00",
    "lon": 38.13343,
    "lat": 55.597483
  },
  {
    "id": 11793,
    "address": "Московская область, Королёв, проспект Космонавтов, 4В",
    "name": "Азбука Вкуса",
    "city": "Москва",
    "date_review": "11/1/2019",
    "holding_name": "Азбука Вкуса",
    "website": "",
    "working_time": "00:00-24:00",
    "lon": 37.867866,
    "lat": 55.920457
  },
  {
    "id": 11794,
    "address": "Московская область, Красногорск, улица Ленина, 35А",
    "name": "Азбука Вкуса",
    "city": "Москва",
    "date_review": "11/1/2019",
    "holding_name": "Азбука Вкуса",
    "website": "",
    "working_time": "00:00-24:00",
    "lon": 37.307689,
    "lat": 55.82956
  },
  {
    "id": 11795,
    "address": "Московская область, Мытищи, Коммунистическая улица, 10к1",
    "name": "Азбука Вкуса",
    "city": "Москва",
    "date_review": "11/1/2019",
    "holding_name": "Азбука Вкуса",
    "website": "",
    "working_time": "00:00-24:00",
    "lon": 37.745123,
    "lat": 55.891928
  },
  {
    "id": 11796,
    "address": "Московская область, Новорижское шоссе, 23-й километр, вл2с1",
    "name": "Азбука Вкуса",
    "city": "Москва",
    "date_review": "11/1/2019",
    "holding_name": "Азбука Вкуса",
    "website": "",
    "working_time": "00:00-24:00",
    "lon": 37.274495,
    "lat": 55.799276
  },
  {
    "id": 11797,
    "address": "Московская область, Новорижское шоссе, 7-й километр, с1",
    "name": "Азбука Вкуса",
    "city": "Москва",
    "date_review": "11/1/2019",
    "holding_name": "Азбука Вкуса",
    "website": "",
    "working_time": "00:00-24:00",
    "lon": 37.279606,
    "lat": 55.799535
  },
  {
    "id": 11798,
    "address": "Московская область, Одинцово, Можайское шоссе, 133А",
    "name": "Азбука Вкуса",
    "city": "Москва",
    "date_review": "11/1/2019",
    "holding_name": "Азбука Вкуса",
    "website": "",
    "working_time": "08:00-23:00",
    "lon": 37.29612,
    "lat": 55.684236
  },
  {
    "id": 11799,
    "address": "Московская область, Одинцовский городской округ, 2-й Лохинский посёлок",
    "name": "Азбука Вкуса",
    "city": "Москва",
    "date_review": "11/1/2019",
    "holding_name": "Азбука Вкуса",
    "website": "",
    "working_time": "08:00-23:00",
    "lon": 37.30255,
    "lat": 55.690424
  },
  {
    "id": 11800,
    "address": "Московская область, Одинцовский городской округ, деревня Барвиха, 85/1",
    "name": "Азбука Вкуса",
    "city": "Москва",
    "date_review": "11/1/2019",
    "holding_name": "Азбука Вкуса",
    "website": "",
    "working_time": "08:00-22:00",
    "lon": 37.269957,
    "lat": 55.738746
  },
  {
    "id": 11801,
    "address": "Московская область, Одинцовский городской округ, деревня Жуковка, 201",
    "name": "Азбука Вкуса",
    "city": "Москва",
    "date_review": "11/1/2019",
    "holding_name": "Азбука Вкуса",
    "website": "",
    "working_time": "00:00-24:00",
    "lon": 37.247161,
    "lat": 55.737345
  },
  {
    "id": 11802,
    "address": "Московская область, Одинцовский городской округ, деревня Лапино, коттеджный посёлок Новое Лапино, с70",
    "name": "Азбука Вкуса",
    "city": "Москва",
    "date_review": "11/1/2019",
    "holding_name": "Азбука Вкуса",
    "website": "",
    "working_time": "00:00-24:00",
    "lon": 37.136309,
    "lat": 55.684234
  },
  {
    "id": 11803,
    "address": "Московская область, Одинцовский городской округ, посёлок Горки-2, 11",
    "name": "Азбука Вкуса",
    "city": "Москва",
    "date_review": "11/1/2019",
    "holding_name": "Азбука Вкуса",
    "website": "",
    "working_time": "00:00-24:00",
    "lon": 37.15906,
    "lat": 55.724575
  },
  {
    "id": 11804,
    "address": "Московская область, Одинцовский городской округ, рабочий посёлок Заречье, Заречная улица, 2",
    "name": "Азбука Вкуса",
    "city": "Москва",
    "date_review": "11/1/2019",
    "holding_name": "Азбука Вкуса",
    "website": "",
    "working_time": "00:00-24:00",
    "lon": 37.394791,
    "lat": 55.688489
  },
  {
    "id": 11805,
    "address": "Московская область, Одинцовский городской округ, рабочий посёлок Новоивановское, 10",
    "name": "Азбука Вкуса",
    "city": "Москва",
    "date_review": "11/1/2019",
    "holding_name": "Азбука Вкуса",
    "website": "",
    "working_time": "08:00-23:00",
    "lon": 37.361793,
    "lat": 55.708887
  },
  {
    "id": 11806,
    "address": "Московская область, Пятницкое шоссе, вл8",
    "name": "Азбука Вкуса",
    "city": "Москва",
    "date_review": "11/1/2019",
    "holding_name": "Азбука Вкуса",
    "website": "",
    "working_time": "00:00-24:00",
    "lon": 37.300861,
    "lat": 55.890277
  },
  {
    "id": 11807,
    "address": "Московская область, Раменское, улица Михалевича, 72А",
    "name": "Азбука Вкуса",
    "city": "Москва",
    "date_review": "11/1/2019",
    "holding_name": "Азбука Вкуса",
    "website": "",
    "working_time": "00:00-24:00",
    "lon": 38.25049,
    "lat": 55.559294
  },
  {
    "id": 11808,
    "address": "Московская область, Ступино, проспект Победы, 63А",
    "name": "Азбука Вкуса",
    "city": "Москва",
    "date_review": "11/1/2019",
    "holding_name": "Азбука Вкуса",
    "website": "",
    "working_time": "00:00-24:00",
    "lon": 38.079671,
    "lat": 54.898101
  },
  {
    "id": 11809,
    "address": "Московская область, Химки, Ленинградская улица, 16Б",
    "name": "Азбука Вкуса",
    "city": "Москва",
    "date_review": "11/1/2019",
    "holding_name": "Азбука Вкуса",
    "website": "",
    "working_time": "00:00-24:00",
    "lon": 37.438521,
    "lat": 55.888014
  },
  {
    "id": 11811,
    "address": "Московская область, Химки, Молодёжная улица, 6",
    "name": "Азбука Вкуса",
    "city": "Москва",
    "date_review": "11/1/2019",
    "holding_name": "Азбука Вкуса",
    "website": "",
    "working_time": "00:00-24:00",
    "lon": 37.419682,
    "lat": 55.881172
  },
  {
    "id": 361,
    "address": "107140, ул. Верхняя Красносельская, д. 3А, АШАН",
    "name": "АШАН",
    "city": "Москва",
    "date_review": "11/1/2019",
    "holding_name": "Ашан Ритейл Россия",
    "website": "",
    "working_time": "",
    "lon": 37.6655,
    "lat": 55.784865
  },
  {
    "id": 365,
    "address": "109052, г. Москва, Рязанский проспект, д.2, кор.2, АШАН",
    "name": "АШАН",
    "city": "Москва",
    "date_review": "11/1/2019",
    "holding_name": "Ашан Ритейл Россия",
    "website": "",
    "working_time": "",
    "lon": 37.73086,
    "lat": 55.73006
  },